20220704 000001+00:00 $IIMDA,29.8,I,1.01,B,14.3,C,,C,91.5,,,C,,T,,M,,N,,M*12
20220704 000001+00:00 $HCHDT,157.3,T*29
20220704 000001+00:00 $GPRMC,235956,A,4938.8998,N,12605.6100,W,0.1,323,030722,12.2,E,A,V*54
20220704 000001+00:00 $WIMWV,284.59,R,2.68,N,A*2D
20220704 000003+00:00 $IIMDA,29.8,I,1.01,B,14.3,C,,C,91.5,,,C,,T,,M,,N,,M*12
20220704 000003+00:00 $HCHDT,157.3,T*29
20220704 000003+00:00 $GPRMC,235958,A,4938.8998,N,12605.6100,W,0.1,316,030722,12.2,E,A,V*5C
20220704 000003+00:00 $WIMWV,286.1,R,3.89,N,A*1C
20220704 000005+00:00 $IIMDA,29.8,I,1.01,B,14.3,C,,C,91.5,,,C,,T,,M,,N,,M*12
20220704 000005+00:00 $HCHDT,157.4,T*2E
20220704 000005+00:00 $GPRMC,000000,A,4938.8998,N,12605.6100,W,0.1,309,040722,12.2,E,A,V*55
20220704 000005+00:00 $WIMWV,293.89,R,3.38,N,A*22
20220704 000007+00:00 $IIMDA,29.8,I,1.01,B,14.3,C,,C,91.5,,,C,,T,,M,,N,,M*12
20220704 000007+00:00 $HCHDT,157.6,T*2C
20220704 000007+00:00 $GPRMC,000002,A,4938.8998,N,12605.6100,W,0.1,304,040722,12.2,E,A,V*5A
20220704 000007+00:00 $WIMWV,317.89,R,1.59,N,A*2A
20220704 000009+00:00 $IIMDA,29.8,I,1.01,B,14.3,C,,C,91.5,,,C,,T,,M,,N,,M*12
20220704 000009+00:00 $HCHDT,157.6,T*2C
20220704 000009+00:00 $GPRMC,000004,A,4938.8998,N,12605.6100,W,0.1,300,040722,12.2,E,A,V*58
20220704 000009+00:00 $WIMWV,276.99,R,2.1,N,A*13
20220704 000011+00:00 $IIMDA,29.8,I,1.01,B,14.3,C,,C,91.4,,,C,,T,,M,,N,,M*13
20220704 000011+00:00 $HCHDT,157.6,T*2C
20220704 000011+00:00 $GPRMC,000006,A,4938.8998,N,12605.6100,W,0.1,296,040722,12.2,E,A,V*54
20220704 000011+00:00 $WIMWV,299.09,R,4.3,N,A*1F
20220704 000013+00:00 $IIMDA,29.8,I,1.01,B,14.3,C,,C,91.4,,,C,,T,,M,,N,,M*13
20220704 000013+00:00 $HCHDT,157.7,T*2D
20220704 000013+00:00 $GPRMC,000008,A,4938.8998,N,12605.6100,W,0.1,294,040722,12.2,E,A,V*58
20220704 000013+00:00 $WIMWV,309.89,R,3.29,N,A*20
20220704 000015+00:00 $IIMDA,29.8,I,1.01,B,14.3,C,,C,91.5,,,C,,T,,M,,N,,M*12
20220704 000015+00:00 $HCHDT,157.7,T*2D
20220704 000015+00:00 $GPRMC,000010,A,4938.8998,N,12605.6100,W,0.1,294,040722,12.2,E,A,V*51
20220704 000015+00:00 $WIMWV,333.09,R,2.99,N,A*2B
20220704 000017+00:00 $IIMDA,29.8,I,1.01,B,14.3,C,,C,91.4,,,C,,T,,M,,N,,M*13
20220704 000017+00:00 $HCHDT,157.7,T*2D
20220704 000017+00:00 $GPRMC,000012,A,4938.8998,N,12605.6100,W,0.1,297,040722,12.2,E,A,V*50
20220704 000017+00:00 $WIMWV,305.29,R,4.2,N,A*18
20220704 000019+00:00 $IIMDA,29.8,I,1.01,B,14.3,C,,C,91.4,,,C,,T,,M,,N,,M*13
20220704 000019+00:00 $HCHDT,157.7,T*2D
20220704 000019+00:00 $GPRMC,000014,A,4938.8998,N,12605.6100,W,0.1,298,040722,12.2,E,A,V*59
20220704 000019+00:00 $WIMWV,302.19,R,3.38,N,A*22
20220704 000021+00:00 $IIMDA,29.8,I,1.01,B,14.3,C,,C,91.4,,,C,,T,,M,,N,,M*13
20220704 000021+00:00 $HCHDT,157.7,T*2D
20220704 000021+00:00 $GPRMC,000016,A,4938.8998,N,12605.6100,W,0.1,299,040722,12.2,E,A,V*5A
20220704 000021+00:00 $WIMWV,297.99,R,3.6,N,A*1A
20220704 000023+00:00 $IIMDA,29.8,I,1.01,B,14.3,C,,C,91.4,,,C,,T,,M,,N,,M*13
20220704 000023+00:00 $HCHDT,157.7,T*2D
20220704 000023+00:00 $GPRMC,000018,A,4938.8998,N,12605.6100,W,0.1,302,040722,12.2,E,A,V*57
20220704 000023+00:00 $WIMWV,295.89,R,3.19,N,A*27
20220704 000025+00:00 $IIMDA,29.8,I,1.01,B,14.3,C,,C,91.4,,,C,,T,,M,,N,,M*13
20220704 000025+00:00 $HCHDT,157.8,T*22
20220704 000025+00:00 $GPRMC,000020,A,4938.8998,N,12605.6100,W,0.1,307,040722,12.2,E,A,V*59
20220704 000025+00:00 $WIMWV,290.29,R,3.19,N,A*28
20220704 000027+00:00 $IIMDA,29.8,I,1.01,B,14.3,C,,C,91.4,,,C,,T,,M,,N,,M*13
20220704 000027+00:00 $HCHDT,157.8,T*22
20220704 000027+00:00 $GPRMC,000022,A,4938.8998,N,12605.6100,W,0,313,040722,12.2,E,A,V*41
20220704 000027+00:00 $WIMWV,279.59,R,3.19,N,A*28
20220704 000029+00:00 $IIMDA,29.8,I,1.01,B,14.3,C,,C,91.4,,,C,,T,,M,,N,,M*13
20220704 000029+00:00 $HCHDT,157.7,T*2D
20220704 000029+00:00 $GPRMC,000024,A,4938.8998,N,12605.6100,W,0,319,040722,12.2,E,A,V*4D
20220704 000029+00:00 $WIMWV,282.49,R,3.38,N,A*2E
20220704 000031+00:00 $IIMDA,29.8,I,1.01,B,14.3,C,,C,91.4,,,C,,T,,M,,N,,M*13
20220704 000031+00:00 $HCHDT,157.7,T*2D
20220704 000031+00:00 $GPRMC,000026,A,4938.8998,N,12605.6100,W,0,328,040722,12.2,E,A,V*4D
20220704 000031+00:00 $WIMWV,297.59,R,3.79,N,A*2E
20220704 000033+00:00 $IIMDA,29.8,I,1.01,B,14.3,C,,C,91.5,,,C,,T,,M,,N,,M*12
20220704 000033+00:00 $HCHDT,157.7,T*2D
20220704 000033+00:00 $GPRMC,000028,A,4938.8998,N,12605.6100,W,0,340,040722,12.2,E,A,V*4D
20220704 000033+00:00 $WIMWV,300.79,R,3.79,N,A*23
20220704 000035+00:00 $IIMDA,29.8,I,1.01,B,14.3,C,,C,91.4,,,C,,T,,M,,N,,M*13
20220704 000035+00:00 $HCHDT,157.6,T*2C
20220704 000035+00:00 $GPRMC,000030,A,4938.8998,N,12605.6100,W,0,350,040722,12.2,E,A,V*45
20220704 000035+00:00 $WIMWV,301.99,R,4.39,N,A*2F
20220704 000037+00:00 $IIMDA,29.8,I,1.01,B,14.3,C,,C,91.4,,,C,,T,,M,,N,,M*13
20220704 000037+00:00 $HCHDT,157.6,T*2C
20220704 000037+00:00 $GPRMC,000032,A,4938.8998,N,12605.6100,W,0,358,040722,12.2,E,A,V*4F
20220704 000037+00:00 $WIMWV,305.69,R,4.9,N,A*17
20220704 000039+00:00 $IIMDA,29.8,I,1.01,B,14.3,C,,C,91.4,,,C,,T,,M,,N,,M*13
20220704 000039+00:00 $HCHDT,157.5,T*2F
20220704 000039+00:00 $GPRMC,000034,A,4938.8998,N,12605.6100,W,0.1,5,040722,12.2,E,A,V*5D
20220704 000039+00:00 $WIMWV,287.69,R,4.2,N,A*17
20220704 000041+00:00 $IIMDA,29.8,I,1.01,B,14.3,C,,C,91.3,,,C,,T,,M,,N,,M*14
20220704 000041+00:00 $HCHDT,157.4,T*2E
20220704 000041+00:00 $GPRMC,000036,A,4938.8998,N,12605.6100,W,0.1,11,040722,12.2,E,A,V*6A
20220704 000041+00:00 $WIMWV,297.59,R,5.19,N,A*2E
20220704 000043+00:00 $IIMDA,29.8,I,1.01,B,14.3,C,,C,91.3,,,C,,T,,M,,N,,M*14
20220704 000043+00:00 $HCHDT,157.3,T*29
20220704 000043+00:00 $GPRMC,000038,A,4938.8998,N,12605.6100,W,0.1,16,040722,12.2,E,A,V*63
20220704 000043+00:00 $WIMWV,296.59,R,4.59,N,A*2A
20220704 000045+00:00 $IIMDA,29.8,I,1.01,B,14.3,C,,C,91.3,,,C,,T,,M,,N,,M*14
20220704 000045+00:00 $HCHDT,157.2,T*28
20220704 000045+00:00 $GPRMC,000040,A,4938.8998,N,12605.6100,W,0.1,19,040722,12.2,E,A,V*63
20220704 000045+00:00 $WIMWV,284.49,R,3.79,N,A*2D
20220704 000047+00:00 $IIMDA,29.8,I,1.01,B,14.3,C,,C,91.3,,,C,,T,,M,,N,,M*14
20220704 000047+00:00 $HCHDT,157.1,T*2B
20220704 000047+00:00 $GPRMC,000042,A,4938.8998,N,12605.6100,W,0.1,23,040722,12.2,E,A,V*68
20220704 000047+00:00 $WIMWV,287.79,R,2.9,N,A*1B
20220704 000049+00:00 $IIMDA,29.8,I,1.01,B,14.3,C,,C,91.2,,,C,,T,,M,,N,,M*15
20220704 000049+00:00 $HCHDT,157,T*34
20220704 000049+00:00 $GPRMC,000044,A,4938.8998,N,12605.6100,W,0.1,24,040722,12.2,E,A,V*69
20220704 000049+00:00 $WIMWV,305.09,R,3.89,N,A*2E
20220704 000051+00:00 $IIMDA,29.8,I,1.01,B,14.3,C,,C,91.2,,,C,,T,,M,,N,,M*15
20220704 000051+00:00 $HCHDT,156.9,T*22
20220704 000051+00:00 $GPRMC,000046,A,4938.8998,N,12605.6100,W,0.1,25,040722,12.2,E,A,V*6A
20220704 000051+00:00 $WIMWV,298.29,R,3.6,N,A*1E
20220704 000053+00:00 $IIMDA,29.8,I,1.01,B,14.3,C,,C,91.2,,,C,,T,,M,,N,,M*15
20220704 000053+00:00 $HCHDT,156.8,T*23
20220704 000053+00:00 $GPRMC,000048,A,4938.8998,N,12605.6100,W,0.1,25,040722,12.2,E,A,V*64
20220704 000053+00:00 $WIMWV,315.99,R,2.1,N,A*17
20220704 000055+00:00 $IIMDA,29.8,I,1.01,B,14.3,C,,C,91.2,,,C,,T,,M,,N,,M*15
20220704 000055+00:00 $HCHDT,156.8,T*23
20220704 000055+00:00 $GPRMC,000050,A,4938.8998,N,12605.6100,W,0.1,25,040722,12.2,E,A,V*6D
20220704 000055+00:00 $WIMWV,331.39,R,3.5,N,A*1E
20220704 000057+00:00 $IIMDA,29.8,I,1.01,B,14.3,C,,C,91.2,,,C,,T,,M,,N,,M*15
20220704 000057+00:00 $HCHDT,156.7,T*2C
20220704 000057+00:00 $GPRMC,000052,A,4938.8998,N,12605.6100,W,0.1,24,040722,12.2,E,A,V*6E
20220704 000057+00:00 $WIMWV,309.09,R,3.6,N,A*15
20220704 000059+00:00 $IIMDA,29.8,I,1.01,B,14.3,C,,C,91.1,,,C,,T,,M,,N,,M*16
20220704 000059+00:00 $HCHDT,156.7,T*2C
20220704 000059+00:00 $GPRMC,000054,A,4938.8998,N,12605.6100,W,0.1,24,040722,12.2,E,A,V*68
20220704 000059+00:00 $WIMWV,306.79,R,3.29,N,A*20
20220704 000101+00:00 $IIMDA,29.8,I,1.01,B,14.3,C,,C,91.1,,,C,,T,,M,,N,,M*16
20220704 000101+00:00 $HCHDT,156.7,T*2C
20220704 000101+00:00 $GPRMC,000056,A,4938.8998,N,12605.6100,W,0.1,22,040722,12.2,E,A,V*6C
20220704 000101+00:00 $WIMWV,328.89,R,4.78,N,A*20
20220704 000103+00:00 $IIMDA,29.8,I,1.01,B,14.3,C,,C,91.1,,,C,,T,,M,,N,,M*16
20220704 000103+00:00 $HCHDT,156.7,T*2C
20220704 000103+00:00 $GPRMC,000058,A,4938.8998,N,12605.6100,W,0.1,20,040722,12.2,E,A,V*60
20220704 000103+00:00 $WIMWV,312.49,R,4.3,N,A*19
20220704 000105+00:00 $IIMDA,29.8,I,1.01,B,14.3,C,,C,91.1,,,C,,T,,M,,N,,M*16
20220704 000105+00:00 $HCHDT,156.7,T*2C
20220704 000105+00:00 $GPRMC,000100,A,4938.8998,N,12605.6100,W,0.1,17,040722,12.2,E,A,V*68
20220704 000105+00:00 $WIMWV,318.19,R,4.49,N,A*28
20220704 000107+00:00 $IIMDA,29.8,I,1.01,B,14.3,C,,C,91.1,,,C,,T,,M,,N,,M*16
20220704 000107+00:00 $HCHDT,156.7,T*2C
20220704 000107+00:00 $GPRMC,000102,A,4938.8998,N,12605.6100,W,0,13,040722,12.2,E,A,V*71
20220704 000107+00:00 $WIMWV,327.59,R,5.19,N,A*24
20220704 000109+00:00 $IIMDA,29.8,I,1.01,B,14.3,C,,C,91.1,,,C,,T,,M,,N,,M*16
20220704 000109+00:00 $HCHDT,156.8,T*23
20220704 000109+00:00 $GPRMC,000104,A,4938.8998,N,12605.6100,W,0,7,040722,12.2,E,A,V*42
20220704 000109+00:00 $WIMWV,327.59,R,5.09,N,A*25
20220704 000111+00:00 $IIMDA,29.8,I,1.01,B,14.3,C,,C,91.1,,,C,,T,,M,,N,,M*16
20220704 000111+00:00 $HCHDT,156.9,T*22
20220704 000111+00:00 $GPRMC,000106,A,4938.8998,N,12605.6100,W,0,1,040722,12.2,E,A,V*46
20220704 000111+00:00 $WIMWV,308.29,R,5.6,N,A*10
20220704 000113+00:00 $IIMDA,29.8,I,1.01,B,14.3,C,,C,91.1,,,C,,T,,M,,N,,M*16
20220704 000113+00:00 $HCHDT,156.9,T*22
20220704 000113+00:00 $GPRMC,000108,A,4938.8998,N,12605.6100,W,0,355,040722,12.2,E,A,V*4A
20220704 000113+00:00 $WIMWV,324.59,R,4.08,N,A*26
20220704 000115+00:00 $IIMDA,29.8,I,1.01,B,14.3,C,,C,91.1,,,C,,T,,M,,N,,M*16
20220704 000115+00:00 $HCHDT,157,T*34
20220704 000115+00:00 $GPRMC,000110,A,4938.8998,N,12605.6100,W,0,349,040722,12.2,E,A,V*4E
20220704 000115+00:00 $WIMWV,305.69,R,5.89,N,A*2E
20220704 000117+00:00 $IIMDA,29.8,I,1.01,B,14.3,C,,C,91.1,,,C,,T,,M,,N,,M*16
20220704 000117+00:00 $HCHDT,157.1,T*2B
20220704 000117+00:00 $GPRMC,000112,A,4938.8998,N,12605.6100,W,0,340,040722,12.2,E,A,V*45
20220704 000117+00:00 $WIMWV,289.59,R,4.49,N,A*25
20220704 000119+00:00 $IIMDA,29.8,I,1.01,B,14.3,C,,C,91.1,,,C,,T,,M,,N,,M*16
20220704 000119+00:00 $HCHDT,157.1,T*2B
20220704 000119+00:00 $GPRMC,000114,A,4938.8998,N,12605.6100,W,0,329,040722,12.2,E,A,V*4C
20220704 000119+00:00 $WIMWV,284.29,R,5.38,N,A*28
20220704 000121+00:00 $IIMDA,29.8,I,1.01,B,14.3,C,,C,91.1,,,C,,T,,M,,N,,M*16
20220704 000121+00:00 $HCHDT,157.2,T*28
20220704 000121+00:00 $GPRMC,000116,A,4938.8998,N,12605.6100,W,0,317,040722,12.2,E,A,V*43
20220704 000121+00:00 $WIMWV,287.2,R,4.49,N,A*15
20220704 000123+00:00 $IIMDA,29.8,I,1.01,B,14.3,C,,C,91.1,,,C,,T,,M,,N,,M*16
20220704 000123+00:00 $HCHDT,157.2,T*28
20220704 000123+00:00 $GPRMC,000118,A,4938.8998,N,12605.6100,W,0,306,040722,12.2,E,A,V*4D
20220704 000123+00:00 $WIMWV,288.49,R,4.2,N,A*1A
20220704 000125+00:00 $IIMDA,29.8,I,1.01,B,14.3,C,,C,91.1,,,C,,T,,M,,N,,M*16
20220704 000125+00:00 $HCHDT,157.2,T*28
20220704 000125+00:00 $GPRMC,000120,A,4938.8998,N,12605.6100,W,0,294,040722,12.2,E,A,V*4C
20220704 000125+00:00 $WIMWV,285.29,R,4.78,N,A*2C
20220704 000127+00:00 $IIMDA,29.8,I,1.01,B,14.3,C,,C,91,,,C,,T,,M,,N,,M*09
20220704 000127+00:00 $HCHDT,157.3,T*29
20220704 000127+00:00 $GPRMC,000122,A,4938.8998,N,12605.6100,W,0,279,040722,12.2,E,A,V*4D
20220704 000127+00:00 $WIMWV,289.39,R,4.3,N,A*1D
20220704 000129+00:00 $IIMDA,29.8,I,1.01,B,14.3,C,,C,91,,,C,,T,,M,,N,,M*09
20220704 000129+00:00 $HCHDT,157.3,T*29
20220704 000129+00:00 $GPRMC,000124,A,4938.8998,N,12605.6100,W,0,266,040722,12.2,E,A,V*45
20220704 000129+00:00 $WIMWV,293.39,R,4.39,N,A*2F
20220704 000131+00:00 $IIMDA,29.8,I,1.01,B,14.3,C,,C,91,,,C,,T,,M,,N,,M*09
20220704 000131+00:00 $HCHDT,157.3,T*29
20220704 000131+00:00 $GPRMC,000126,A,4938.8998,N,12605.6100,W,0,258,040722,12.2,E,A,V*4A
20220704 000131+00:00 $WIMWV,290.99,R,4.3,N,A*1F
20220704 000133+00:00 $IIMDA,29.8,I,1.01,B,14.3,C,,C,91,,,C,,T,,M,,N,,M*09
20220704 000133+00:00 $HCHDT,157.3,T*29
20220704 000133+00:00 $GPRMC,000128,A,4938.8998,N,12605.6100,W,0,254,040722,12.2,E,A,V*48
20220704 000133+00:00 $WIMWV,284.19,R,4.59,N,A*2D
20220704 000135+00:00 $IIMDA,29.8,I,1.01,B,14.3,C,,C,90.9,,,C,,T,,M,,N,,M*1F
20220704 000135+00:00 $HCHDT,157.2,T*28
20220704 000135+00:00 $GPRMC,000130,A,4938.8998,N,12605.6100,W,0,250,040722,12.2,E,A,V*45
20220704 000135+00:00 $WIMWV,284.39,R,4.78,N,A*2C
20220704 000137+00:00 $IIMDA,29.8,I,1.01,B,14.3,C,,C,90.9,,,C,,T,,M,,N,,M*1F
20220704 000137+00:00 $HCHDT,157.2,T*28
20220704 000137+00:00 $GPRMC,000132,A,4938.8998,N,12605.6100,W,0,242,040722,12.2,E,A,V*44
20220704 000137+00:00 $WIMWV,286.89,R,4.78,N,A*25
20220704 000139+00:00 $IIMDA,29.8,I,1.01,B,14.3,C,,C,90.9,,,C,,T,,M,,N,,M*1F
20220704 000139+00:00 $HCHDT,157.2,T*28
20220704 000139+00:00 $GPRMC,000134,A,4938.8998,N,12605.6100,W,0,236,040722,12.2,E,A,V*41
20220704 000139+00:00 $WIMWV,282.99,R,4.49,N,A*22
20220704 000141+00:00 $IIMDA,29.8,I,1.01,B,14.3,C,,C,90.9,,,C,,T,,M,,N,,M*1F
20220704 000141+00:00 $HCHDT,157.1,T*2B
20220704 000141+00:00 $GPRMC,000136,A,4938.8998,N,12605.6100,W,0,228,040722,12.2,E,A,V*4C
20220704 000141+00:00 $WIMWV,282.19,R,4.59,N,A*2B
20220704 000143+00:00 $IIMDA,29.8,I,1.01,B,14.3,C,,C,90.8,,,C,,T,,M,,N,,M*1E
20220704 000143+00:00 $HCHDT,157,T*34
20220704 000143+00:00 $GPRMC,000138,A,4938.8998,N,12605.6100,W,0,221,040722,12.2,E,A,V*4B
20220704 000143+00:00 $WIMWV,283.09,R,5,N,A*08
20220704 000145+00:00 $IIMDA,29.8,I,1.01,B,14.3,C,,C,90.9,,,C,,T,,M,,N,,M*1F
20220704 000145+00:00 $HCHDT,157,T*34
20220704 000145+00:00 $GPRMC,000140,A,4938.8998,N,12605.6100,W,0,217,040722,12.2,E,A,V*41
20220704 000145+00:00 $WIMWV,281.79,R,5.29,N,A*28
20220704 000147+00:00 $IIMDA,29.8,I,1.01,B,14.3,C,,C,90.8,,,C,,T,,M,,N,,M*1E
20220704 000147+00:00 $HCHDT,157,T*34
20220704 000147+00:00 $GPRMC,000142,A,4938.8998,N,12605.6100,W,0,210,040722,12.2,E,A,V*44
20220704 000147+00:00 $WIMWV,281.79,R,5,N,A*0D
20220704 000149+00:00 $IIMDA,29.8,I,1.01,B,14.3,C,,C,90.8,,,C,,T,,M,,N,,M*1E
20220704 000149+00:00 $HCHDT,156.9,T*22
20220704 000149+00:00 $GPRMC,000144,A,4938.8998,N,12605.6100,W,0,199,040722,12.2,E,A,V*40
20220704 000149+00:00 $WIMWV,281.59,R,5,N,A*0F
20220704 000151+00:00 $IIMDA,29.8,I,1.01,B,14.3,C,,C,90.8,,,C,,T,,M,,N,,M*1E
20220704 000151+00:00 $HCHDT,156.8,T*23
20220704 000151+00:00 $GPRMC,000146,A,4938.8998,N,12605.6100,W,0,189,040722,12.2,E,A,V*43
20220704 000151+00:00 $WIMWV,291.79,R,4.78,N,A*2C
20220704 000153+00:00 $IIMDA,29.8,I,1.01,B,14.3,C,,C,90.7,,,C,,T,,M,,N,,M*11
20220704 000153+00:00 $HCHDT,156.8,T*23
20220704 000153+00:00 $GPRMC,000148,A,4938.8998,N,12605.6100,W,0,182,040722,12.2,E,A,V*46
20220704 000153+00:00 $WIMWV,290.09,R,4.68,N,A*2B
20220704 000155+00:00 $IIMDA,29.8,I,1.01,B,14.3,C,,C,90.7,,,C,,T,,M,,N,,M*11
20220704 000155+00:00 $HCHDT,156.7,T*2C
20220704 000155+00:00 $GPRMC,000150,A,4938.8998,N,12605.6100,W,0,174,040722,12.2,E,A,V*46
20220704 000155+00:00 $WIMWV,288.29,R,4.3,N,A*1D
20220704 000157+00:00 $IIMDA,29.8,I,1.01,B,14.3,C,,C,90.7,,,C,,T,,M,,N,,M*11
20220704 000157+00:00 $HCHDT,156.6,T*2D
20220704 000157+00:00 $GPRMC,000152,A,4938.8998,N,12605.6100,W,0,173,040722,12.2,E,A,V*43
20220704 000157+00:00 $WIMWV,292.19,R,4.3,N,A*15
20220704 000159+00:00 $IIMDA,29.8,I,1.01,B,14.3,C,,C,90.7,,,C,,T,,M,,N,,M*11
20220704 000159+00:00 $HCHDT,156.5,T*2E
20220704 000159+00:00 $GPRMC,000154,A,4938.8998,N,12605.6100,W,0,179,040722,12.2,E,A,V*4F
20220704 000159+00:00 $WIMWV,301.59,R,4.78,N,A*26
20220704 000201+00:00 $IIMDA,29.8,I,1.01,B,14.3,C,,C,90.7,,,C,,T,,M,,N,,M*11
20220704 000201+00:00 $HCHDT,156.4,T*2F
20220704 000201+00:00 $GPRMC,000156,A,4938.8998,N,12605.6100,W,0,190,040722,12.2,E,A,V*4A
20220704 000201+00:00 $WIMWV,300.39,R,4.59,N,A*22
20220704 000203+00:00 $IIMDA,29.8,I,1.01,B,14.3,C,,C,90.7,,,C,,T,,M,,N,,M*11
20220704 000203+00:00 $HCHDT,156.3,T*28
20220704 000203+00:00 $GPRMC,000158,A,4938.8998,N,12605.6100,W,0,204,040722,12.2,E,A,V*4A
20220704 000203+00:00 $WIMWV,305.49,R,5,N,A*03
20220704 000205+00:00 $IIMDA,29.8,I,1.01,B,14.3,C,,C,90.6,,,C,,T,,M,,N,,M*10
20220704 000205+00:00 $HCHDT,156.3,T*28
20220704 000205+00:00 $GPRMC,000200,A,4938.8998,N,12605.6100,W,0,226,040722,12.2,E,A,V*44
20220704 000205+00:00 $WIMWV,306.69,R,5.19,N,A*24
20220704 000207+00:00 $IIMDA,29.8,I,1.01,B,14.2,C,,C,90.6,,,C,,T,,M,,N,,M*11
20220704 000207+00:00 $HCHDT,156.4,T*2F
20220704 000207+00:00 $GPRMC,000202,A,4938.8998,N,12605.6100,W,0,243,040722,12.2,E,A,V*45
20220704 000207+00:00 $WIMWV,305.69,R,5.6,N,A*19
20220704 000209+00:00 $IIMDA,29.8,I,1.01,B,14.2,C,,C,90.6,,,C,,T,,M,,N,,M*11
20220704 000209+00:00 $HCHDT,156.5,T*2E
20220704 000209+00:00 $GPRMC,000204,A,4938.8998,N,12605.6100,W,0,254,040722,12.2,E,A,V*45
20220704 000209+00:00 $WIMWV,307.39,R,4.68,N,A*27
20220704 000211+00:00 $IIMDA,29.8,I,1.01,B,14.2,C,,C,90.6,,,C,,T,,M,,N,,M*11
20220704 000211+00:00 $HCHDT,156.7,T*2C
20220704 000211+00:00 $GPRMC,000206,A,4938.8998,N,12605.6100,W,0,258,040722,12.2,E,A,V*4B
20220704 000211+00:00 $WIMWV,306.79,R,4.68,N,A*22
20220704 000213+00:00 $IIMDA,29.8,I,1.01,B,14.2,C,,C,90.7,,,C,,T,,M,,N,,M*10
20220704 000213+00:00 $HCHDT,156.8,T*23
20220704 000213+00:00 $GPRMC,000208,A,4938.8998,N,12605.6100,W,0,257,040722,12.2,E,A,V*4A
20220704 000213+00:00 $WIMWV,306.99,R,3.19,N,A*2D
20220704 000215+00:00 $IIMDA,29.8,I,1.01,B,14.2,C,,C,90.6,,,C,,T,,M,,N,,M*11
20220704 000215+00:00 $HCHDT,156.9,T*22
20220704 000215+00:00 $GPRMC,000210,A,4938.8998,N,12605.6100,W,0,256,040722,12.2,E,A,V*42
20220704 000215+00:00 $WIMWV,305.29,R,2.9,N,A*15
20220704 000217+00:00 $IIMDA,29.8,I,1.01,B,14.2,C,,C,90.7,,,C,,T,,M,,N,,M*10
20220704 000217+00:00 $HCHDT,156.9,T*22
20220704 000217+00:00 $GPRMC,000212,A,4938.8998,N,12605.6100,W,0,254,040722,12.2,E,A,V*42
20220704 000217+00:00 $WIMWV,307.19,R,2.8,N,A*15
20220704 000219+00:00 $IIMDA,29.8,I,1.01,B,14.2,C,,C,90.7,,,C,,T,,M,,N,,M*10
20220704 000219+00:00 $HCHDT,157.1,T*2B
20220704 000219+00:00 $GPRMC,000214,A,4938.8998,N,12605.6100,W,0,252,040722,12.2,E,A,V*42
20220704 000219+00:00 $WIMWV,305.49,R,3.69,N,A*24
20220704 000221+00:00 $IIMDA,29.8,I,1.01,B,14.2,C,,C,90.7,,,C,,T,,M,,N,,M*10
20220704 000221+00:00 $HCHDT,157.4,T*2E
20220704 000221+00:00 $GPRMC,000216,A,4938.8998,N,12605.6100,W,0,249,040722,12.2,E,A,V*4A
20220704 000221+00:00 $WIMWV,303.89,R,3.69,N,A*2E
20220704 000223+00:00 $IIMDA,29.8,I,1.01,B,14.2,C,,C,90.7,,,C,,T,,M,,N,,M*10
20220704 000223+00:00 $HCHDT,157.6,T*2C
20220704 000223+00:00 $GPRMC,000218,A,4938.8998,N,12605.6100,W,0.1,245,040722,12.2,E,A,V*57
20220704 000223+00:00 $WIMWV,304.39,R,3.89,N,A*2C
20220704 000225+00:00 $IIMDA,29.8,I,1.01,B,14.2,C,,C,90.8,,,C,,T,,M,,N,,M*1F
20220704 000225+00:00 $HCHDT,157.8,T*22
20220704 000225+00:00 $GPRMC,000220,A,4938.8998,N,12605.6100,W,0.1,241,040722,12.2,E,A,V*58
20220704 000225+00:00 $WIMWV,304.59,R,3.89,N,A*2A
20220704 000227+00:00 $IIMDA,29.8,I,1.01,B,14.2,C,,C,90.8,,,C,,T,,M,,N,,M*1F
20220704 000227+00:00 $HCHDT,158,T*3B
20220704 000227+00:00 $GPRMC,000222,A,4938.8998,N,12605.6100,W,0.1,238,040722,12.2,E,A,V*54
20220704 000227+00:00 $WIMWV,294.99,R,2.99,N,A*2E
20220704 000229+00:00 $IIMDA,29.8,I,1.01,B,14.2,C,,C,90.7,,,C,,T,,M,,N,,M*10
20220704 000229+00:00 $HCHDT,158.2,T*27
20220704 000229+00:00 $GPRMC,000224,A,4938.8998,N,12605.6100,W,0.1,235,040722,12.2,E,A,V*5F
20220704 000229+00:00 $WIMWV,300.59,R,2.99,N,A*2E
20220704 000231+00:00 $IIMDA,29.8,I,1.01,B,14.2,C,,C,90.8,,,C,,T,,M,,N,,M*1F
20220704 000231+00:00 $HCHDT,158.1,T*24
20220704 000231+00:00 $GPRMC,000226,A,4938.8998,N,12605.6100,W,0.1,231,040722,12.2,E,A,V*59
20220704 000231+00:00 $WIMWV,308.69,R,3.29,N,A*2F
20220704 000233+00:00 $IIMDA,29.8,I,1.01,B,14.2,C,,C,90.8,,,C,,T,,M,,N,,M*1F
20220704 000233+00:00 $HCHDT,158.1,T*24
20220704 000233+00:00 $GPRMC,000228,A,4938.8998,N,12605.6100,W,0.1,228,040722,12.2,E,A,V*5F
20220704 000233+00:00 $WIMWV,308.69,R,2.9,N,A*1C
20220704 000235+00:00 $IIMDA,29.8,I,1.01,B,14.2,C,,C,90.8,,,C,,T,,M,,N,,M*1F
20220704 000235+00:00 $HCHDT,158.2,T*27
20220704 000235+00:00 $GPRMC,000230,A,4938.8998,N,12605.6100,W,0.1,225,040722,12.2,E,A,V*5B
20220704 000235+00:00 $WIMWV,305.09,R,2.8,N,A*16
20220704 000237+00:00 $IIMDA,29.8,I,1.01,B,14.2,C,,C,90.8,,,C,,T,,M,,N,,M*1F
20220704 000237+00:00 $HCHDT,158.3,T*26
20220704 000237+00:00 $GPRMC,000232,A,4938.8998,N,12605.6100,W,0.1,222,040722,12.2,E,A,V*5E
20220704 000237+00:00 $WIMWV,302.19,R,2.49,N,A*25
20220704 000239+00:00 $IIMDA,29.8,I,1.01,B,14.2,C,,C,90.8,,,C,,T,,M,,N,,M*1F
20220704 000239+00:00 $HCHDT,158.3,T*26
20220704 000239+00:00 $GPRMC,000234,A,4938.8998,N,12605.6100,W,0.1,218,040722,12.2,E,A,V*51
20220704 000239+00:00 $WIMWV,299.99,R,2.1,N,A*12
20220704 000241+00:00 $IIMDA,29.8,I,1.01,B,14.2,C,,C,90.9,,,C,,T,,M,,N,,M*1E
20220704 000241+00:00 $HCHDT,158.4,T*21
20220704 000241+00:00 $GPRMC,000236,A,4938.8998,N,12605.6100,W,0.1,213,040722,12.2,E,A,V*58
20220704 000241+00:00 $WIMWV,303.09,R,2.49,N,A*25
20220704 000243+00:00 $IIMDA,29.8,I,1.01,B,14.2,C,,C,90.9,,,C,,T,,M,,N,,M*1E
20220704 000243+00:00 $HCHDT,158.5,T*20
20220704 000243+00:00 $GPRMC,000238,A,4938.8998,N,12605.6100,W,0.1,209,040722,12.2,E,A,V*5D
20220704 000243+00:00 $WIMWV,294.89,R,2.49,N,A*22
20220704 000245+00:00 $IIMDA,29.8,I,1.01,B,14.2,C,,C,90.9,,,C,,T,,M,,N,,M*1E
20220704 000245+00:00 $HCHDT,158.5,T*20
20220704 000245+00:00 $GPRMC,000240,A,4938.8998,N,12605.6100,W,0.1,205,040722,12.2,E,A,V*5E
20220704 000245+00:00 $WIMWV,287.79,R,2.59,N,A*2E
20220704 000247+00:00 $IIMDA,29.8,I,1.01,B,14.2,C,,C,90.9,,,C,,T,,M,,N,,M*1E
20220704 000247+00:00 $HCHDT,158.5,T*20
20220704 000247+00:00 $GPRMC,000242,A,4938.8998,N,12605.6100,W,0.1,200,040722,12.2,E,A,V*59
20220704 000247+00:00 $WIMWV,282.69,R,2.8,N,A*1E
20220704 000249+00:00 $IIMDA,29.8,I,1.01,B,14.2,C,,C,90.9,,,C,,T,,M,,N,,M*1E
20220704 000249+00:00 $HCHDT,158.5,T*20
20220704 000249+00:00 $GPRMC,000244,A,4938.8998,N,12605.6100,W,0.1,194,040722,12.2,E,A,V*51
20220704 000249+00:00 $WIMWV,280.99,R,3.09,N,A*23
20220704 000251+00:00 $IIMDA,29.8,I,1.01,B,14.2,C,,C,90.9,,,C,,T,,M,,N,,M*1E
20220704 000251+00:00 $HCHDT,158.6,T*23
20220704 000251+00:00 $GPRMC,000246,A,4938.8998,N,12605.6100,W,0.1,191,040722,12.2,E,A,V*56
20220704 000251+00:00 $WIMWV,287.39,R,2.68,N,A*28
20220704 000253+00:00 $IIMDA,29.8,I,1.01,B,14.2,C,,C,90.9,,,C,,T,,M,,N,,M*1E
20220704 000253+00:00 $HCHDT,158.6,T*23
20220704 000253+00:00 $GPRMC,000248,A,4938.8998,N,12605.6100,W,0.1,187,040722,12.2,E,A,V*5F
20220704 000253+00:00 $WIMWV,290.69,R,3.19,N,A*2C
20220704 000255+00:00 $IIMDA,29.8,I,1.01,B,14.2,C,,C,90.9,,,C,,T,,M,,N,,M*1E
20220704 000255+00:00 $HCHDT,158.5,T*20
20220704 000255+00:00 $GPRMC,000250,A,4938.8998,N,12605.6100,W,0.1,183,040722,12.2,E,A,V*52
20220704 000255+00:00 $WIMWV,283.79,R,3.79,N,A*29
20220704 000257+00:00 $IIMDA,29.8,I,1.01,B,14.2,C,,C,90.9,,,C,,T,,M,,N,,M*1E
20220704 000257+00:00 $HCHDT,158.5,T*20
20220704 000257+00:00 $GPRMC,000252,A,4938.8998,N,12605.6100,W,0.1,179,040722,12.2,E,A,V*55
20220704 000257+00:00 $WIMWV,286.1,R,3.79,N,A*13
20220704 000259+00:00 $IIMDA,29.8,I,1.01,B,14.2,C,,C,90.9,,,C,,T,,M,,N,,M*1E
20220704 000259+00:00 $HCHDT,158.5,T*20
20220704 000259+00:00 $GPRMC,000254,A,4938.8998,N,12605.6100,W,0.1,174,040722,12.2,E,A,V*5E
20220704 000259+00:00 $WIMWV,283.69,R,3.69,N,A*29
20220704 000301+00:00 $IIMDA,29.8,I,1.01,B,14.2,C,,C,90.8,,,C,,T,,M,,N,,M*1F
20220704 000301+00:00 $HCHDT,158.4,T*21
20220704 000301+00:00 $GPRMC,000256,A,4938.8998,N,12605.6100,W,0.1,171,040722,12.2,E,A,V*59
20220704 000301+00:00 $WIMWV,287.39,R,3.5,N,A*12
20220704 000303+00:00 $IIMDA,29.8,I,1.01,B,14.2,C,,C,90.8,,,C,,T,,M,,N,,M*1F
20220704 000303+00:00 $HCHDT,158.4,T*21
20220704 000303+00:00 $GPRMC,000258,A,4938.8998,N,12605.6100,W,0.1,168,040722,12.2,E,A,V*5F
20220704 000303+00:00 $WIMWV,291.49,R,2.99,N,A*26
20220704 000305+00:00 $IIMDA,29.8,I,1.01,B,14.2,C,,C,90.8,,,C,,T,,M,,N,,M*1F
20220704 000305+00:00 $HCHDT,158.3,T*26
20220704 000305+00:00 $GPRMC,000300,A,4938.8998,N,12605.6100,W,0.1,164,040722,12.2,E,A,V*5F
20220704 000305+00:00 $WIMWV,284.49,R,2.99,N,A*22
20220704 000307+00:00 $IIMDA,29.8,I,1.01,B,14.2,C,,C,90.8,,,C,,T,,M,,N,,M*1F
20220704 000307+00:00 $HCHDT,158.2,T*27
20220704 000307+00:00 $GPRMC,000302,A,4938.8998,N,12605.6100,W,0.1,162,040722,12.2,E,A,V*5B
20220704 000307+00:00 $WIMWV,286.49,R,2.9,N,A*19
20220704 000309+00:00 $IIMDA,29.8,I,1.01,B,14.2,C,,C,90.8,,,C,,T,,M,,N,,M*1F
20220704 000309+00:00 $HCHDT,158.1,T*24
20220704 000309+00:00 $GPRMC,000304,A,4938.8998,N,12605.6100,W,0.1,162,040722,12.2,E,A,V*5D
20220704 000309+00:00 $WIMWV,282.99,R,3.6,N,A*1E
20220704 000311+00:00 $IIMDA,29.8,I,1.01,B,14.2,C,,C,90.7,,,C,,T,,M,,N,,M*10
20220704 000311+00:00 $HCHDT,158,T*3B
20220704 000311+00:00 $GPRMC,000306,A,4938.8998,N,12605.6100,W,0.1,163,040722,12.2,E,A,V*5E
20220704 000311+00:00 $WIMWV,285.09,R,2.99,N,A*27
20220704 000313+00:00 $IIMDA,29.8,I,1.01,B,14.2,C,,C,90.7,,,C,,T,,M,,N,,M*10
20220704 000313+00:00 $HCHDT,157.9,T*23
20220704 000313+00:00 $GPRMC,000308,A,4938.8998,N,12605.6100,W,0.1,162,040722,12.2,E,A,V*51
20220704 000313+00:00 $WIMWV,284.49,R,2.39,N,A*28
20220704 000315+00:00 $IIMDA,29.8,I,1.01,B,14.2,C,,C,90.7,,,C,,T,,M,,N,,M*10
20220704 000315+00:00 $HCHDT,157.9,T*23
20220704 000315+00:00 $GPRMC,000310,A,4938.8998,N,12605.6100,W,0.1,162,040722,12.2,E,A,V*58
20220704 000315+00:00 $WIMWV,285.19,R,2.29,N,A*2D
20220704 000317+00:00 $IIMDA,29.8,I,1.01,B,14.2,C,,C,90.7,,,C,,T,,M,,N,,M*10
20220704 000317+00:00 $HCHDT,157.8,T*22
20220704 000317+00:00 $GPRMC,000312,A,4938.8998,N,12605.6100,W,0.1,161,040722,12.2,E,A,V*59
20220704 000317+00:00 $WIMWV,286.1,R,1.59,N,A*13
20220704 000319+00:00 $IIMDA,29.8,I,1.01,B,14.2,C,,C,90.7,,,C,,T,,M,,N,,M*10
20220704 000319+00:00 $HCHDT,157.7,T*2D
20220704 000319+00:00 $GPRMC,000314,A,4938.8998,N,12605.6100,W,0.1,161,040722,12.2,E,A,V*5F
20220704 000319+00:00 $WIMWV,301.49,R,1.98,N,A*2C
20220704 000321+00:00 $IIMDA,29.8,I,1.01,B,14.2,C,,C,90.6,,,C,,T,,M,,N,,M*11
20220704 000321+00:00 $HCHDT,157.6,T*2C
20220704 000321+00:00 $GPRMC,000316,A,4938.8998,N,12605.6100,W,0.1,160,040722,12.2,E,A,V*5C
20220704 000321+00:00 $WIMWV,318.19,R,0.89,N,A*20
20220704 000323+00:00 $IIMDA,29.8,I,1.01,B,14.2,C,,C,90.6,,,C,,T,,M,,N,,M*11
20220704 000323+00:00 $HCHDT,157.5,T*2F
20220704 000323+00:00 $GPRMC,000318,A,4938.8998,N,12605.6100,W,0.1,158,040722,12.2,E,A,V*59
20220704 000323+00:00 $WIMWV,286.19,R,2.2,N,A*17
20220704 000325+00:00 $IIMDA,29.8,I,1.01,B,14.2,C,,C,90.7,,,C,,T,,M,,N,,M*10
20220704 000325+00:00 $HCHDT,157.4,T*2E
20220704 000325+00:00 $GPRMC,000320,A,4938.8998,N,12605.6100,W,0.1,158,040722,12.2,E,A,V*52
20220704 000325+00:00 $WIMWV,285.99,R,3.5,N,A*1A
20220704 000327+00:00 $IIMDA,29.8,I,1.01,B,14.2,C,,C,90.7,,,C,,T,,M,,N,,M*10
20220704 000327+00:00 $HCHDT,157.3,T*29
20220704 000327+00:00 $GPRMC,000322,A,4938.8998,N,12605.6100,W,0.1,160,040722,12.2,E,A,V*5B
20220704 000327+00:00 $WIMWV,296.89,R,3.89,N,A*2D
20220704 000329+00:00 $IIMDA,29.8,I,1.01,B,14.2,C,,C,90.6,,,C,,T,,M,,N,,M*11
20220704 000329+00:00 $HCHDT,157.3,T*29
20220704 000329+00:00 $GPRMC,000324,A,4938.8998,N,12605.6100,W,0.1,160,040722,12.2,E,A,V*5D
20220704 000329+00:00 $WIMWV,303.09,R,4.3,N,A*1D
20220704 000331+00:00 $IIMDA,29.8,I,1.01,B,14.2,C,,C,90.6,,,C,,T,,M,,N,,M*11
20220704 000331+00:00 $HCHDT,157.2,T*28
20220704 000331+00:00 $GPRMC,000326,A,4938.8998,N,12605.6100,W,0.1,159,040722,12.2,E,A,V*55
20220704 000331+00:00 $WIMWV,304.59,R,4.3,N,A*1F
20220704 000333+00:00 $IIMDA,29.8,I,1.01,B,14.2,C,,C,90.6,,,C,,T,,M,,N,,M*11
20220704 000333+00:00 $HCHDT,157,T*34
20220704 000333+00:00 $GPRMC,000328,A,4938.8998,N,12605.6100,W,0.1,160,040722,12.2,E,A,V*51
20220704 000333+00:00 $WIMWV,301.29,R,3.79,N,A*27
20220704 000335+00:00 $IIMDA,29.8,I,1.01,B,14.2,C,,C,90.6,,,C,,T,,M,,N,,M*11
20220704 000335+00:00 $HCHDT,157,T*34
20220704 000335+00:00 $GPRMC,000330,A,4938.8998,N,12605.6100,W,0.1,161,040722,12.2,E,A,V*59
20220704 000335+00:00 $WIMWV,307.19,R,3.09,N,A*25
20220704 000337+00:00 $IIMDA,29.8,I,1.01,B,14.2,C,,C,90.6,,,C,,T,,M,,N,,M*11
20220704 000337+00:00 $HCHDT,157,T*34
20220704 000337+00:00 $GPRMC,000332,A,4938.8998,N,12605.6100,W,0.1,162,040722,12.2,E,A,V*58
20220704 000337+00:00 $WIMWV,322.59,R,2.68,N,A*20
20220704 000339+00:00 $IIMDA,29.8,I,1.01,B,14.2,C,,C,90.6,,,C,,T,,M,,N,,M*11
20220704 000339+00:00 $HCHDT,156.9,T*22
20220704 000339+00:00 $GPRMC,000334,A,4938.8998,N,12605.6100,W,0.1,163,040722,12.2,E,A,V*5F
20220704 000339+00:00 $WIMWV,352.09,R,2.8,N,A*14
20220704 000341+00:00 $IIMDA,29.8,I,1.01,B,14.2,C,,C,90.6,,,C,,T,,M,,N,,M*11
20220704 000341+00:00 $HCHDT,156.9,T*22
20220704 000341+00:00 $GPRMC,000336,A,4938.8998,N,12605.6100,W,0.1,164,040722,12.2,E,A,V*5A
20220704 000341+00:00 $WIMWV,327.29,R,2.59,N,A*20
20220704 000343+00:00 $IIMDA,29.8,I,1.01,B,14.2,C,,C,90.6,,,C,,T,,M,,N,,M*11
20220704 000343+00:00 $HCHDT,156.8,T*23
20220704 000343+00:00 $GPRMC,000338,A,4938.8998,N,12605.6100,W,0.1,165,040722,12.2,E,A,V*55
20220704 000343+00:00 $WIMWV,335.69,R,2.39,N,A*21
20220704 000345+00:00 $IIMDA,29.8,I,1.01,B,14.2,C,,C,90.7,,,C,,T,,M,,N,,M*10
20220704 000345+00:00 $HCHDT,156.8,T*23
20220704 000345+00:00 $GPRMC,000340,A,4938.8998,N,12605.6100,W,0.1,164,040722,12.2,E,A,V*5B
20220704 000345+00:00 $WIMWV,337.59,R,2.29,N,A*21
20220704 000347+00:00 $IIMDA,29.8,I,1.01,B,14.2,C,,C,90.6,,,C,,T,,M,,N,,M*11
20220704 000347+00:00 $HCHDT,156.8,T*23
20220704 000347+00:00 $GPRMC,000342,A,4938.8998,N,12605.6100,W,0.1,161,040722,12.2,E,A,V*5C
20220704 000347+00:00 $WIMWV,334.09,R,2.39,N,A*26
20220704 000349+00:00 $IIMDA,29.8,I,1.01,B,14.2,C,,C,90.6,,,C,,T,,M,,N,,M*11
20220704 000349+00:00 $HCHDT,156.8,T*23
20220704 000349+00:00 $GPRMC,000344,A,4938.8998,N,12605.6100,W,0.1,161,040722,12.2,E,A,V*5A
20220704 000349+00:00 $WIMWV,309.89,R,1.69,N,A*26
20220704 000351+00:00 $IIMDA,29.8,I,1.01,B,14.2,C,,C,90.7,,,C,,T,,M,,N,,M*10
20220704 000351+00:00 $HCHDT,156.8,T*23
20220704 000351+00:00 $GPRMC,000346,A,4938.8998,N,12605.6100,W,0.1,162,040722,12.2,E,A,V*5B
20220704 000351+00:00 $WIMWV,331.09,R,2.1,N,A*18
20220704 000353+00:00 $IIMDA,29.8,I,1.01,B,14.2,C,,C,90.7,,,C,,T,,M,,N,,M*10
20220704 000353+00:00 $HCHDT,156.8,T*23
20220704 000353+00:00 $GPRMC,000348,A,4938.8998,N,12605.6100,W,0.1,163,040722,12.2,E,A,V*54
20220704 000353+00:00 $WIMWV,331.59,R,2.49,N,A*21
20220704 000355+00:00 $IIMDA,29.8,I,1.01,B,14.2,C,,C,90.7,,,C,,T,,M,,N,,M*10
20220704 000355+00:00 $HCHDT,156.7,T*2C
20220704 000355+00:00 $GPRMC,000350,A,4938.8998,N,12605.6100,W,0.1,162,040722,12.2,E,A,V*5C
20220704 000355+00:00 $WIMWV,329.59,R,2.59,N,A*29
20220704 000357+00:00 $IIMDA,29.8,I,1.01,B,14.2,C,,C,90.7,,,C,,T,,M,,N,,M*10
20220704 000357+00:00 $HCHDT,156.7,T*2C
20220704 000357+00:00 $GPRMC,000352,A,4938.8998,N,12605.6100,W,0.1,162,040722,12.2,E,A,V*5E
20220704 000357+00:00 $WIMWV,334.09,R,2.1,N,A*1D
20220704 000359+00:00 $IIMDA,29.8,I,1.01,B,14.2,C,,C,90.8,,,C,,T,,M,,N,,M*1F
20220704 000359+00:00 $HCHDT,156.7,T*2C
20220704 000359+00:00 $GPRMC,000354,A,4938.8998,N,12605.6100,W,0.1,164,040722,12.2,E,A,V*5E
20220704 000359+00:00 $WIMWV,333.09,R,2.2,N,A*19
20220704 000401+00:00 $IIMDA,29.8,I,1.01,B,14.2,C,,C,90.7,,,C,,T,,M,,N,,M*10
20220704 000401+00:00 $HCHDT,156.8,T*23
20220704 000401+00:00 $GPRMC,000356,A,4938.8998,N,12605.6100,W,0.1,165,040722,12.2,E,A,V*5D
20220704 000401+00:00 $WIMWV,337.49,R,1.98,N,A*29
20220704 000403+00:00 $IIMDA,29.8,I,1.01,B,14.2,C,,C,90.8,,,C,,T,,M,,N,,M*1F
20220704 000403+00:00 $HCHDT,156.9,T*22
20220704 000403+00:00 $GPRMC,000358,A,4938.8998,N,12605.6100,W,0.1,162,040722,12.2,E,A,V*54
20220704 000403+00:00 $WIMWV,324.89,R,2.68,N,A*2B
20220704 000405+00:00 $IIMDA,29.8,I,1.01,B,14.2,C,,C,90.8,,,C,,T,,M,,N,,M*1F
20220704 000405+00:00 $HCHDT,156.8,T*23
20220704 000405+00:00 $GPRMC,000400,A,4938.8998,N,12605.6100,W,0.1,160,040722,12.2,E,A,V*5C
20220704 000405+00:00 $WIMWV,331.59,R,2.49,N,A*21
20220704 000407+00:00 $IIMDA,29.8,I,1.01,B,14.2,C,,C,90.8,,,C,,T,,M,,N,,M*1F
20220704 000407+00:00 $HCHDT,156.8,T*23
20220704 000407+00:00 $GPRMC,000402,A,4938.8998,N,12605.6100,W,0,158,040722,12.2,E,A,V*4A
20220704 000407+00:00 $WIMWV,333.79,R,2.29,N,A*27
20220704 000409+00:00 $IIMDA,29.8,I,1.01,B,14.2,C,,C,90.8,,,C,,T,,M,,N,,M*1F
20220704 000409+00:00 $HCHDT,156.8,T*23
20220704 000409+00:00 $GPRMC,000404,A,4938.8998,N,12605.6100,W,0,157,040722,12.2,E,A,V*43
20220704 000409+00:00 $WIMWV,313.49,R,1.69,N,A*21
20220704 000411+00:00 $IIMDA,29.8,I,1.01,B,14.2,C,,C,90.8,,,C,,T,,M,,N,,M*1F
20220704 000411+00:00 $HCHDT,156.9,T*22
20220704 000411+00:00 $GPRMC,000406,A,4938.8998,N,12605.6100,W,0,155,040722,12.2,E,A,V*43
20220704 000411+00:00 $WIMWV,348.89,R,2.39,N,A*25
20220704 000413+00:00 $IIMDA,29.8,I,1.01,B,14.2,C,,C,90.8,,,C,,T,,M,,N,,M*1F
20220704 000413+00:00 $HCHDT,156.8,T*23
20220704 000413+00:00 $GPRMC,000408,A,4938.8998,N,12605.6100,W,0,152,040722,12.2,E,A,V*4A
20220704 000413+00:00 $WIMWV,333.59,R,2.68,N,A*20
20220704 000415+00:00 $IIMDA,29.8,I,1.01,B,14.2,C,,C,90.8,,,C,,T,,M,,N,,M*1F
20220704 000415+00:00 $HCHDT,156.9,T*22
20220704 000415+00:00 $GPRMC,000410,A,4938.8998,N,12605.6100,W,0,152,040722,12.2,E,A,V*43
20220704 000415+00:00 $WIMWV,350.29,R,2.68,N,A*22
20220704 000417+00:00 $IIMDA,29.8,I,1.01,B,14.2,C,,C,90.8,,,C,,T,,M,,N,,M*1F
20220704 000417+00:00 $HCHDT,156.8,T*23
20220704 000417+00:00 $GPRMC,000412,A,4938.8998,N,12605.6100,W,0,153,040722,12.2,E,A,V*40
20220704 000417+00:00 $WIMWV,356.39,R,2.49,N,A*26
20220704 000419+00:00 $IIMDA,29.8,I,1.01,B,14.2,C,,C,90.8,,,C,,T,,M,,N,,M*1F
20220704 000419+00:00 $HCHDT,156.8,T*23
20220704 000419+00:00 $GPRMC,000414,A,4938.8998,N,12605.6100,W,0,154,040722,12.2,E,A,V*41
20220704 000419+00:00 $WIMWV,18.6,R,1.5,N,A*18
20220704 000421+00:00 $IIMDA,29.8,I,1.01,B,14.2,C,,C,90.8,,,C,,T,,M,,N,,M*1F
20220704 000421+00:00 $HCHDT,156.7,T*2C
20220704 000421+00:00 $GPRMC,000416,A,4938.8998,N,12605.6100,W,0,153,040722,12.2,E,A,V*44
20220704 000421+00:00 $WIMWV,25.1,R,1.89,N,A*25
20220704 000423+00:00 $IIMDA,29.8,I,1.01,B,14.2,C,,C,90.9,,,C,,T,,M,,N,,M*1E
20220704 000423+00:00 $HCHDT,156.7,T*2C
20220704 000423+00:00 $GPRMC,000418,A,4938.8998,N,12605.6100,W,0,153,040722,12.2,E,A,V*4A
20220704 000423+00:00 $WIMWV,22,R,1.98,N,A*3D
20220704 000425+00:00 $IIMDA,29.8,I,1.01,B,14.2,C,,C,90.8,,,C,,T,,M,,N,,M*1F
20220704 000425+00:00 $HCHDT,156.7,T*2C
20220704 000425+00:00 $GPRMC,000420,A,4938.8998,N,12605.6100,W,0,153,040722,12.2,E,A,V*41
20220704 000425+00:00 $WIMWV,14.3,R,1.89,N,A*25
20220704 000427+00:00 $IIMDA,29.8,I,1.01,B,14.2,C,,C,90.9,,,C,,T,,M,,N,,M*1E
20220704 000427+00:00 $HCHDT,156.7,T*2C
20220704 000427+00:00 $GPRMC,000422,A,4938.8998,N,12605.6100,W,0,152,040722,12.2,E,A,V*42
20220704 000427+00:00 $WIMWV,18.6,R,1.69,N,A*22
20220704 000429+00:00 $IIMDA,29.8,I,1.01,B,14.2,C,,C,90.8,,,C,,T,,M,,N,,M*1F
20220704 000429+00:00 $HCHDT,156.6,T*2D
20220704 000429+00:00 $GPRMC,000424,A,4938.8998,N,12605.6100,W,0,147,040722,12.2,E,A,V*40
20220704 000429+00:00 $WIMWV,14.5,R,1.89,N,A*23
20220704 000431+00:00 $IIMDA,29.8,I,1.01,B,14.2,C,,C,90.8,,,C,,T,,M,,N,,M*1F
20220704 000431+00:00 $HCHDT,156.5,T*2E
20220704 000431+00:00 $GPRMC,000426,A,4938.8998,N,12605.6100,W,0,142,040722,12.2,E,A,V*47
20220704 000431+00:00 $WIMWV,7.3,R,2.2,N,A*27
20220704 000433+00:00 $IIMDA,29.8,I,1.01,B,14.2,C,,C,90.8,,,C,,T,,M,,N,,M*1F
20220704 000433+00:00 $HCHDT,156.5,T*2E
20220704 000433+00:00 $GPRMC,000428,A,4938.8998,N,12605.6100,W,0,139,040722,12.2,E,A,V*45
20220704 000433+00:00 $WIMWV,11.1,R,2.49,N,A*2D
20220704 000435+00:00 $IIMDA,29.8,I,1.01,B,14.2,C,,C,90.9,,,C,,T,,M,,N,,M*1E
20220704 000435+00:00 $HCHDT,156.3,T*28
20220704 000435+00:00 $GPRMC,000430,A,4938.8998,N,12605.6100,W,0,134,040722,12.2,E,A,V*41
20220704 000435+00:00 $WIMWV,6,R,1.98,N,A*0B
20220704 000437+00:00 $IIMDA,29.8,I,1.01,B,14.2,C,,C,90.8,,,C,,T,,M,,N,,M*1F
20220704 000437+00:00 $HCHDT,156.3,T*28
20220704 000437+00:00 $GPRMC,000432,A,4938.8998,N,12605.6100,W,0,125,040722,12.2,E,A,V*43
20220704 000437+00:00 $WIMWV,350.89,R,2.2,N,A*14
20220704 000439+00:00 $IIMDA,29.8,I,1.01,B,14.2,C,,C,90.8,,,C,,T,,M,,N,,M*1F
20220704 000439+00:00 $HCHDT,156.3,T*28
20220704 000439+00:00 $GPRMC,000434,A,4938.8998,N,12605.6100,W,0,112,040722,12.2,E,A,V*41
20220704 000439+00:00 $WIMWV,348.19,R,1.69,N,A*2A
20220704 000441+00:00 $IIMDA,29.8,I,1.01,B,14.2,C,,C,90.8,,,C,,T,,M,,N,,M*1F
20220704 000441+00:00 $HCHDT,156.3,T*28
20220704 000441+00:00 $GPRMC,000436,A,4938.8998,N,12605.6100,W,0,99,040722,12.2,E,A,V*71
20220704 000441+00:00 $WIMWV,332.69,R,1.89,N,A*2E
20220704 000443+00:00 $IIMDA,29.8,I,1.01,B,14.2,C,,C,90.8,,,C,,T,,M,,N,,M*1F
20220704 000443+00:00 $HCHDT,156.3,T*28
20220704 000443+00:00 $GPRMC,000438,A,4938.8998,N,12605.6100,W,0,87,040722,12.2,E,A,V*70
20220704 000443+00:00 $WIMWV,298.99,R,1.89,N,A*20
20220704 000445+00:00 $IIMDA,29.8,I,1.01,B,14.2,C,,C,90.9,,,C,,T,,M,,N,,M*1E
20220704 000445+00:00 $HCHDT,156.3,T*28
20220704 000445+00:00 $GPRMC,000440,A,4938.8998,N,12605.6100,W,0,77,040722,12.2,E,A,V*70
20220704 000445+00:00 $WIMWV,302.59,R,2.49,N,A*21
20220704 000447+00:00 $IIMDA,29.8,I,1.01,B,14.2,C,,C,90.9,,,C,,T,,M,,N,,M*1E
20220704 000447+00:00 $HCHDT,156.3,T*28
20220704 000447+00:00 $GPRMC,000442,A,4938.8998,N,12605.6100,W,0,65,040722,12.2,E,A,V*71
20220704 000447+00:00 $WIMWV,295.69,R,2.39,N,A*2A
20220704 000449+00:00 $IIMDA,29.8,I,1.01,B,14.2,C,,C,90.9,,,C,,T,,M,,N,,M*1E
20220704 000449+00:00 $HCHDT,156.3,T*28
20220704 000449+00:00 $GPRMC,000444,A,4938.8998,N,12605.6100,W,0,54,040722,12.2,E,A,V*75
20220704 000449+00:00 $WIMWV,311.19,R,2.68,N,A*24
20220704 000451+00:00 $IIMDA,29.8,I,1.01,B,14.2,C,,C,90.9,,,C,,T,,M,,N,,M*1E
20220704 000451+00:00 $HCHDT,156.3,T*28
20220704 000451+00:00 $GPRMC,000446,A,4938.8998,N,12605.6100,W,0,43,040722,12.2,E,A,V*71
20220704 000451+00:00 $WIMWV,309.99,R,2.68,N,A*25
20220704 000453+00:00 $IIMDA,29.8,I,1.01,B,14.2,C,,C,90.9,,,C,,T,,M,,N,,M*1E
20220704 000453+00:00 $HCHDT,156.3,T*28
20220704 000453+00:00 $GPRMC,000448,A,4938.8998,N,12605.6100,W,0,35,040722,12.2,E,A,V*7E
20220704 000453+00:00 $WIMWV,303.89,R,3.09,N,A*28
20220704 000455+00:00 $IIMDA,29.8,I,1.01,B,14.2,C,,C,90.9,,,C,,T,,M,,N,,M*1E
20220704 000455+00:00 $HCHDT,156.4,T*2F
20220704 000455+00:00 $GPRMC,000450,A,4938.8998,N,12605.6100,W,0,30,040722,12.2,E,A,V*72
20220704 000455+00:00 $WIMWV,304.69,R,4.08,N,A*27
20220704 000457+00:00 $IIMDA,29.8,I,1.01,B,14.2,C,,C,90.9,,,C,,T,,M,,N,,M*1E
20220704 000457+00:00 $HCHDT,156.4,T*2F
20220704 000457+00:00 $GPRMC,000452,A,4938.8998,N,12605.6100,W,0,26,040722,12.2,E,A,V*77
20220704 000457+00:00 $WIMWV,306.99,R,4.3,N,A*11
20220704 000459+00:00 $IIMDA,29.8,I,1.01,B,14.2,C,,C,90.9,,,C,,T,,M,,N,,M*1E
20220704 000459+00:00 $HCHDT,156.4,T*2F
20220704 000459+00:00 $GPRMC,000454,A,4938.8998,N,12605.6100,W,0,23,040722,12.2,E,A,V*74
20220704 000459+00:00 $WIMWV,303.69,R,3.79,N,A*21
20220704 000501+00:00 $IIMDA,29.8,I,1.01,B,14.2,C,,C,90.9,,,C,,T,,M,,N,,M*1E
20220704 000501+00:00 $HCHDT,156.4,T*2F
20220704 000501+00:00 $GPRMC,000456,A,4938.8998,N,12605.6100,W,0,19,040722,12.2,E,A,V*7F
20220704 000501+00:00 $WIMWV,306.59,R,4.9,N,A*17
20220704 000503+00:00 $IIMDA,29.8,I,1.01,B,14.2,C,,C,90.9,,,C,,T,,M,,N,,M*1E
20220704 000503+00:00 $HCHDT,156.4,T*2F
20220704 000503+00:00 $GPRMC,000458,A,4938.8998,N,12605.6100,W,0,15,040722,12.2,E,A,V*7D
20220704 000503+00:00 $WIMWV,306.59,R,3.69,N,A*26
20220704 000505+00:00 $IIMDA,29.8,I,1.01,B,14.2,C,,C,90.9,,,C,,T,,M,,N,,M*1E
20220704 000505+00:00 $HCHDT,156.3,T*28
20220704 000505+00:00 $GPRMC,000500,A,4938.8998,N,12605.6100,W,0,13,040722,12.2,E,A,V*77
20220704 000505+00:00 $WIMWV,322.59,R,2.68,N,A*20
20220704 000507+00:00 $IIMDA,29.8,I,1.01,B,14.2,C,,C,90.9,,,C,,T,,M,,N,,M*1E
20220704 000507+00:00 $HCHDT,156.4,T*2F
20220704 000507+00:00 $GPRMC,000502,A,4938.8998,N,12605.6100,W,0,11,040722,12.2,E,A,V*77
20220704 000507+00:00 $WIMWV,334.69,R,2.39,N,A*20
20220704 000509+00:00 $IIMDA,29.8,I,1.01,B,14.2,C,,C,90.9,,,C,,T,,M,,N,,M*1E
20220704 000509+00:00 $HCHDT,156.4,T*2F
20220704 000509+00:00 $GPRMC,000504,A,4938.8998,N,12605.6100,W,0,11,040722,12.2,E,A,V*71
20220704 000509+00:00 $WIMWV,330.69,R,2.2,N,A*1C
20220704 000511+00:00 $IIMDA,29.8,I,1.01,B,14.2,C,,C,90.9,,,C,,T,,M,,N,,M*1E
20220704 000511+00:00 $HCHDT,156.4,T*2F
20220704 000511+00:00 $GPRMC,000506,A,4938.8998,N,12605.6100,W,0,9,040722,12.2,E,A,V*4A
20220704 000511+00:00 $WIMWV,333.49,R,2.1,N,A*1E
20220704 000513+00:00 $IIMDA,29.8,I,1.01,B,14.2,C,,C,90.9,,,C,,T,,M,,N,,M*1E
20220704 000513+00:00 $HCHDT,156.3,T*28
20220704 000513+00:00 $GPRMC,000508,A,4938.8998,N,12605.6100,W,0,8,040722,12.2,E,A,V*45
20220704 000513+00:00 $WIMWV,335.39,R,2.39,N,A*24
20220704 000515+00:00 $IIMDA,29.8,I,1.01,B,14.2,C,,C,90.9,,,C,,T,,M,,N,,M*1E
20220704 000515+00:00 $HCHDT,156.3,T*28
20220704 000515+00:00 $GPRMC,000510,A,4938.8998,N,12605.6100,W,0,9,040722,12.2,E,A,V*4D
20220704 000515+00:00 $WIMWV,329.69,R,2.68,N,A*28
20220704 000517+00:00 $IIMDA,29.8,I,1.01,B,14.2,C,,C,90.9,,,C,,T,,M,,N,,M*1E
20220704 000517+00:00 $HCHDT,156.2,T*29
20220704 000517+00:00 $GPRMC,000512,A,4938.8998,N,12605.6100,W,0,10,040722,12.2,E,A,V*77
20220704 000517+00:00 $WIMWV,340.79,R,2.59,N,A*24
20220704 000519+00:00 $IIMDA,29.8,I,1.01,B,14.2,C,,C,90.9,,,C,,T,,M,,N,,M*1E
20220704 000519+00:00 $HCHDT,156.2,T*29
20220704 000519+00:00 $GPRMC,000514,A,4938.8998,N,12605.6100,W,0,10,040722,12.2,E,A,V*71
20220704 000519+00:00 $WIMWV,331.89,R,2.9,N,A*18
20220704 000521+00:00 $IIMDA,29.8,I,1.01,B,14.2,C,,C,90.9,,,C,,T,,M,,N,,M*1E
20220704 000521+00:00 $HCHDT,156.1,T*2A
20220704 000521+00:00 $GPRMC,000516,A,4938.8998,N,12605.6100,W,0,12,040722,12.2,E,A,V*71
20220704 000521+00:00 $WIMWV,337.89,R,2.9,N,A*1E
20220704 000523+00:00 $IIMDA,29.8,I,1.01,B,14.2,C,,C,90.9,,,C,,T,,M,,N,,M*1E
20220704 000523+00:00 $HCHDT,156.1,T*2A
20220704 000523+00:00 $GPRMC,000518,A,4938.8998,N,12605.6100,W,0,13,040722,12.2,E,A,V*7E
20220704 000523+00:00 $WIMWV,336.49,R,2.68,N,A*24
20220704 000525+00:00 $IIMDA,29.8,I,1.01,B,14.2,C,,C,90.9,,,C,,T,,M,,N,,M*1E
20220704 000525+00:00 $HCHDT,156,T*35
20220704 000525+00:00 $GPRMC,000520,A,4938.8998,N,12605.6100,W,0.1,14,040722,12.2,E,A,V*6D
20220704 000525+00:00 $WIMWV,338.19,R,2.29,N,A*2A
20220704 000527+00:00 $IIMDA,29.8,I,1.01,B,14.2,C,,C,90.8,,,C,,T,,M,,N,,M*1F
20220704 000527+00:00 $HCHDT,155.9,T*21
20220704 000527+00:00 $GPRMC,000522,A,4938.8998,N,12605.6100,W,0.1,16,040722,12.2,E,A,V*6D
20220704 000527+00:00 $WIMWV,345.79,R,2.29,N,A*26
20220704 000529+00:00 $IIMDA,29.8,I,1.01,B,14.2,C,,C,90.9,,,C,,T,,M,,N,,M*1E
20220704 000529+00:00 $HCHDT,155.8,T*20
20220704 000529+00:00 $GPRMC,000524,A,4938.8998,N,12605.6100,W,0.1,16,040722,12.2,E,A,V*6B
20220704 000529+00:00 $WIMWV,347.09,R,1.98,N,A*2A
20220704 000531+00:00 $IIMDA,29.8,I,1.01,B,14.2,C,,C,90.8,,,C,,T,,M,,N,,M*1F
20220704 000531+00:00 $HCHDT,155.7,T*2F
20220704 000531+00:00 $GPRMC,000526,A,4938.8998,N,12605.6100,W,0.1,16,040722,12.2,E,A,V*69
20220704 000531+00:00 $WIMWV,345.79,R,2.1,N,A*1C
20220704 000533+00:00 $IIMDA,29.8,I,1.01,B,14.2,C,,C,90.8,,,C,,T,,M,,N,,M*1F
20220704 000533+00:00 $HCHDT,155.6,T*2E
20220704 000533+00:00 $GPRMC,000528,A,4938.8998,N,12605.6100,W,0.1,16,040722,12.2,E,A,V*67
20220704 000533+00:00 $WIMWV,336.69,R,2.2,N,A*1A
20220704 000535+00:00 $IIMDA,29.8,I,1.01,B,14.2,C,,C,90.8,,,C,,T,,M,,N,,M*1F
20220704 000535+00:00 $HCHDT,155.4,T*2C
20220704 000535+00:00 $GPRMC,000530,A,4938.8998,N,12605.6100,W,0.1,15,040722,12.2,E,A,V*6D
20220704 000535+00:00 $WIMWV,332.49,R,2.59,N,A*22
20220704 000537+00:00 $IIMDA,29.8,I,1.01,B,14.2,C,,C,90.9,,,C,,T,,M,,N,,M*1E
20220704 000537+00:00 $HCHDT,155.3,T*2B
20220704 000537+00:00 $GPRMC,000532,A,4938.8998,N,12605.6100,W,0.1,14,040722,12.2,E,A,V*6E
20220704 000537+00:00 $WIMWV,336.39,R,1.69,N,A*21
20220704 000539+00:00 $IIMDA,29.8,I,1.01,B,14.2,C,,C,90.9,,,C,,T,,M,,N,,M*1E
20220704 000539+00:00 $HCHDT,155.2,T*2A
20220704 000539+00:00 $GPRMC,000534,A,4938.8998,N,12605.6100,W,0.1,13,040722,12.2,E,A,V*6F
20220704 000539+00:00 $WIMWV,329.49,R,2.39,N,A*2E
20220704 000541+00:00 $IIMDA,29.8,I,1.01,B,14.2,C,,C,90.8,,,C,,T,,M,,N,,M*1F
20220704 000541+00:00 $HCHDT,155.2,T*2A
20220704 000541+00:00 $GPRMC,000536,A,4938.8998,N,12605.6100,W,0.1,12,040722,12.2,E,A,V*6C
20220704 000541+00:00 $WIMWV,336.19,R,2.49,N,A*22
20220704 000543+00:00 $IIMDA,29.8,I,1.01,B,14.2,C,,C,90.8,,,C,,T,,M,,N,,M*1F
20220704 000543+00:00 $HCHDT,155.1,T*29
20220704 000543+00:00 $GPRMC,000538,A,4938.8998,N,12605.6100,W,0.1,12,040722,12.2,E,A,V*62
20220704 000543+00:00 $WIMWV,334.69,R,2.59,N,A*26
20220704 000545+00:00 $IIMDA,29.8,I,1.01,B,14.2,C,,C,90.8,,,C,,T,,M,,N,,M*1F
20220704 000545+00:00 $HCHDT,155,T*36
20220704 000545+00:00 $GPRMC,000540,A,4938.8998,N,12605.6100,W,0.1,11,040722,12.2,E,A,V*6E
20220704 000545+00:00 $WIMWV,338.19,R,2.1,N,A*10
20220704 000547+00:00 $IIMDA,29.8,I,1.01,B,14.2,C,,C,90.9,,,C,,T,,M,,N,,M*1E
20220704 000547+00:00 $HCHDT,154.9,T*20
20220704 000547+00:00 $GPRMC,000542,A,4938.8998,N,12605.6100,W,0.1,8,040722,12.2,E,A,V*54
20220704 000547+00:00 $WIMWV,352.19,R,2.2,N,A*1F
20220704 000549+00:00 $IIMDA,29.8,I,1.01,B,14.2,C,,C,90.8,,,C,,T,,M,,N,,M*1F
20220704 000549+00:00 $HCHDT,154.8,T*21
20220704 000549+00:00 $GPRMC,000544,A,4938.8998,N,12605.6100,W,0.1,7,040722,12.2,E,A,V*5D
20220704 000549+00:00 $WIMWV,347.09,R,1.89,N,A*2A
20220704 000551+00:00 $IIMDA,29.8,I,1.01,B,14.2,C,,C,90.9,,,C,,T,,M,,N,,M*1E
20220704 000551+00:00 $HCHDT,154.8,T*21
20220704 000551+00:00 $GPRMC,000546,A,4938.8998,N,12605.6100,W,0.1,6,040722,12.2,E,A,V*5E
20220704 000551+00:00 $WIMWV,335.89,R,1.89,N,A*27
20220704 000553+00:00 $IIMDA,29.8,I,1.01,B,14.2,C,,C,90.9,,,C,,T,,M,,N,,M*1E
20220704 000553+00:00 $HCHDT,154.7,T*2E
20220704 000553+00:00 $GPRMC,000548,A,4938.8998,N,12605.6100,W,0.1,5,040722,12.2,E,A,V*53
20220704 000553+00:00 $WIMWV,339.29,R,1.59,N,A*2C
20220704 000555+00:00 $IIMDA,29.8,I,1.01,B,14.2,C,,C,90.9,,,C,,T,,M,,N,,M*1E
20220704 000555+00:00 $HCHDT,154.7,T*2E
20220704 000555+00:00 $GPRMC,000550,A,4938.8998,N,12605.6100,W,0.1,2,040722,12.2,E,A,V*5D
20220704 000555+00:00 $WIMWV,341.49,R,1.19,N,A*21
20220704 000557+00:00 $IIMDA,29.8,I,1.01,B,14.2,C,,C,90.9,,,C,,T,,M,,N,,M*1E
20220704 000557+00:00 $HCHDT,154.6,T*2F
20220704 000557+00:00 $GPRMC,000552,A,4938.8998,N,12605.6100,W,0.1,1,040722,12.2,E,A,V*5C
20220704 000557+00:00 $WIMWV,0.19,R,1.69,N,A*25
20220704 000559+00:00 $IIMDA,29.8,I,1.01,B,14.2,C,,C,90.9,,,C,,T,,M,,N,,M*1E
20220704 000559+00:00 $HCHDT,154.6,T*2F
20220704 000559+00:00 $GPRMC,000554,A,4938.8998,N,12605.6100,W,0.1,357,040722,12.2,E,A,V*5A
20220704 000559+00:00 $WIMWV,333.09,R,1.89,N,A*29
20220704 000601+00:00 $IIMDA,29.8,I,1.01,B,14.2,C,,C,90.9,,,C,,T,,M,,N,,M*1E
20220704 000601+00:00 $HCHDT,154.6,T*2F
20220704 000601+00:00 $GPRMC,000556,A,4938.8998,N,12605.6100,W,0.1,356,040722,12.2,E,A,V*59
20220704 000601+00:00 $WIMWV,339.49,R,1.79,N,A*28
20220704 000603+00:00 $IIMDA,29.8,I,1.01,B,14.2,C,,C,90.9,,,C,,T,,M,,N,,M*1E
20220704 000603+00:00 $HCHDT,154.7,T*2E
20220704 000603+00:00 $GPRMC,000558,A,4938.8998,N,12605.6100,W,0.1,348,040722,12.2,E,A,V*58
20220704 000603+00:00 $WIMWV,344.59,R,1.89,N,A*2C
20220704 000605+00:00 $IIMDA,29.8,I,1.01,B,14.2,C,,C,90.9,,,C,,T,,M,,N,,M*1E
20220704 000605+00:00 $HCHDT,154.8,T*21
20220704 000605+00:00 $GPRMC,000600,A,4938.8998,N,12605.6100,W,0.1,346,040722,12.2,E,A,V*58
20220704 000605+00:00 $WIMWV,340.79,R,1.98,N,A*2A
20220704 000607+00:00 $IIMDA,29.8,I,1.01,B,14.2,C,,C,90.9,,,C,,T,,M,,N,,M*1E
20220704 000607+00:00 $HCHDT,154.7,T*2E
20220704 000607+00:00 $GPRMC,000602,A,4938.8998,N,12605.6100,W,0.1,341,040722,12.2,E,A,V*5D
20220704 000607+00:00 $WIMWV,353.19,R,2.2,N,A*1E
20220704 000609+00:00 $IIMDA,29.8,I,1.01,B,14.2,C,,C,90.9,,,C,,T,,M,,N,,M*1E
20220704 000609+00:00 $HCHDT,154.8,T*21
20220704 000609+00:00 $GPRMC,000604,A,4938.8998,N,12605.6100,W,0.1,339,040722,12.2,E,A,V*54
20220704 000609+00:00 $WIMWV,351.09,R,2.2,N,A*1D
20220704 000611+00:00 $IIMDA,29.8,I,1.01,B,14.2,C,,C,90.9,,,C,,T,,M,,N,,M*1E
20220704 000611+00:00 $HCHDT,154.9,T*20
20220704 000611+00:00 $GPRMC,000606,A,4938.8998,N,12605.6100,W,0.1,338,040722,12.2,E,A,V*57
20220704 000611+00:00 $WIMWV,355.09,R,2.49,N,A*26
20220704 000613+00:00 $IIMDA,29.8,I,1.01,B,14.2,C,,C,90.9,,,C,,T,,M,,N,,M*1E
20220704 000613+00:00 $HCHDT,154.9,T*20
20220704 000613+00:00 $GPRMC,000608,A,4938.8998,N,12605.6100,W,0.1,337,040722,12.2,E,A,V*56
20220704 000613+00:00 $WIMWV,347.99,R,2.2,N,A*13
20220704 000615+00:00 $IIMDA,29.8,I,1.01,B,14.2,C,,C,90.9,,,C,,T,,M,,N,,M*1E
20220704 000615+00:00 $HCHDT,155,T*36
20220704 000615+00:00 $GPRMC,000610,A,4938.8998,N,12605.6100,W,0.1,337,040722,12.2,E,A,V*5F
20220704 000615+00:00 $WIMWV,332.69,R,2.49,N,A*21
20220704 000617+00:00 $IIMDA,29.8,I,1.01,B,14.2,C,,C,91,,,C,,T,,M,,N,,M*08
20220704 000617+00:00 $HCHDT,155.1,T*29
20220704 000617+00:00 $GPRMC,000612,A,4938.8998,N,12605.6100,W,0.1,338,040722,12.2,E,A,V*52
20220704 000617+00:00 $WIMWV,312.69,R,1.89,N,A*2C
20220704 000619+00:00 $IIMDA,29.8,I,1.01,B,14.2,C,,C,90.9,,,C,,T,,M,,N,,M*1E
20220704 000619+00:00 $HCHDT,155.1,T*29
20220704 000619+00:00 $GPRMC,000614,A,4938.8998,N,12605.6100,W,0.1,337,040722,12.2,E,A,V*5B
20220704 000619+00:00 $WIMWV,325.09,R,2.2,N,A*1E
20220704 000621+00:00 $IIMDA,29.8,I,1.01,B,14.2,C,,C,91,,,C,,T,,M,,N,,M*08
20220704 000621+00:00 $HCHDT,155.1,T*29
20220704 000621+00:00 $GPRMC,000616,A,4938.8998,N,12605.6100,W,0.1,337,040722,12.2,E,A,V*59
20220704 000621+00:00 $WIMWV,325.89,R,1.98,N,A*26
20220704 000623+00:00 $IIMDA,29.8,I,1.01,B,14.2,C,,C,90.9,,,C,,T,,M,,N,,M*1E
20220704 000623+00:00 $HCHDT,155,T*36
20220704 000623+00:00 $GPRMC,000618,A,4938.8998,N,12605.6100,W,0.1,337,040722,12.2,E,A,V*57
20220704 000623+00:00 $WIMWV,329.89,R,1.79,N,A*25
20220704 000625+00:00 $IIMDA,29.8,I,1.01,B,14.2,C,,C,90.9,,,C,,T,,M,,N,,M*1E
20220704 000625+00:00 $HCHDT,155,T*36
20220704 000625+00:00 $GPRMC,000620,A,4938.8998,N,12605.6100,W,0,338,040722,12.2,E,A,V*4C
20220704 000625+00:00 $WIMWV,331.99,R,1.79,N,A*2D
20220704 000627+00:00 $IIMDA,29.8,I,1.01,B,14.2,C,,C,91,,,C,,T,,M,,N,,M*08
20220704 000627+00:00 $HCHDT,155,T*36
20220704 000627+00:00 $GPRMC,000622,A,4938.8998,N,12605.6100,W,0,339,040722,12.2,E,A,V*4F
20220704 000627+00:00 $WIMWV,328.09,R,2.2,N,A*13
20220704 000629+00:00 $IIMDA,29.8,I,1.01,B,14.2,C,,C,91,,,C,,T,,M,,N,,M*08
20220704 000629+00:00 $HCHDT,154.8,T*21
20220704 000629+00:00 $GPRMC,000624,A,4938.8998,N,12605.6100,W,0,340,040722,12.2,E,A,V*47
20220704 000629+00:00 $WIMWV,329.09,R,2.29,N,A*2B
20220704 000631+00:00 $IIMDA,29.8,I,1.01,B,14.2,C,,C,91,,,C,,T,,M,,N,,M*08
20220704 000631+00:00 $HCHDT,154.7,T*2E
20220704 000631+00:00 $GPRMC,000626,A,4938.8998,N,12605.6100,W,0,342,040722,12.2,E,A,V*47
20220704 000631+00:00 $WIMWV,336.09,R,2.1,N,A*1F
20220704 000633+00:00 $IIMDA,29.8,I,1.01,B,14.2,C,,C,90.9,,,C,,T,,M,,N,,M*1E
20220704 000633+00:00 $HCHDT,154.5,T*2C
20220704 000633+00:00 $GPRMC,000628,A,4938.8998,N,12605.6100,W,0,342,040722,12.2,E,A,V*49
20220704 000633+00:00 $WIMWV,327.59,R,1.89,N,A*29
20220704 000635+00:00 $IIMDA,29.8,I,1.01,B,14.2,C,,C,91,,,C,,T,,M,,N,,M*08
20220704 000635+00:00 $HCHDT,154.4,T*2D
20220704 000635+00:00 $GPRMC,000630,A,4938.8998,N,12605.6100,W,0,342,040722,12.2,E,A,V*40
20220704 000635+00:00 $WIMWV,327.49,R,1.79,N,A*27
20220704 000637+00:00 $IIMDA,29.8,I,1.01,B,14.2,C,,C,91,,,C,,T,,M,,N,,M*08
20220704 000637+00:00 $HCHDT,154.2,T*2B
20220704 000637+00:00 $GPRMC,000632,A,4938.8998,N,12605.6100,W,0,338,040722,12.2,E,A,V*4F
20220704 000637+00:00 $WIMWV,326.39,R,1.89,N,A*2E
20220704 000639+00:00 $IIMDA,29.8,I,1.01,B,14.2,C,,C,91,,,C,,T,,M,,N,,M*08
20220704 000639+00:00 $HCHDT,154.1,T*28
20220704 000639+00:00 $GPRMC,000634,A,4938.8998,N,12605.6100,W,0,337,040722,12.2,E,A,V*46
20220704 000639+00:00 $WIMWV,321.89,R,1.59,N,A*2F
20220704 000641+00:00 $IIMDA,29.8,I,1.01,B,14.2,C,,C,91,,,C,,T,,M,,N,,M*08
20220704 000641+00:00 $HCHDT,154,T*37
20220704 000641+00:00 $GPRMC,000636,A,4938.8998,N,12605.6100,W,0,336,040722,12.2,E,A,V*45
20220704 000641+00:00 $WIMWV,321.59,R,1.79,N,A*20
20220704 000643+00:00 $IIMDA,29.8,I,1.01,B,14.2,C,,C,91,,,C,,T,,M,,N,,M*08
20220704 000643+00:00 $HCHDT,153.9,T*27
20220704 000643+00:00 $GPRMC,000638,A,4938.8998,N,12605.6100,W,0,334,040722,12.2,E,A,V*49
20220704 000643+00:00 $WIMWV,327.69,R,1.69,N,A*24
20220704 000645+00:00 $IIMDA,29.8,I,1.01,B,14.2,C,,C,91,,,C,,T,,M,,N,,M*08
20220704 000645+00:00 $HCHDT,153.8,T*26
20220704 000645+00:00 $GPRMC,000640,A,4938.8998,N,12605.6100,W,0,328,040722,12.2,E,A,V*4B
20220704 000645+00:00 $WIMWV,317.49,R,1.79,N,A*24
20220704 000647+00:00 $IIMDA,29.8,I,1.01,B,14.2,C,,C,91,,,C,,T,,M,,N,,M*08
20220704 000647+00:00 $HCHDT,153.7,T*29
20220704 000647+00:00 $GPRMC,000642,A,4938.8998,N,12605.6100,W,0,320,040722,12.2,E,A,V*41
20220704 000647+00:00 $WIMWV,316.89,R,1.5,N,A*12
20220704 000649+00:00 $IIMDA,29.8,I,1.01,B,14.2,C,,C,91,,,C,,T,,M,,N,,M*08
20220704 000649+00:00 $HCHDT,153.6,T*28
20220704 000649+00:00 $GPRMC,000644,A,4938.8998,N,12605.6100,W,0,317,040722,12.2,E,A,V*43
20220704 000649+00:00 $WIMWV,318.59,R,1.5,N,A*11
20220704 000651+00:00 $IIMDA,29.8,I,1.01,B,14.2,C,,C,91.1,,,C,,T,,M,,N,,M*17
20220704 000651+00:00 $HCHDT,153.4,T*2A
20220704 000651+00:00 $GPRMC,000646,A,4938.8998,N,12605.6100,W,0,311,040722,12.2,E,A,V*47
20220704 000651+00:00 $WIMWV,330.29,R,1.4,N,A*1D
20220704 000653+00:00 $IIMDA,29.8,I,1.01,B,14.2,C,,C,91.1,,,C,,T,,M,,N,,M*17
20220704 000653+00:00 $HCHDT,153.3,T*2D
20220704 000653+00:00 $GPRMC,000648,A,4938.8998,N,12605.6100,W,0,305,040722,12.2,E,A,V*4C
20220704 000653+00:00 $WIMWV,318.49,R,1.19,N,A*2D
20220704 000655+00:00 $IIMDA,29.8,I,1.01,B,14.2,C,,C,91,,,C,,T,,M,,N,,M*08
20220704 000655+00:00 $HCHDT,153.2,T*2C
20220704 000655+00:00 $GPRMC,000650,A,4938.8998,N,12605.6100,W,0,300,040722,12.2,E,A,V*40
20220704 000655+00:00 $WIMWV,314.49,R,1.5,N,A*1C
20220704 000657+00:00 $IIMDA,29.8,I,1.01,B,14.2,C,,C,91.1,,,C,,T,,M,,N,,M*17
20220704 000657+00:00 $HCHDT,153.1,T*2F
20220704 000657+00:00 $GPRMC,000652,A,4938.8998,N,12605.6100,W,0,295,040722,12.2,E,A,V*4F
20220704 000657+00:00 $WIMWV,330.09,R,1.5,N,A*1E
20220704 000659+00:00 $IIMDA,29.8,I,1.01,B,14.2,C,,C,91.1,,,C,,T,,M,,N,,M*17
20220704 000659+00:00 $HCHDT,153,T*30
20220704 000659+00:00 $GPRMC,000654,A,4938.8998,N,12605.6100,W,0,291,040722,12.2,E,A,V*4D
20220704 000659+00:00 $WIMWV,314.89,R,1.28,N,A*2F
20220704 000701+00:00 $IIMDA,29.8,I,1.01,B,14.2,C,,C,91.1,,,C,,T,,M,,N,,M*17
20220704 000701+00:00 $HCHDT,152.9,T*26
20220704 000701+00:00 $GPRMC,000656,A,4938.8998,N,12605.6100,W,0,286,040722,12.2,E,A,V*49
20220704 000701+00:00 $WIMWV,319.99,R,0.99,N,A*28
20220704 000703+00:00 $IIMDA,29.8,I,1.01,B,14.2,C,,C,91.1,,,C,,T,,M,,N,,M*17
20220704 000703+00:00 $HCHDT,152.8,T*27
20220704 000703+00:00 $GPRMC,000658,A,4938.8998,N,12605.6100,W,0,283,040722,12.2,E,A,V*42
20220704 000703+00:00 $WIMWV,321.09,R,1.19,N,A*23
20220704 000705+00:00 $IIMDA,29.8,I,1.01,B,14.2,C,,C,91.1,,,C,,T,,M,,N,,M*17
20220704 000705+00:00 $HCHDT,152.7,T*28
20220704 000705+00:00 $GPRMC,000700,A,4938.8998,N,12605.6100,W,0,281,040722,12.2,E,A,V*4C
20220704 000705+00:00 $WIMWV,310.79,R,1.19,N,A*26
20220704 000707+00:00 $IIMDA,29.8,I,1.01,B,14.2,C,,C,91.1,,,C,,T,,M,,N,,M*17
20220704 000707+00:00 $HCHDT,152.7,T*28
20220704 000707+00:00 $GPRMC,000702,A,4938.8998,N,12605.6100,W,0,276,040722,12.2,E,A,V*46
20220704 000707+00:00 $WIMWV,312.09,R,0.89,N,A*2B
20220704 000709+00:00 $IIMDA,29.8,I,1.01,B,14.2,C,,C,91.1,,,C,,T,,M,,N,,M*17
20220704 000709+00:00 $HCHDT,152.7,T*28
20220704 000709+00:00 $GPRMC,000704,A,4938.8998,N,12605.6100,W,0,272,040722,12.2,E,A,V*44
20220704 000709+00:00 $WIMWV,306.49,R,0.99,N,A*2B
20220704 000711+00:00 $IIMDA,29.8,I,1.01,B,14.2,C,,C,91.1,,,C,,T,,M,,N,,M*17
20220704 000711+00:00 $HCHDT,152.6,T*29
20220704 000711+00:00 $GPRMC,000706,A,4938.8998,N,12605.6100,W,0,268,040722,12.2,E,A,V*4D
20220704 000711+00:00 $WIMWV,302.69,R,0.99,N,A*2D
20220704 000713+00:00 $IIMDA,29.8,I,1.01,B,14.2,C,,C,91.1,,,C,,T,,M,,N,,M*17
20220704 000713+00:00 $HCHDT,152.6,T*29
20220704 000713+00:00 $GPRMC,000708,A,4938.8998,N,12605.6100,W,0,264,040722,12.2,E,A,V*4F
20220704 000713+00:00 $WIMWV,305.19,R,1.59,N,A*20
20220704 000715+00:00 $IIMDA,29.8,I,1.01,B,14.2,C,,C,91.1,,,C,,T,,M,,N,,M*17
20220704 000715+00:00 $HCHDT,152.6,T*29
20220704 000715+00:00 $GPRMC,000710,A,4938.8998,N,12605.6100,W,0,260,040722,12.2,E,A,V*42
20220704 000715+00:00 $WIMWV,300.19,R,1.4,N,A*1D
20220704 000717+00:00 $IIMDA,29.8,I,1.01,B,14.2,C,,C,91.1,,,C,,T,,M,,N,,M*17
20220704 000717+00:00 $HCHDT,152.7,T*28
20220704 000717+00:00 $GPRMC,000712,A,4938.8998,N,12605.6100,W,0,257,040722,12.2,E,A,V*44
20220704 000717+00:00 $WIMWV,303.59,R,1.5,N,A*1B
20220704 000719+00:00 $IIMDA,29.8,I,1.01,B,14.2,C,,C,91.1,,,C,,T,,M,,N,,M*17
20220704 000719+00:00 $HCHDT,152.7,T*28
20220704 000719+00:00 $GPRMC,000714,A,4938.8998,N,12605.6100,W,0,255,040722,12.2,E,A,V*40
20220704 000719+00:00 $WIMWV,309.99,R,1.5,N,A*1D
20220704 000721+00:00 $IIMDA,29.8,I,1.01,B,14.2,C,,C,91.1,,,C,,T,,M,,N,,M*17
20220704 000721+00:00 $HCHDT,152.8,T*27
20220704 000721+00:00 $GPRMC,000716,A,4938.8998,N,12605.6100,W,0,252,040722,12.2,E,A,V*45
20220704 000721+00:00 $WIMWV,304.69,R,1.5,N,A*1F
20220704 000723+00:00 $IIMDA,29.8,I,1.01,B,14.2,C,,C,91.2,,,C,,T,,M,,N,,M*14
20220704 000723+00:00 $HCHDT,152.8,T*27
20220704 000723+00:00 $GPRMC,000718,A,4938.8998,N,12605.6100,W,0,250,040722,12.2,E,A,V*49
20220704 000723+00:00 $WIMWV,303.59,R,1.69,N,A*21
20220704 000725+00:00 $IIMDA,29.8,I,1.01,B,14.2,C,,C,91.2,,,C,,T,,M,,N,,M*14
20220704 000725+00:00 $HCHDT,152.8,T*27
20220704 000725+00:00 $GPRMC,000720,A,4938.8998,N,12605.6100,W,0,247,040722,12.2,E,A,V*44
20220704 000725+00:00 $WIMWV,302.09,R,1.69,N,A*25
20220704 000727+00:00 $IIMDA,29.8,I,1.01,B,14.2,C,,C,91.2,,,C,,T,,M,,N,,M*14
20220704 000727+00:00 $HCHDT,152.8,T*27
20220704 000727+00:00 $GPRMC,000722,A,4938.8998,N,12605.6100,W,0,246,040722,12.2,E,A,V*47
20220704 000727+00:00 $WIMWV,323.19,R,1.98,N,A*29
20220704 000729+00:00 $IIMDA,29.8,I,1.01,B,14.2,C,,C,91.2,,,C,,T,,M,,N,,M*14
20220704 000729+00:00 $HCHDT,152.9,T*26
20220704 000729+00:00 $GPRMC,000724,A,4938.8998,N,12605.6100,W,0,244,040722,12.2,E,A,V*43
20220704 000729+00:00 $WIMWV,313.19,R,1.5,N,A*1E
20220704 000731+00:00 $IIMDA,29.8,I,1.01,B,14.2,C,,C,91.2,,,C,,T,,M,,N,,M*14
20220704 000731+00:00 $HCHDT,153,T*30
20220704 000731+00:00 $GPRMC,000726,A,4938.8998,N,12605.6100,W,0,244,040722,12.2,E,A,V*41
20220704 000731+00:00 $WIMWV,295.69,R,1.89,N,A*22
20220704 000733+00:00 $IIMDA,29.8,I,1.01,B,14.2,C,,C,91.2,,,C,,T,,M,,N,,M*14
20220704 000733+00:00 $HCHDT,153,T*30
20220704 000733+00:00 $GPRMC,000728,A,4938.8998,N,12605.6100,W,0,243,040722,12.2,E,A,V*48
20220704 000733+00:00 $WIMWV,286.59,R,2.2,N,A*13
20220704 000735+00:00 $IIMDA,29.8,I,1.01,B,14.2,C,,C,91.2,,,C,,T,,M,,N,,M*14
20220704 000735+00:00 $HCHDT,153,T*30
20220704 000735+00:00 $GPRMC,000730,A,4938.8998,N,12605.6100,W,0,242,040722,12.2,E,A,V*40
20220704 000735+00:00 $WIMWV,289.69,R,2.49,N,A*20
20220704 000737+00:00 $IIMDA,29.8,I,1.01,B,14.2,C,,C,91.2,,,C,,T,,M,,N,,M*14
20220704 000737+00:00 $HCHDT,153.1,T*2F
20220704 000737+00:00 $GPRMC,000732,A,4938.8998,N,12605.6100,W,0,241,040722,12.2,E,A,V*41
20220704 000737+00:00 $WIMWV,287.39,R,2.49,N,A*2B
20220704 000739+00:00 $IIMDA,29.8,I,1.01,B,14.2,C,,C,91.2,,,C,,T,,M,,N,,M*14
20220704 000739+00:00 $HCHDT,153.1,T*2F
20220704 000739+00:00 $GPRMC,000734,A,4938.8998,N,12605.6100,W,0,239,040722,12.2,E,A,V*48
20220704 000739+00:00 $WIMWV,286.29,R,2.29,N,A*2D
20220704 000741+00:00 $IIMDA,29.8,I,1.01,B,14.2,C,,C,91.2,,,C,,T,,M,,N,,M*14
20220704 000741+00:00 $HCHDT,153.1,T*2F
20220704 000741+00:00 $GPRMC,000736,A,4938.8998,N,12605.6100,W,0,233,040722,12.2,E,A,V*40
20220704 000741+00:00 $WIMWV,285.29,R,2.59,N,A*29
20220704 000743+00:00 $IIMDA,29.8,I,1.01,B,14.2,C,,C,91.2,,,C,,T,,M,,N,,M*14
20220704 000743+00:00 $HCHDT,152.9,T*26
20220704 000743+00:00 $GPRMC,000738,A,4938.8998,N,12605.6100,W,0,227,040722,12.2,E,A,V*4B
20220704 000743+00:00 $WIMWV,289.49,R,3.29,N,A*25
20220704 000745+00:00 $IIMDA,29.8,I,1.01,B,14.2,C,,C,91.2,,,C,,T,,M,,N,,M*14
20220704 000745+00:00 $HCHDT,152.8,T*27
20220704 000745+00:00 $GPRMC,000740,A,4938.8998,N,12605.6100,W,0,220,040722,12.2,E,A,V*43
20220704 000745+00:00 $WIMWV,273.09,R,3.6,N,A*19
20220704 000747+00:00 $IIMDA,29.8,I,1.01,B,14.2,C,,C,91.1,,,C,,T,,M,,N,,M*17
20220704 000747+00:00 $HCHDT,152.8,T*27
