20231006 230001+01:00 $HCHDT,177.3,T*2B
20231006 230001+01:00 $IIMDA,30.1,I,1.018,B,21.8,C,,C,64.6,,,C,,T,,M,,N,,M*2F
20231006 230001+01:00 $WIMWV,120.69,R,4.9,N,A*12
20231006 230001+01:00 $GPRMC,215958,A,4918.7217,N,12306.4160,W,0,336,061023,,,D,V*1D
20231006 230003+01:00 $HCHDT,177.4,T*2C
20231006 230003+01:00 $IIMDA,30.1,I,1.018,B,21.8,C,,C,64.7,,,C,,T,,M,,N,,M*2E
20231006 230003+01:00 $WIMWV,117.99,R,4.2,N,A*12
20231006 230003+01:00 $GPRMC,220000,A,4918.7217,N,12306.4160,W,0,336,061023,,,D,V*1F
20231006 230005+01:00 $HCHDT,177.4,T*2C
20231006 230005+01:00 $IIMDA,30.1,I,1.018,B,21.7,C,,C,64.7,,,C,,T,,M,,N,,M*21
20231006 230005+01:00 $WIMWV,65,R,1.89,N,A*3E
20231006 230005+01:00 $GPRMC,220002,A,4918.7221,N,12306.4142,W,0,336,061023,,,D,V*18
20231006 230007+01:00 $HCHDT,177.4,T*2C
20231006 230007+01:00 $IIMDA,30.1,I,1.018,B,21.7,C,,C,64.8,,,C,,T,,M,,N,,M*2E
20231006 230007+01:00 $WIMWV,111.1,R,2.99,N,A*11
20231006 230007+01:00 $GPRMC,220004,A,4918.7221,N,12306.4161,W,0,336,061023,,,D,V*1F
20231006 230009+01:00 $HCHDT,177.4,T*2C
20231006 230009+01:00 $IIMDA,30.1,I,1.018,B,21.7,C,,C,64.9,,,C,,T,,M,,N,,M*2F
20231006 230009+01:00 $WIMWV,118.49,R,3.19,N,A*2D
20231006 230009+01:00 $GPRMC,220006,A,4918.7221,N,12306.4161,W,0,336,061023,,,D,V*1D
20231006 230011+01:00 $HCHDT,177.4,T*2C
20231006 230011+01:00 $IIMDA,30.1,I,1.018,B,21.7,C,,C,65.1,,,C,,T,,M,,N,,M*26
20231006 230011+01:00 $WIMWV,104.1,R,1.28,N,A*1C
20231006 230011+01:00 $GPRMC,220008,A,4918.7220,N,12306.4161,W,0,336,061023,,,D,V*12
20231006 230013+01:00 $HCHDT,177.4,T*2C
20231006 230013+01:00 $IIMDA,30.1,I,1.018,B,21.7,C,,C,65.2,,,C,,T,,M,,N,,M*25
20231006 230013+01:00 $WIMWV,95.99,R,1.79,N,A*10
20231006 230013+01:00 $GPRMC,220010,A,4918.7219,N,12306.4161,W,0,336,061023,,,D,V*11
20231006 230015+01:00 $HCHDT,177.4,T*2C
20231006 230015+01:00 $IIMDA,30.1,I,1.018,B,21.7,C,,C,65.2,,,C,,T,,M,,N,,M*25
20231006 230015+01:00 $WIMWV,116.6,R,2.29,N,A*1A
20231006 230015+01:00 $GPRMC,220012,A,4918.7219,N,12306.4161,W,0,336,061023,,,D,V*13
20231006 230017+01:00 $HCHDT,177.5,T*2D
20231006 230017+01:00 $IIMDA,30.1,I,1.018,B,21.7,C,,C,65.3,,,C,,T,,M,,N,,M*24
20231006 230017+01:00 $WIMWV,148.49,R,2.2,N,A*13
20231006 230017+01:00 $GPRMC,220014,A,4918.7219,N,12306.4161,W,0,336,061023,,,D,V*15
20231006 230019+01:00 $HCHDT,177.5,T*2D
20231006 230019+01:00 $IIMDA,30.1,I,1.018,B,21.7,C,,C,65.4,,,C,,T,,M,,N,,M*23
20231006 230019+01:00 $WIMWV,117,R,3.38,N,A*02
20231006 230019+01:00 $GPRMC,220016,A,4918.7219,N,12306.4160,W,0,336,061023,,,D,V*16
20231006 230021+01:00 $HCHDT,177.4,T*2C
20231006 230021+01:00 $IIMDA,30.1,I,1.018,B,21.7,C,,C,65.4,,,C,,T,,M,,N,,M*23
20231006 230021+01:00 $WIMWV,110.29,R,3.69,N,A*24
20231006 230021+01:00 $GPRMC,220018,A,4918.7219,N,12306.4160,W,0,336,061023,,,D,V*18
20231006 230023+01:00 $HCHDT,177.4,T*2C
20231006 230023+01:00 $IIMDA,30.1,I,1.018,B,21.6,C,,C,65.3,,,C,,T,,M,,N,,M*25
20231006 230023+01:00 $WIMWV,85.9,R,2.8,N,A*1D
20231006 230023+01:00 $GPRMC,220020,A,4918.7218,N,12306.4159,W,0,336,061023,,,D,V*18
20231006 230025+01:00 $HCHDT,177.4,T*2C
20231006 230025+01:00 $IIMDA,30.1,I,1.018,B,21.6,C,,C,65.2,,,C,,T,,M,,N,,M*24
20231006 230025+01:00 $WIMWV,157.4,R,2.99,N,A*16
20231006 230025+01:00 $GPRMC,220022,A,4918.7217,N,12306.4159,W,0,336,061023,,,D,V*15
20231006 230027+01:00 $HCHDT,177.4,T*2C
20231006 230027+01:00 $IIMDA,30.1,I,1.018,B,21.6,C,,C,65.1,,,C,,T,,M,,N,,M*27
20231006 230027+01:00 $WIMWV,169.1,R,3.6,N,A*29
20231006 230027+01:00 $GPRMC,220024,A,4918.7217,N,12306.4159,W,0,336,061023,,,D,V*13
20231006 230029+01:00 $HCHDT,177.4,T*2C
20231006 230029+01:00 $IIMDA,30.1,I,1.018,B,21.6,C,,C,65,,,C,,T,,M,,N,,M*38
20231006 230029+01:00 $WIMWV,177.39,R,3.69,N,A*24
20231006 230029+01:00 $GPRMC,220026,A,4918.7218,N,12306.4160,W,0,336,061023,,,D,V*14
20231006 230031+01:00 $HCHDT,177.4,T*2C
20231006 230031+01:00 $IIMDA,30.1,I,1.018,B,21.6,C,,C,64.9,,,C,,T,,M,,N,,M*2E
20231006 230031+01:00 $WIMWV,122.49,R,2.99,N,A*2D
20231006 230031+01:00 $GPRMC,220028,A,4918.7218,N,12306.4160,W,0,336,061023,,,D,V*1A
20231006 230033+01:00 $HCHDT,177.5,T*2D
20231006 230033+01:00 $IIMDA,30.1,I,1.018,B,21.6,C,,C,64.9,,,C,,T,,M,,N,,M*2E
20231006 230033+01:00 $WIMWV,133.09,R,2.29,N,A*22
20231006 230033+01:00 $GPRMC,220030,A,4918.7218,N,12306.4159,W,0,336,061023,,,D,V*19
20231006 230035+01:00 $HCHDT,177.5,T*2D
20231006 230035+01:00 $IIMDA,30.1,I,1.018,B,21.6,C,,C,65,,,C,,T,,M,,N,,M*38
20231006 230035+01:00 $WIMWV,50.7,R,1.09,N,A*29
20231006 230035+01:00 $GPRMC,220032,A,4918.7217,N,12306.4159,W,0,336,061023,,,D,V*14
20231006 230037+01:00 $HCHDT,177.5,T*2D
20231006 230037+01:00 $IIMDA,30.1,I,1.018,B,21.6,C,,C,65.1,,,C,,T,,M,,N,,M*27
20231006 230037+01:00 $WIMWV,80.2,R,1.79,N,A*26
20231006 230037+01:00 $GPRMC,220034,A,4918.7217,N,12306.4159,W,0,336,061023,,,D,V*12
20231006 230039+01:00 $HCHDT,177.5,T*2D
20231006 230039+01:00 $IIMDA,30.1,I,1.018,B,21.6,C,,C,65.1,,,C,,T,,M,,N,,M*27
20231006 230039+01:00 $WIMWV,32.1,R,2.39,N,A*2B
20231006 230039+01:00 $GPRMC,220036,A,4918.7217,N,12306.4159,W,0,336,061023,,,D,V*10
20231006 230041+01:00 $HCHDT,177.5,T*2D
20231006 230041+01:00 $IIMDA,30.1,I,1.018,B,21.6,C,,C,65.2,,,C,,T,,M,,N,,M*24
20231006 230041+01:00 $WIMWV,59,R,3.89,N,A*33
20231006 230041+01:00 $GPRMC,220038,A,4918.7218,N,12306.4158,W,0,336,061023,,,D,V*10
20231006 230043+01:00 $HCHDT,177.5,T*2D
20231006 230043+01:00 $IIMDA,30.1,I,1.018,B,21.6,C,,C,65.4,,,C,,T,,M,,N,,M*22
20231006 230043+01:00 $WIMWV,95.6,R,2.9,N,A*12
20231006 230043+01:00 $GPRMC,220040,A,4918.7218,N,12306.4158,W,0,336,061023,,,D,V*1F
20231006 230045+01:00 $HCHDT,177.6,T*2E
20231006 230045+01:00 $IIMDA,30.1,I,1.018,B,21.6,C,,C,65.5,,,C,,T,,M,,N,,M*23
20231006 230045+01:00 $WIMWV,63.29,R,1.28,N,A*16
20231006 230045+01:00 $GPRMC,220042,A,4918.7218,N,12306.4159,W,0,336,061023,,,D,V*1C
20231006 230047+01:00 $HCHDT,177.6,T*2E
20231006 230047+01:00 $IIMDA,30.1,I,1.018,B,21.6,C,,C,65.5,,,C,,T,,M,,N,,M*23
20231006 230047+01:00 $WIMWV,67.09,R,2.39,N,A*13
20231006 230047+01:00 $GPRMC,220044,A,4918.7218,N,12306.4160,W,0,336,061023,,,D,V*10
20231006 230049+01:00 $HCHDT,177.7,T*2F
20231006 230049+01:00 $IIMDA,30.1,I,1.018,B,21.6,C,,C,65.6,,,C,,T,,M,,N,,M*20
20231006 230049+01:00 $WIMWV,121.2,R,2.39,N,A*1B
20231006 230049+01:00 $GPRMC,220046,A,4918.7218,N,12306.4160,W,0,336,061023,,,D,V*12
20231006 230051+01:00 $HCHDT,177.7,T*2F
20231006 230051+01:00 $IIMDA,30.1,I,1.018,B,21.6,C,,C,65.6,,,C,,T,,M,,N,,M*20
20231006 230051+01:00 $WIMWV,132.5,R,1.4,N,A*23
20231006 230051+01:00 $GPRMC,220048,A,4918.7218,N,12306.4160,W,0,336,061023,,,D,V*1C
20231006 230053+01:00 $HCHDT,177.7,T*2F
20231006 230053+01:00 $IIMDA,30.1,I,1.018,B,21.6,C,,C,65.5,,,C,,T,,M,,N,,M*23
20231006 230053+01:00 $WIMWV,124.39,R,1.69,N,A*20
20231006 230053+01:00 $GPRMC,220050,A,4918.7218,N,12306.4159,W,0,336,061023,,,D,V*1F
20231006 230055+01:00 $HCHDT,177.8,T*20
20231006 230055+01:00 $IIMDA,30.1,I,1.018,B,21.6,C,,C,65.5,,,C,,T,,M,,N,,M*23
20231006 230055+01:00 $WIMWV,110.99,R,1.98,N,A*23
20231006 230055+01:00 $GPRMC,220052,A,4918.7219,N,12306.4159,W,0,336,061023,,,D,V*1C
20231006 230057+01:00 $HCHDT,177.8,T*20
20231006 230057+01:00 $IIMDA,30.1,I,1.018,B,21.6,C,,C,65.5,,,C,,T,,M,,N,,M*23
20231006 230057+01:00 $WIMWV,128.39,R,2.59,N,A*2C
20231006 230057+01:00 $GPRMC,220054,A,4918.7220,N,12306.4159,W,0,336,061023,,,D,V*10
20231006 230059+01:00 $HCHDT,177.8,T*20
20231006 230059+01:00 $IIMDA,30.1,I,1.018,B,21.6,C,,C,65.5,,,C,,T,,M,,N,,M*23
20231006 230059+01:00 $WIMWV,100.9,R,3.19,N,A*10
20231006 230059+01:00 $GPRMC,220056,A,4918.7220,N,12306.4159,W,0,336,061023,,,D,V*12
20231006 230101+01:00 $HCHDT,177.8,T*20
20231006 230101+01:00 $IIMDA,30.1,I,1.018,B,21.6,C,,C,65.5,,,C,,T,,M,,N,,M*23
20231006 230101+01:00 $WIMWV,91.7,R,1.28,N,A*27
20231006 230101+01:00 $GPRMC,220058,A,4918.7220,N,12306.4159,W,0,336,061023,,,D,V*1C
20231006 230103+01:00 $HCHDT,177.9,T*21
20231006 230103+01:00 $IIMDA,30.1,I,1.018,B,21.6,C,,C,65.4,,,C,,T,,M,,N,,M*22
20231006 230103+01:00 $WIMWV,0.19,R,0,N,A*05
20231006 230103+01:00 $GPRMC,220100,A,4918.7219,N,12306.4159,W,0,336,061023,,,D,V*1A
20231006 230105+01:00 $HCHDT,177.8,T*20
20231006 230105+01:00 $IIMDA,30.1,I,1.018,B,21.6,C,,C,65.4,,,C,,T,,M,,N,,M*22
20231006 230105+01:00 $WIMWV,212.69,R,1.19,N,A*24
20231006 230105+01:00 $GPRMC,220102,A,4918.7219,N,12306.4159,W,0,336,061023,,,D,V*18
20231006 230107+01:00 $HCHDT,177.7,T*2F
20231006 230107+01:00 $IIMDA,30.1,I,1.018,B,21.6,C,,C,65.4,,,C,,T,,M,,N,,M*22
20231006 230107+01:00 $WIMWV,112.7,R,0.89,N,A*17
20231006 230107+01:00 $GPRMC,220104,A,4918.7219,N,12306.4159,W,0,336,061023,,,D,V*1E
20231006 230109+01:00 $HCHDT,177.7,T*2F
20231006 230109+01:00 $IIMDA,30.1,I,1.018,B,21.6,C,,C,65.4,,,C,,T,,M,,N,,M*22
20231006 230109+01:00 $WIMWV,138.7,R,0.99,N,A*1E
20231006 230109+01:00 $GPRMC,220106,A,4918.7219,N,12306.4159,W,0,336,061023,,,D,V*1C
20231006 230111+01:00 $HCHDT,177.6,T*2E
20231006 230111+01:00 $IIMDA,30.1,I,1.018,B,21.6,C,,C,65.4,,,C,,T,,M,,N,,M*22
20231006 230111+01:00 $WIMWV,64.39,R,1.4,N,A*2E
20231006 230111+01:00 $GPRMC,220108,A,4918.7219,N,12306.4160,W,0,336,061023,,,D,V*18
20231006 230113+01:00 $HCHDT,177.5,T*2D
20231006 230113+01:00 $IIMDA,30.1,I,1.018,B,21.6,C,,C,65.2,,,C,,T,,M,,N,,M*24
20231006 230113+01:00 $WIMWV,42.5,R,3.09,N,A*2A
20231006 230113+01:00 $GPRMC,220110,A,4918.7218,N,12306.4160,W,0,336,061023,,,D,V*10
20231006 230115+01:00 $HCHDT,177.5,T*2D
20231006 230115+01:00 $IIMDA,30.1,I,1.018,B,21.6,C,,C,65.2,,,C,,T,,M,,N,,M*24
20231006 230115+01:00 $WIMWV,97.6,R,2.59,N,A*25
20231006 230115+01:00 $GPRMC,220112,A,4918.7218,N,12306.4160,W,0,336,061023,,,D,V*12
20231006 230117+01:00 $HCHDT,177.5,T*2D
20231006 230117+01:00 $IIMDA,30.1,I,1.018,B,21.6,C,,C,65.2,,,C,,T,,M,,N,,M*24
20231006 230117+01:00 $WIMWV,65.99,R,0.7,N,A*27
20231006 230117+01:00 $GPRMC,220114,A,4918.7219,N,12306.4159,W,0,336,061023,,,D,V*1F
20231006 230119+01:00 $HCHDT,177.5,T*2D
20231006 230119+01:00 $IIMDA,30.1,I,1.018,B,21.6,C,,C,65.2,,,C,,T,,M,,N,,M*24
20231006 230119+01:00 $WIMWV,78.79,R,3.29,N,A*1A
20231006 230119+01:00 $GPRMC,220116,A,4918.7219,N,12306.4160,W,0,336,061023,,,D,V*17
20231006 230121+01:00 $HCHDT,177.5,T*2D
20231006 230121+01:00 $IIMDA,30.1,I,1.018,B,21.6,C,,C,65.1,,,C,,T,,M,,N,,M*27
20231006 230121+01:00 $WIMWV,91.7,R,1.69,N,A*22
20231006 230121+01:00 $GPRMC,220118,A,4918.7219,N,12306.4160,W,0,336,061023,,,D,V*19
20231006 230123+01:00 $HCHDT,177.5,T*2D
20231006 230123+01:00 $IIMDA,30.1,I,1.018,B,21.6,C,,C,65.1,,,C,,T,,M,,N,,M*27
20231006 230123+01:00 $WIMWV,27,R,0.7,N,A*0F
20231006 230123+01:00 $GPRMC,220120,A,4918.7219,N,12306.4160,W,0,336,061023,,,D,V*12
20231006 230125+01:00 $HCHDT,177.5,T*2D
20231006 230125+01:00 $IIMDA,30.1,I,1.018,B,21.6,C,,C,65,,,C,,T,,M,,N,,M*38
20231006 230125+01:00 $WIMWV,119,R,3.29,N,A*0C
20231006 230125+01:00 $GPRMC,220122,A,4918.7218,N,12306.4160,W,0,336,061023,,,D,V*11
20231006 230127+01:00 $HCHDT,177.4,T*2C
20231006 230127+01:00 $IIMDA,30.1,I,1.018,B,21.6,C,,C,64.9,,,C,,T,,M,,N,,M*2E
20231006 230127+01:00 $WIMWV,115.39,R,3.29,N,A*24
20231006 230127+01:00 $GPRMC,220124,A,4918.7219,N,12306.4160,W,0,336,061023,,,D,V*16
20231006 230129+01:00 $HCHDT,177.4,T*2C
20231006 230129+01:00 $IIMDA,30.1,I,1.018,B,21.6,C,,C,64.9,,,C,,T,,M,,N,,M*2E
20231006 230129+01:00 $WIMWV,119.79,R,3.29,N,A*2C
20231006 230129+01:00 $GPRMC,220126,A,4918.7219,N,12306.4160,W,0,336,061023,,,D,V*14
20231006 230131+01:00 $HCHDT,177.4,T*2C
20231006 230131+01:00 $IIMDA,30.1,I,1.018,B,21.6,C,,C,64.8,,,C,,T,,M,,N,,M*2F
20231006 230131+01:00 $WIMWV,55.79,R,1.09,N,A*15
20231006 230131+01:00 $GPRMC,220128,A,4918.7219,N,12306.4159,W,0,336,061023,,,D,V*10
20231006 230133+01:00 $HCHDT,177.3,T*2B
20231006 230133+01:00 $IIMDA,30.1,I,1.018,B,21.6,C,,C,64.9,,,C,,T,,M,,N,,M*2E
20231006 230133+01:00 $WIMWV,63.7,R,1.19,N,A*28
20231006 230133+01:00 $GPRMC,220130,A,4918.7219,N,12306.4160,W,0,336,061023,,,D,V*13
20231006 230135+01:00 $HCHDT,177.2,T*2A
20231006 230135+01:00 $IIMDA,30.1,I,1.018,B,21.6,C,,C,64.9,,,C,,T,,M,,N,,M*2E
20231006 230135+01:00 $WIMWV,121.7,R,0.39,N,A*1C
20231006 230135+01:00 $GPRMC,220132,A,4918.7220,N,12306.4160,W,0,336,061023,,,D,V*1B
20231006 230137+01:00 $HCHDT,177.2,T*2A
20231006 230137+01:00 $IIMDA,30.1,I,1.018,B,21.6,C,,C,65,,,C,,T,,M,,N,,M*38
20231006 230137+01:00 $WIMWV,32.3,R,0.8,N,A*19
20231006 230137+01:00 $GPRMC,220134,A,4918.7219,N,12306.4161,W,0,336,061023,,,D,V*16
20231006 230139+01:00 $HCHDT,177.1,T*29
20231006 230139+01:00 $IIMDA,30.1,I,1.018,B,21.6,C,,C,65.2,,,C,,T,,M,,N,,M*24
20231006 230139+01:00 $WIMWV,32.3,R,0.7,N,A*16
20231006 230139+01:00 $GPRMC,220136,A,4918.7219,N,12306.4160,W,0,336,061023,,,D,V*15
20231006 230141+01:00 $HCHDT,177.1,T*29
20231006 230141+01:00 $IIMDA,30.1,I,1.018,B,21.6,C,,C,65.2,,,C,,T,,M,,N,,M*24
20231006 230141+01:00 $WIMWV,213.5,R,0.39,N,A*1C
20231006 230141+01:00 $GPRMC,220138,A,4918.7220,N,12306.4160,W,0,336,061023,,,D,V*11
20231006 230143+01:00 $HCHDT,177,T*36
20231006 230143+01:00 $IIMDA,30.1,I,1.018,B,21.6,C,,C,65.2,,,C,,T,,M,,N,,M*24
20231006 230143+01:00 $WIMWV,57.59,R,0.7,N,A*2A
20231006 230143+01:00 $GPRMC,220140,A,4918.7219,N,12306.4161,W,0,336,061023,,,D,V*15
20231006 230145+01:00 $HCHDT,176.9,T*20
20231006 230145+01:00 $IIMDA,30.1,I,1.018,B,21.6,C,,C,65.1,,,C,,T,,M,,N,,M*27
20231006 230145+01:00 $WIMWV,120.4,R,3.6,N,A*21
20231006 230145+01:00 $GPRMC,220142,A,4918.7219,N,12306.4161,W,0,336,061023,,,D,V*17
20231006 230147+01:00 $HCHDT,176.9,T*20
20231006 230147+01:00 $IIMDA,30.1,I,1.018,B,21.6,C,,C,65.1,,,C,,T,,M,,N,,M*27
20231006 230147+01:00 $WIMWV,80.09,R,2.49,N,A*1D
20231006 230147+01:00 $GPRMC,220144,A,4918.7219,N,12306.4142,W,0,336,061023,,,D,V*10
20231006 230149+01:00 $HCHDT,176.8,T*21
20231006 230149+01:00 $IIMDA,30.1,I,1.018,B,21.6,C,,C,65.1,,,C,,T,,M,,N,,M*27
20231006 230149+01:00 $WIMWV,33.9,R,1.19,N,A*23
20231006 230149+01:00 $GPRMC,220146,A,4918.7220,N,12306.4142,W,0,336,061023,,,D,V*18
20231006 230151+01:00 $HCHDT,176.8,T*21
20231006 230151+01:00 $IIMDA,30.1,I,1.018,B,21.6,C,,C,65,,,C,,T,,M,,N,,M*38
20231006 230151+01:00 $WIMWV,96.39,R,1.98,N,A*16
20231006 230151+01:00 $GPRMC,220148,A,4918.7220,N,12306.4142,W,0,336,061023,,,D,V*16
20231006 230153+01:00 $HCHDT,176.8,T*21
20231006 230153+01:00 $IIMDA,30.1,I,1.018,B,21.6,C,,C,65,,,C,,T,,M,,N,,M*38
20231006 230153+01:00 $WIMWV,80.9,R,1.79,N,A*2D
20231006 230153+01:00 $GPRMC,220150,A,4918.7220,N,12306.4142,W,0,336,061023,,,D,V*1F
20231006 230155+01:00 $HCHDT,176.8,T*21
20231006 230155+01:00 $IIMDA,30.1,I,1.018,B,21.6,C,,C,65,,,C,,T,,M,,N,,M*38
20231006 230155+01:00 $WIMWV,120.29,R,1.89,N,A*2B
20231006 230155+01:00 $GPRMC,220152,A,4918.7219,N,12306.4143,W,0,336,061023,,,D,V*16
20231006 230157+01:00 $HCHDT,176.8,T*21
20231006 230157+01:00 $IIMDA,30.1,I,1.018,B,21.6,C,,C,65,,,C,,T,,M,,N,,M*38
20231006 230157+01:00 $WIMWV,138.59,R,1.79,N,A*2A
20231006 230157+01:00 $GPRMC,220154,A,4918.7219,N,12306.4143,W,0,336,061023,,,D,V*10
20231006 230159+01:00 $HCHDT,176.8,T*21
20231006 230159+01:00 $IIMDA,30.1,I,1.018,B,21.6,C,,C,65,,,C,,T,,M,,N,,M*38
20231006 230159+01:00 $WIMWV,122.69,R,0.49,N,A*20
20231006 230159+01:00 $GPRMC,220156,A,4918.7219,N,12306.4143,W,0,336,061023,,,D,V*12
20231006 230201+01:00 $HCHDT,176.9,T*20
20231006 230201+01:00 $IIMDA,30.1,I,1.018,B,21.6,C,,C,65,,,C,,T,,M,,N,,M*38
20231006 230201+01:00 $WIMWV,86.49,R,1.89,N,A*10
20231006 230201+01:00 $GPRMC,220158,A,4918.7220,N,12306.4143,W,0,336,061023,,,D,V*16
20231006 230203+01:00 $HCHDT,176.9,T*20
20231006 230203+01:00 $IIMDA,30.1,I,1.018,B,21.6,C,,C,65,,,C,,T,,M,,N,,M*38
20231006 230203+01:00 $WIMWV,96.8,R,2.49,N,A*2B
20231006 230203+01:00 $GPRMC,220200,A,4918.7219,N,12306.4143,W,0,336,061023,,,D,V*12
20231006 230205+01:00 $HCHDT,177,T*36
20231006 230205+01:00 $IIMDA,30.1,I,1.018,B,21.6,C,,C,65,,,C,,T,,M,,N,,M*38
20231006 230205+01:00 $WIMWV,63.6,R,1.98,N,A*20
20231006 230205+01:00 $GPRMC,220202,A,4918.7220,N,12306.4143,W,0,336,061023,,,D,V*1A
20231006 230207+01:00 $HCHDT,177.1,T*29
20231006 230207+01:00 $IIMDA,30.1,I,1.018,B,21.6,C,,C,65,,,C,,T,,M,,N,,M*38
20231006 230207+01:00 $WIMWV,117,R,0.89,N,A*0B
20231006 230207+01:00 $GPRMC,220204,A,4918.7220,N,12306.4161,W,0,336,061023,,,D,V*1C
20231006 230209+01:00 $HCHDT,177.1,T*29
20231006 230209+01:00 $IIMDA,30.1,I,1.018,B,21.6,C,,C,65,,,C,,T,,M,,N,,M*38
20231006 230209+01:00 $WIMWV,96.5,R,2.39,N,A*21
20231006 230209+01:00 $GPRMC,220206,A,4918.7220,N,12306.4161,W,0,336,061023,,,D,V*1E
20231006 230211+01:00 $HCHDT,177.2,T*2A
20231006 230211+01:00 $IIMDA,30.1,I,1.018,B,21.6,C,,C,65.1,,,C,,T,,M,,N,,M*27
20231006 230211+01:00 $WIMWV,44.09,R,3.19,N,A*11
20231006 230211+01:00 $GPRMC,220208,A,4918.7220,N,12306.4161,W,0,336,061023,,,D,V*10
20231006 230213+01:00 $HCHDT,177.2,T*2A
20231006 230213+01:00 $IIMDA,30.1,I,1.018,B,21.6,C,,C,65.1,,,C,,T,,M,,N,,M*27
20231006 230213+01:00 $WIMWV,41.89,R,1.98,N,A*17
20231006 230213+01:00 $GPRMC,220210,A,4918.7220,N,12306.4161,W,0,336,061023,,,D,V*19
20231006 230215+01:00 $HCHDT,177.3,T*2B
20231006 230215+01:00 $IIMDA,30.1,I,1.018,B,21.6,C,,C,65.2,,,C,,T,,M,,N,,M*24
20231006 230215+01:00 $WIMWV,74.99,R,2.99,N,A*12
20231006 230215+01:00 $GPRMC,220212,A,4918.7220,N,12306.4161,W,0,336,061023,,,D,V*1B
20231006 230217+01:00 $HCHDT,177.3,T*2B
20231006 230217+01:00 $IIMDA,30.1,I,1.018,B,21.6,C,,C,65.2,,,C,,T,,M,,N,,M*24
20231006 230217+01:00 $WIMWV,73.89,R,2.2,N,A*26
20231006 230217+01:00 $GPRMC,220214,A,4918.7220,N,12306.4161,W,0,336,061023,,,D,V*1D
20231006 230219+01:00 $HCHDT,177.4,T*2C
20231006 230219+01:00 $IIMDA,30.1,I,1.018,B,21.6,C,,C,65.3,,,C,,T,,M,,N,,M*25
20231006 230219+01:00 $WIMWV,79.89,R,2.2,N,A*2C
20231006 230219+01:00 $GPRMC,220216,A,4918.7221,N,12306.4160,W,0,336,061023,,,D,V*1F
20231006 230221+01:00 $HCHDT,177.4,T*2C
20231006 230221+01:00 $IIMDA,30.1,I,1.018,B,21.6,C,,C,65.4,,,C,,T,,M,,N,,M*22
20231006 230221+01:00 $WIMWV,112.7,R,0.58,N,A*1B
20231006 230221+01:00 $GPRMC,220218,A,4918.7221,N,12306.4160,W,0,336,061023,,,D,V*11
20231006 230223+01:00 $HCHDT,177.4,T*2C
20231006 230223+01:00 $IIMDA,30.1,I,1.018,B,21.6,C,,C,65.4,,,C,,T,,M,,N,,M*22
20231006 230223+01:00 $WIMWV,53.7,R,1.28,N,A*29
20231006 230223+01:00 $GPRMC,220220,A,4918.7221,N,12306.4161,W,0,336,061023,,,D,V*1B
20231006 230225+01:00 $HCHDT,177.4,T*2C
20231006 230225+01:00 $IIMDA,30.1,I,1.018,B,21.6,C,,C,65.4,,,C,,T,,M,,N,,M*22
20231006 230225+01:00 $WIMWV,134.39,R,1.98,N,A*2F
20231006 230225+01:00 $GPRMC,220222,A,4918.7221,N,12306.4161,W,0,336,061023,,,D,V*19
20231006 230227+01:00 $HCHDT,177.4,T*2C
20231006 230227+01:00 $IIMDA,30.1,I,1.018,B,21.6,C,,C,65.4,,,C,,T,,M,,N,,M*22
20231006 230227+01:00 $WIMWV,113.89,R,1.19,N,A*28
20231006 230227+01:00 $GPRMC,220224,A,4918.7222,N,12306.4161,W,0,336,061023,,,D,V*1C
20231006 230229+01:00 $HCHDT,177.4,T*2C
20231006 230229+01:00 $IIMDA,30.1,I,1.018,B,21.6,C,,C,65.5,,,C,,T,,M,,N,,M*23
20231006 230229+01:00 $WIMWV,114.6,R,2.99,N,A*13
20231006 230229+01:00 $GPRMC,220226,A,4918.7222,N,12306.4160,W,0,336,061023,,,D,V*1F
20231006 230231+01:00 $HCHDT,177.5,T*2D
20231006 230231+01:00 $IIMDA,30.1,I,1.018,B,21.6,C,,C,65.4,,,C,,T,,M,,N,,M*22
20231006 230231+01:00 $WIMWV,98.9,R,4.2,N,A*1D
20231006 230231+01:00 $GPRMC,220228,A,4918.7222,N,12306.4160,W,0,336,061023,,,D,V*11
20231006 230233+01:00 $HCHDT,177.5,T*2D
20231006 230233+01:00 $IIMDA,30.1,I,1.018,B,21.6,C,,C,65.4,,,C,,T,,M,,N,,M*22
20231006 230233+01:00 $WIMWV,68,R,2.29,N,A*3A
20231006 230233+01:00 $GPRMC,220230,A,4918.7222,N,12306.4160,W,0,336,061023,,,D,V*18
20231006 230235+01:00 $HCHDT,177.5,T*2D
20231006 230235+01:00 $IIMDA,30.1,I,1.018,B,21.6,C,,C,65.4,,,C,,T,,M,,N,,M*22
20231006 230235+01:00 $WIMWV,67,R,0.7,N,A*0B
20231006 230235+01:00 $GPRMC,220232,A,4918.7222,N,12306.4160,W,0,336,061023,,,D,V*1A
20231006 230237+01:00 $HCHDT,177.5,T*2D
20231006 230237+01:00 $IIMDA,30.1,I,1.018,B,21.6,C,,C,65.4,,,C,,T,,M,,N,,M*22
20231006 230237+01:00 $WIMWV,32.1,R,1.59,N,A*2E
20231006 230237+01:00 $GPRMC,220234,A,4918.7222,N,12306.4161,W,0,336,061023,,,D,V*1D
20231006 230239+01:00 $HCHDT,177.5,T*2D
20231006 230239+01:00 $IIMDA,30.1,I,1.018,B,21.6,C,,C,65.4,,,C,,T,,M,,N,,M*22
20231006 230239+01:00 $WIMWV,144,R,2.49,N,A*03
20231006 230239+01:00 $GPRMC,220236,A,4918.7222,N,12306.4161,W,0,336,061023,,,D,V*1F
20231006 230241+01:00 $HCHDT,177.5,T*2D
20231006 230241+01:00 $IIMDA,30.1,I,1.018,B,21.6,C,,C,65.4,,,C,,T,,M,,N,,M*22
20231006 230241+01:00 $WIMWV,100.19,R,1.98,N,A*2A
20231006 230241+01:00 $GPRMC,220238,A,4918.7223,N,12306.4161,W,0,336,061023,,,D,V*10
20231006 230243+01:00 $HCHDT,177.4,T*2C
20231006 230243+01:00 $IIMDA,30.1,I,1.018,B,21.6,C,,C,65.4,,,C,,T,,M,,N,,M*22
20231006 230243+01:00 $WIMWV,118.6,R,1.69,N,A*13
20231006 230243+01:00 $GPRMC,220240,A,4918.7223,N,12306.4161,W,0,336,061023,,,D,V*1F
20231006 230245+01:00 $HCHDT,177.4,T*2C
20231006 230245+01:00 $IIMDA,30.1,I,1.018,B,21.6,C,,C,65.3,,,C,,T,,M,,N,,M*25
20231006 230245+01:00 $WIMWV,70.7,R,1.79,N,A*2C
20231006 230245+01:00 $GPRMC,220242,A,4918.7223,N,12306.4161,W,0,336,061023,,,D,V*1D
20231006 230247+01:00 $HCHDT,177.4,T*2C
20231006 230247+01:00 $IIMDA,30.1,I,1.018,B,21.6,C,,C,65.3,,,C,,T,,M,,N,,M*25
20231006 230247+01:00 $WIMWV,110.9,R,2.29,N,A*13
20231006 230247+01:00 $GPRMC,220244,A,4918.7223,N,12306.4161,W,0,336,061023,,,D,V*1B
20231006 230249+01:00 $HCHDT,177.4,T*2C
20231006 230249+01:00 $IIMDA,30.1,I,1.018,B,21.5,C,,C,65.3,,,C,,T,,M,,N,,M*26
20231006 230249+01:00 $WIMWV,117.7,R,0.39,N,A*19
20231006 230249+01:00 $GPRMC,220246,A,4918.7223,N,12306.4161,W,0,336,061023,,,D,V*19
20231006 230251+01:00 $HCHDT,177.3,T*2B
20231006 230251+01:00 $IIMDA,30.1,I,1.018,B,21.5,C,,C,65.3,,,C,,T,,M,,N,,M*26
20231006 230251+01:00 $WIMWV,111.3,R,1.69,N,A*1F
20231006 230251+01:00 $GPRMC,220248,A,4918.7223,N,12306.4161,W,0,336,061023,,,D,V*17
20231006 230253+01:00 $HCHDT,177.3,T*2B
20231006 230253+01:00 $IIMDA,30.1,I,1.018,B,21.5,C,,C,65.4,,,C,,T,,M,,N,,M*21
20231006 230253+01:00 $WIMWV,103.69,R,3.19,N,A*25
20231006 230253+01:00 $GPRMC,220250,A,4918.7224,N,12306.4161,W,0,336,061023,,,D,V*19
20231006 230255+01:00 $HCHDT,177.4,T*2C
20231006 230255+01:00 $IIMDA,30.1,I,1.018,B,21.5,C,,C,65.4,,,C,,T,,M,,N,,M*21
20231006 230255+01:00 $WIMWV,110.6,R,2.68,N,A*19
20231006 230255+01:00 $GPRMC,220252,A,4918.7224,N,12306.4142,W,0,336,061023,,,D,V*1A
20231006 230257+01:00 $HCHDT,177.4,T*2C
20231006 230257+01:00 $IIMDA,30.1,I,1.018,B,21.5,C,,C,65.5,,,C,,T,,M,,N,,M*20
20231006 230257+01:00 $WIMWV,116.09,R,3.29,N,A*24
20231006 230257+01:00 $GPRMC,220254,A,4918.7224,N,12306.4142,W,0,336,061023,,,D,V*1C
20231006 230259+01:00 $HCHDT,177.4,T*2C
20231006 230259+01:00 $IIMDA,30.1,I,1.018,B,21.5,C,,C,65.5,,,C,,T,,M,,N,,M*20
20231006 230259+01:00 $WIMWV,113.3,R,2.1,N,A*20
20231006 230259+01:00 $GPRMC,220256,A,4918.7223,N,12306.4161,W,0,336,061023,,,D,V*18
20231006 230301+01:00 $HCHDT,177.4,T*2C
20231006 230301+01:00 $IIMDA,30.1,I,1.018,B,21.5,C,,C,65.5,,,C,,T,,M,,N,,M*20
20231006 230301+01:00 $WIMWV,130.89,R,2.1,N,A*13
20231006 230301+01:00 $GPRMC,220258,A,4918.7224,N,12306.4161,W,0,336,061023,,,D,V*11
20231006 230303+01:00 $HCHDT,177.5,T*2D
20231006 230303+01:00 $IIMDA,30.1,I,1.018,B,21.4,C,,C,65.5,,,C,,T,,M,,N,,M*21
20231006 230303+01:00 $WIMWV,141.8,R,1.98,N,A*1F
20231006 230303+01:00 $GPRMC,220300,A,4918.7224,N,12306.4161,W,0,336,061023,,,D,V*1D
20231006 230305+01:00 $HCHDT,177.5,T*2D
20231006 230305+01:00 $IIMDA,30.1,I,1.018,B,21.4,C,,C,65.5,,,C,,T,,M,,N,,M*21
20231006 230305+01:00 $WIMWV,164.99,R,1.4,N,A*15
20231006 230305+01:00 $GPRMC,220302,A,4918.7229,N,12306.4143,W,0,336,061023,,,D,V*12
20231006 230307+01:00 $HCHDT,177.6,T*2E
20231006 230307+01:00 $IIMDA,30.1,I,1.018,B,21.4,C,,C,65.6,,,C,,T,,M,,N,,M*22
20231006 230307+01:00 $WIMWV,155.79,R,1.69,N,A*22
20231006 230307+01:00 $GPRMC,220304,A,4918.7229,N,12306.4143,W,0,336,061023,,,D,V*14
20231006 230309+01:00 $HCHDT,177.6,T*2E
20231006 230309+01:00 $IIMDA,30.1,I,1.018,B,21.4,C,,C,65.6,,,C,,T,,M,,N,,M*22
20231006 230309+01:00 $WIMWV,169.6,R,1.98,N,A*1B
20231006 230309+01:00 $GPRMC,220306,A,4918.7228,N,12306.4142,W,0,336,061023,,,D,V*16
20231006 230311+01:00 $HCHDT,177.7,T*2F
20231006 230311+01:00 $IIMDA,30.1,I,1.018,B,21.4,C,,C,65.6,,,C,,T,,M,,N,,M*22
20231006 230311+01:00 $WIMWV,190.89,R,1.5,N,A*1E
20231006 230311+01:00 $GPRMC,220308,A,4918.7228,N,12306.4142,W,0,336,061023,,,D,V*18
20231006 230313+01:00 $HCHDT,177.7,T*2F
20231006 230313+01:00 $IIMDA,30.1,I,1.018,B,21.4,C,,C,65.5,,,C,,T,,M,,N,,M*21
20231006 230313+01:00 $WIMWV,138.2,R,1.69,N,A*15
20231006 230313+01:00 $GPRMC,220310,A,4918.7228,N,12306.4142,W,0,336,061023,,,D,V*11
20231006 230315+01:00 $HCHDT,177.7,T*2F
20231006 230315+01:00 $IIMDA,30.1,I,1.018,B,21.4,C,,C,65.5,,,C,,T,,M,,N,,M*21
20231006 230315+01:00 $WIMWV,163.89,R,2.39,N,A*2E
20231006 230315+01:00 $GPRMC,220312,A,4918.7228,N,12306.4161,W,0,336,061023,,,D,V*12
20231006 230317+01:00 $HCHDT,177.7,T*2F
20231006 230317+01:00 $IIMDA,30.1,I,1.018,B,21.5,C,,C,65.5,,,C,,T,,M,,N,,M*20
20231006 230317+01:00 $WIMWV,118.6,R,2.29,N,A*14
20231006 230317+01:00 $GPRMC,220314,A,4918.7228,N,12306.4161,W,0,336,061023,,,D,V*14
20231006 230319+01:00 $HCHDT,177.8,T*20
20231006 230319+01:00 $IIMDA,30.1,I,1.018,B,21.5,C,,C,65.6,,,C,,T,,M,,N,,M*23
20231006 230319+01:00 $WIMWV,111.8,R,2.29,N,A*13
20231006 230319+01:00 $GPRMC,220316,A,4918.7228,N,12306.4160,W,0,336,061023,,,D,V*17
20231006 230321+01:00 $HCHDT,177.8,T*20
20231006 230321+01:00 $IIMDA,30.1,I,1.018,B,21.5,C,,C,65.6,,,C,,T,,M,,N,,M*23
20231006 230321+01:00 $WIMWV,117.9,R,2.39,N,A*15
20231006 230321+01:00 $GPRMC,220318,A,4918.7228,N,12306.4160,W,0,336,061023,,,D,V*19
20231006 230323+01:00 $HCHDT,177.8,T*20
20231006 230323+01:00 $IIMDA,30.1,I,1.018,B,21.5,C,,C,65.6,,,C,,T,,M,,N,,M*23
20231006 230323+01:00 $WIMWV,115.3,R,2.9,N,A*2E
20231006 230323+01:00 $GPRMC,220320,A,4918.7228,N,12306.4159,W,0,336,061023,,,D,V*18
20231006 230325+01:00 $HCHDT,177.8,T*20
20231006 230325+01:00 $IIMDA,30.1,I,1.018,B,21.5,C,,C,65.7,,,C,,T,,M,,N,,M*22
20231006 230325+01:00 $WIMWV,120.49,R,4.68,N,A*27
20231006 230325+01:00 $GPRMC,220322,A,4918.7228,N,12306.4158,W,0,336,061023,,,D,V*1B
20231006 230327+01:00 $HCHDT,177.8,T*20
20231006 230327+01:00 $IIMDA,30.1,I,1.018,B,21.5,C,,C,65.6,,,C,,T,,M,,N,,M*23
20231006 230327+01:00 $WIMWV,112.49,R,4.78,N,A*27
20231006 230327+01:00 $GPRMC,220324,A,4918.7228,N,12306.4158,W,0,336,061023,,,D,V*1D
20231006 230329+01:00 $HCHDT,177.9,T*21
20231006 230329+01:00 $IIMDA,30.1,I,1.018,B,21.5,C,,C,65.6,,,C,,T,,M,,N,,M*23
20231006 230329+01:00 $WIMWV,113.39,R,4.39,N,A*24
20231006 230329+01:00 $GPRMC,220326,A,4918.7229,N,12306.4159,W,0,336,061023,,,D,V*1F
20231006 230331+01:00 $HCHDT,177.9,T*21
20231006 230331+01:00 $IIMDA,30.1,I,1.018,B,21.4,C,,C,65.6,,,C,,T,,M,,N,,M*22
20231006 230331+01:00 $WIMWV,70.7,R,1.89,N,A*23
20231006 230331+01:00 $GPRMC,220328,A,4918.7228,N,12306.4158,W,0,336,061023,,,D,V*11
20231006 230333+01:00 $HCHDT,178,T*39
20231006 230333+01:00 $IIMDA,30.1,I,1.018,B,21.4,C,,C,65.6,,,C,,T,,M,,N,,M*22
20231006 230333+01:00 $WIMWV,48,R,0.89,N,A*30
20231006 230333+01:00 $GPRMC,220330,A,4918.7229,N,12306.4158,W,0,336,061023,,,D,V*19
20231006 230335+01:00 $HCHDT,178,T*39
20231006 230335+01:00 $IIMDA,30.1,I,1.018,B,21.4,C,,C,65.7,,,C,,T,,M,,N,,M*23
20231006 230335+01:00 $WIMWV,63.5,R,2.29,N,A*2A
20231006 230335+01:00 $GPRMC,220332,A,4918.7231,N,12306.4158,W,0,336,061023,,,D,V*12
20231006 230337+01:00 $HCHDT,178,T*39
20231006 230337+01:00 $IIMDA,30.1,I,1.018,B,21.4,C,,C,65.8,,,C,,T,,M,,N,,M*2C
20231006 230337+01:00 $WIMWV,64.6,R,1.59,N,A*2A
20231006 230337+01:00 $GPRMC,220334,A,4918.7231,N,12306.4158,W,0,336,061023,,,D,V*14
20231006 230339+01:00 $HCHDT,178.1,T*26
20231006 230339+01:00 $IIMDA,30.1,I,1.018,B,21.4,C,,C,65.8,,,C,,T,,M,,N,,M*2C
20231006 230339+01:00 $WIMWV,116.09,R,1.69,N,A*22
20231006 230339+01:00 $GPRMC,220336,A,4918.7231,N,12306.4158,W,0,336,061023,,,D,V*16
20231006 230341+01:00 $HCHDT,178.1,T*26
20231006 230341+01:00 $IIMDA,30.1,I,1.018,B,21.4,C,,C,65.9,,,C,,T,,M,,N,,M*2D
20231006 230341+01:00 $WIMWV,120.89,R,1.5,N,A*15
20231006 230341+01:00 $GPRMC,220338,A,4918.7229,N,12306.4158,W,0,336,061023,,,D,V*11
20231006 230343+01:00 $HCHDT,178.2,T*25
20231006 230343+01:00 $IIMDA,30.1,I,1.018,B,21.4,C,,C,65.9,,,C,,T,,M,,N,,M*2D
20231006 230343+01:00 $WIMWV,139.6,R,1.4,N,A*2B
20231006 230343+01:00 $GPRMC,220340,A,4918.7229,N,12306.4158,W,0,336,061023,,,D,V*1E
20231006 230345+01:00 $HCHDT,178.2,T*25
20231006 230345+01:00 $IIMDA,30.1,I,1.018,B,21.4,C,,C,65.9,,,C,,T,,M,,N,,M*2D
20231006 230345+01:00 $WIMWV,91.7,R,1.09,N,A*24
20231006 230345+01:00 $GPRMC,220342,A,4918.7228,N,12306.4158,W,0,336,061023,,,D,V*1D
20231006 230347+01:00 $HCHDT,178.2,T*25
20231006 230347+01:00 $IIMDA,30.1,I,1.018,B,21.4,C,,C,65.9,,,C,,T,,M,,N,,M*2D
20231006 230347+01:00 $WIMWV,55.79,R,0.99,N,A*1D
20231006 230347+01:00 $GPRMC,220344,A,4918.7227,N,12306.4157,W,0,336,061023,,,D,V*1B
20231006 230349+01:00 $HCHDT,178.3,T*24
20231006 230349+01:00 $IIMDA,30.1,I,1.018,B,21.4,C,,C,66,,,C,,T,,M,,N,,M*39
20231006 230349+01:00 $WIMWV,25.2,R,0.7,N,A*11
20231006 230349+01:00 $GPRMC,220346,A,4918.7226,N,12306.4159,W,0,336,061023,,,D,V*16
20231006 230351+01:00 $HCHDT,178.3,T*24
20231006 230351+01:00 $IIMDA,30.1,I,1.018,B,21.4,C,,C,66,,,C,,T,,M,,N,,M*39
20231006 230351+01:00 $WIMWV,86.69,R,1.5,N,A*26
20231006 230351+01:00 $GPRMC,220348,A,4918.7227,N,12306.4159,W,0,336,061023,,,D,V*19
20231006 230353+01:00 $HCHDT,178.3,T*24
20231006 230353+01:00 $IIMDA,30.1,I,1.018,B,21.4,C,,C,66,,,C,,T,,M,,N,,M*39
20231006 230353+01:00 $WIMWV,84.09,R,1.4,N,A*23
20231006 230353+01:00 $GPRMC,220350,A,4918.7227,N,12306.4160,W,0,336,061023,,,D,V*1A
20231006 230355+01:00 $HCHDT,178.4,T*23
20231006 230355+01:00 $IIMDA,30.1,I,1.018,B,21.4,C,,C,66.1,,,C,,T,,M,,N,,M*26
20231006 230355+01:00 $WIMWV,79.6,R,2.49,N,A*24
20231006 230355+01:00 $GPRMC,220352,A,4918.7227,N,12306.4159,W,0,336,061023,,,D,V*12
20231006 230357+01:00 $HCHDT,178.5,T*22
20231006 230357+01:00 $IIMDA,30.1,I,1.018,B,21.4,C,,C,66,,,C,,T,,M,,N,,M*39
20231006 230357+01:00 $WIMWV,112.7,R,0.58,N,A*1B
20231006 230357+01:00 $GPRMC,220354,A,4918.7227,N,12306.4159,W,0,336,061023,,,D,V*14
20231006 230359+01:00 $HCHDT,178.5,T*22
20231006 230359+01:00 $IIMDA,30.1,I,1.018,B,21.4,C,,C,66,,,C,,T,,M,,N,,M*39
20231006 230359+01:00 $WIMWV,329.39,R,0.8,N,A*19
20231006 230359+01:00 $GPRMC,220356,A,4918.7227,N,12306.4158,W,0,336,061023,,,D,V*17
20231006 230401+01:00 $HCHDT,178.5,T*22
20231006 230401+01:00 $IIMDA,30.1,I,1.018,B,21.4,C,,C,66,,,C,,T,,M,,N,,M*39
20231006 230401+01:00 $WIMWV,70.2,R,1.28,N,A*2D
20231006 230401+01:00 $GPRMC,220358,A,4918.7227,N,12306.4159,W,0,336,061023,,,D,V*18
20231006 230403+01:00 $HCHDT,178.5,T*22
20231006 230403+01:00 $IIMDA,30.1,I,1.018,B,21.4,C,,C,66,,,C,,T,,M,,N,,M*39
20231006 230403+01:00 $WIMWV,68.5,R,1.19,N,A*21
20231006 230403+01:00 $GPRMC,220400,A,4918.7228,N,12306.4158,W,0,336,061023,,,D,V*1C
20231006 230405+01:00 $HCHDT,178.5,T*22
20231006 230405+01:00 $IIMDA,30.1,I,1.018,B,21.4,C,,C,66,,,C,,T,,M,,N,,M*39
20231006 230405+01:00 $WIMWV,65.49,R,1.5,N,A*29
20231006 230405+01:00 $GPRMC,220402,A,4918.7228,N,12306.4159,W,0,336,061023,,,D,V*1F
20231006 230407+01:00 $HCHDT,178.5,T*22
20231006 230407+01:00 $IIMDA,30.1,I,1.018,B,21.4,C,,C,66,,,C,,T,,M,,N,,M*39
20231006 230407+01:00 $WIMWV,76.99,R,1.19,N,A*1B
20231006 230407+01:00 $GPRMC,220404,A,4918.7228,N,12306.4158,W,0,336,061023,,,D,V*18
20231006 230409+01:00 $HCHDT,178.6,T*21
20231006 230409+01:00 $IIMDA,30.1,I,1.018,B,21.4,C,,C,66,,,C,,T,,M,,N,,M*39
20231006 230409+01:00 $WIMWV,140.4,R,0.89,N,A*13
20231006 230409+01:00 $GPRMC,220406,A,4918.7228,N,12306.4158,W,0,336,061023,,,D,V*1A
20231006 230411+01:00 $HCHDT,178.6,T*21
20231006 230411+01:00 $IIMDA,30.1,I,1.018,B,21.4,C,,C,66.1,,,C,,T,,M,,N,,M*26
20231006 230411+01:00 $WIMWV,198.9,R,0.7,N,A*2D
20231006 230411+01:00 $GPRMC,220408,A,4918.7227,N,12306.4157,W,0,336,061023,,,D,V*14
20231006 230413+01:00 $HCHDT,178.6,T*21
20231006 230413+01:00 $IIMDA,30.1,I,1.018,B,21.5,C,,C,66.1,,,C,,T,,M,,N,,M*27
20231006 230413+01:00 $WIMWV,160.59,R,1.28,N,A*23
20231006 230413+01:00 $GPRMC,220410,A,4918.7227,N,12306.4157,W,0,336,061023,,,D,V*1D
20231006 230415+01:00 $HCHDT,178.6,T*21
20231006 230415+01:00 $IIMDA,30.1,I,1.018,B,21.5,C,,C,66.1,,,C,,T,,M,,N,,M*27
20231006 230415+01:00 $WIMWV,127,R,3.6,N,A*3C
20231006 230415+01:00 $GPRMC,220412,A,4918.7227,N,12306.4157,W,0,336,061023,,,D,V*1F
20231006 230417+01:00 $HCHDT,178.6,T*21
20231006 230417+01:00 $IIMDA,30.1,I,1.018,B,21.5,C,,C,66.1,,,C,,T,,M,,N,,M*27
20231006 230417+01:00 $WIMWV,107.3,R,2.8,N,A*2C
20231006 230417+01:00 $GPRMC,220414,A,4918.7227,N,12306.4157,W,0,336,061023,,,D,V*19
20231006 230419+01:00 $HCHDT,178.6,T*21
20231006 230419+01:00 $IIMDA,30.1,I,1.018,B,21.5,C,,C,65.9,,,C,,T,,M,,N,,M*2C
20231006 230419+01:00 $WIMWV,99.49,R,2.29,N,A*17
20231006 230419+01:00 $GPRMC,220416,A,4918.7227,N,12306.4157,W,0,336,061023,,,D,V*1B
20231006 230421+01:00 $HCHDT,178.6,T*21
20231006 230421+01:00 $IIMDA,30.1,I,1.018,B,21.5,C,,C,65.9,,,C,,T,,M,,N,,M*2C
20231006 230421+01:00 $WIMWV,136.9,R,3.19,N,A*15
20231006 230421+01:00 $GPRMC,220418,A,4918.7227,N,12306.4157,W,0,336,061023,,,D,V*15
20231006 230423+01:00 $HCHDT,178.6,T*21
20231006 230423+01:00 $IIMDA,30.1,I,1.018,B,21.5,C,,C,65.9,,,C,,T,,M,,N,,M*2C
20231006 230423+01:00 $WIMWV,165.99,R,3.69,N,A*2D
20231006 230423+01:00 $GPRMC,220420,A,4918.7227,N,12306.4156,W,0,336,061023,,,D,V*1F
20231006 230425+01:00 $HCHDT,178.6,T*21
20231006 230425+01:00 $IIMDA,30.1,I,1.018,B,21.5,C,,C,65.9,,,C,,T,,M,,N,,M*2C
20231006 230425+01:00 $WIMWV,176.79,R,2.2,N,A*1D
20231006 230425+01:00 $GPRMC,220422,A,4918.7227,N,12306.4156,W,0,336,061023,,,D,V*1D
20231006 230427+01:00 $HCHDT,178.6,T*21
20231006 230427+01:00 $IIMDA,30.1,I,1.018,B,21.5,C,,C,65.8,,,C,,T,,M,,N,,M*2D
20231006 230427+01:00 $WIMWV,147.19,R,1.79,N,A*26
20231006 230427+01:00 $GPRMC,220424,A,4918.7226,N,12306.4156,W,0,336,061023,,,D,V*1A
20231006 230429+01:00 $HCHDT,178.6,T*21
20231006 230429+01:00 $IIMDA,30.1,I,1.018,B,21.5,C,,C,65.7,,,C,,T,,M,,N,,M*22
20231006 230429+01:00 $WIMWV,77.8,R,1.19,N,A*22
20231006 230429+01:00 $GPRMC,220426,A,4918.7227,N,12306.4157,W,0,336,061023,,,D,V*18
20231006 230431+01:00 $HCHDT,178.6,T*21
20231006 230431+01:00 $IIMDA,30.1,I,1.018,B,21.5,C,,C,65.8,,,C,,T,,M,,N,,M*2D
20231006 230431+01:00 $WIMWV,101.29,R,2.68,N,A*24
20231006 230431+01:00 $GPRMC,220428,A,4918.7227,N,12306.4157,W,0,336,061023,,,D,V*16
20231006 230433+01:00 $HCHDT,178.7,T*20
20231006 230433+01:00 $IIMDA,30.1,I,1.018,B,21.5,C,,C,65.8,,,C,,T,,M,,N,,M*2D
20231006 230433+01:00 $WIMWV,122.4,R,2.49,N,A*19
20231006 230433+01:00 $GPRMC,220430,A,4918.7227,N,12306.4157,W,0,336,061023,,,D,V*1F
20231006 230435+01:00 $HCHDT,178.7,T*20
20231006 230435+01:00 $IIMDA,30.1,I,1.018,B,21.5,C,,C,65.8,,,C,,T,,M,,N,,M*2D
20231006 230435+01:00 $WIMWV,119.99,R,2.9,N,A*11
20231006 230435+01:00 $GPRMC,220432,A,4918.7226,N,12306.4156,W,0,336,061023,,,D,V*1D
20231006 230437+01:00 $HCHDT,178.7,T*20
20231006 230437+01:00 $IIMDA,30.1,I,1.018,B,21.5,C,,C,65.8,,,C,,T,,M,,N,,M*2D
20231006 230437+01:00 $WIMWV,115.9,R,2.2,N,A*2F
20231006 230437+01:00 $GPRMC,220434,A,4918.7226,N,12306.4157,W,0,336,061023,,,D,V*1A
20231006 230439+01:00 $HCHDT,178.7,T*20
20231006 230439+01:00 $IIMDA,30.1,I,1.018,B,21.4,C,,C,65.7,,,C,,T,,M,,N,,M*23
20231006 230439+01:00 $WIMWV,117.19,R,3.6,N,A*19
20231006 230439+01:00 $GPRMC,220436,A,4918.7226,N,12306.4156,W,0,336,061023,,,D,V*19
20231006 230441+01:00 $HCHDT,178.7,T*20
20231006 230441+01:00 $IIMDA,30.1,I,1.018,B,21.4,C,,C,65.7,,,C,,T,,M,,N,,M*23
20231006 230441+01:00 $WIMWV,98.1,R,2.49,N,A*2C
20231006 230441+01:00 $GPRMC,220438,A,4918.7227,N,12306.4157,W,0,336,061023,,,D,V*17
20231006 230443+01:00 $HCHDT,178.8,T*2F
20231006 230443+01:00 $IIMDA,30.1,I,1.018,B,21.4,C,,C,65.7,,,C,,T,,M,,N,,M*23
20231006 230443+01:00 $WIMWV,116,R,2.29,N,A*02
20231006 230443+01:00 $GPRMC,220440,A,4918.7227,N,12306.4157,W,0,336,061023,,,D,V*18
20231006 230445+01:00 $HCHDT,178.8,T*2F
20231006 230445+01:00 $IIMDA,30.1,I,1.018,B,21.4,C,,C,65.7,,,C,,T,,M,,N,,M*23
20231006 230445+01:00 $WIMWV,118.2,R,3.98,N,A*1B
20231006 230445+01:00 $GPRMC,220442,A,4918.7227,N,12306.4157,W,0,336,061023,,,D,V*1A
20231006 230447+01:00 $HCHDT,178.8,T*2F
20231006 230447+01:00 $IIMDA,30.1,I,1.018,B,21.4,C,,C,65.7,,,C,,T,,M,,N,,M*23
20231006 230447+01:00 $WIMWV,123.79,R,3.29,N,A*25
20231006 230447+01:00 $GPRMC,220444,A,4918.7227,N,12306.4157,W,0,336,061023,,,D,V*1C
20231006 230449+01:00 $HCHDT,178.9,T*2E
20231006 230449+01:00 $IIMDA,30.1,I,1.018,B,21.4,C,,C,65.7,,,C,,T,,M,,N,,M*23
20231006 230449+01:00 $WIMWV,117.7,R,3.29,N,A*1B
20231006 230449+01:00 $GPRMC,220446,A,4918.7227,N,12306.4157,W,0,336,061023,,,D,V*1E
20231006 230451+01:00 $HCHDT,178.9,T*2E
20231006 230451+01:00 $IIMDA,30.1,I,1.018,B,21.4,C,,C,65.6,,,C,,T,,M,,N,,M*22
20231006 230451+01:00 $WIMWV,75.69,R,1.89,N,A*1E
20231006 230451+01:00 $GPRMC,220448,A,4918.7227,N,12306.4157,W,0,336,061023,,,D,V*10
20231006 230453+01:00 $HCHDT,178.9,T*2E
20231006 230453+01:00 $IIMDA,30.1,I,1.018,B,21.4,C,,C,65.6,,,C,,T,,M,,N,,M*22
20231006 230453+01:00 $WIMWV,72.7,R,1.5,N,A*15
20231006 230453+01:00 $GPRMC,220450,A,4918.7228,N,12306.4158,W,0,336,061023,,,D,V*19
20231006 230455+01:00 $HCHDT,179,T*38
20231006 230455+01:00 $IIMDA,30.1,I,1.018,B,21.4,C,,C,65.7,,,C,,T,,M,,N,,M*23
20231006 230455+01:00 $WIMWV,53.19,R,1.89,N,A*1D
20231006 230455+01:00 $GPRMC,220452,A,4918.7228,N,12306.4159,W,0,336,061023,,,D,V*1A
20231006 230457+01:00 $HCHDT,179,T*38
20231006 230457+01:00 $IIMDA,30.1,I,1.018,B,21.4,C,,C,65.8,,,C,,T,,M,,N,,M*2C
20231006 230457+01:00 $WIMWV,77.69,R,1.19,N,A*15
20231006 230457+01:00 $GPRMC,220454,A,4918.7228,N,12306.4159,W,0,336,061023,,,D,V*1C
20231006 230459+01:00 $HCHDT,179,T*38
20231006 230459+01:00 $IIMDA,30.1,I,1.018,B,21.4,C,,C,65.9,,,C,,T,,M,,N,,M*2D
20231006 230459+01:00 $WIMWV,114.09,R,3.09,N,A*24
20231006 230459+01:00 $GPRMC,220456,A,4918.7228,N,12306.4158,W,0,336,061023,,,D,V*1F
20231006 230501+01:00 $HCHDT,179,T*38
20231006 230501+01:00 $IIMDA,30.1,I,1.018,B,21.4,C,,C,66,,,C,,T,,M,,N,,M*39
20231006 230501+01:00 $WIMWV,101.4,R,3.79,N,A*1A
20231006 230501+01:00 $GPRMC,220458,A,4918.7228,N,12306.4158,W,0,336,061023,,,D,V*11
20231006 230503+01:00 $HCHDT,179,T*38
20231006 230503+01:00 $IIMDA,30.1,I,1.018,B,21.4,C,,C,66,,,C,,T,,M,,N,,M*39
20231006 230503+01:00 $WIMWV,112.9,R,2.39,N,A*10
20231006 230503+01:00 $GPRMC,220500,A,4918.7228,N,12306.4159,W,0,336,061023,,,D,V*1C
20231006 230505+01:00 $HCHDT,179,T*38
20231006 230505+01:00 $IIMDA,30.1,I,1.018,B,21.4,C,,C,65.9,,,C,,T,,M,,N,,M*2D
20231006 230505+01:00 $WIMWV,85.9,R,3.09,N,A*2D
20231006 230505+01:00 $GPRMC,220502,A,4918.7230,N,12306.4160,W,0,336,061023,,,D,V*1D
20231006 230507+01:00 $HCHDT,179.1,T*27
20231006 230507+01:00 $IIMDA,30.1,I,1.018,B,21.3,C,,C,66,,,C,,T,,M,,N,,M*3E
20231006 230507+01:00 $WIMWV,107.8,R,0.89,N,A*1C
20231006 230507+01:00 $GPRMC,220504,A,4918.7230,N,12306.4159,W,0,336,061023,,,D,V*11
20231006 230509+01:00 $HCHDT,179.1,T*27
20231006 230509+01:00 $IIMDA,30.1,I,1.018,B,21.3,C,,C,65.9,,,C,,T,,M,,N,,M*2A
20231006 230509+01:00 $WIMWV,27.2,R,1.19,N,A*2D
20231006 230509+01:00 $GPRMC,220506,A,4918.7230,N,12306.4160,W,0,336,061023,,,D,V*19
20231006 230511+01:00 $HCHDT,179.1,T*27
20231006 230511+01:00 $IIMDA,30.1,I,1.018,B,21.3,C,,C,65.9,,,C,,T,,M,,N,,M*2A
20231006 230511+01:00 $WIMWV,91.7,R,2.39,N,A*24
20231006 230511+01:00 $GPRMC,220508,A,4918.7230,N,12306.4158,W,0,336,061023,,,D,V*1C
20231006 230513+01:00 $HCHDT,179.1,T*27
20231006 230513+01:00 $IIMDA,30.1,I,1.018,B,21.3,C,,C,66,,,C,,T,,M,,N,,M*3E
20231006 230513+01:00 $WIMWV,91.7,R,1.5,N,A*18
20231006 230513+01:00 $GPRMC,220510,A,4918.7230,N,12306.4159,W,0,336,061023,,,D,V*14
20231006 230515+01:00 $HCHDT,179.1,T*27
20231006 230515+01:00 $IIMDA,30.1,I,1.018,B,21.3,C,,C,66,,,C,,T,,M,,N,,M*3E
20231006 230515+01:00 $WIMWV,71.2,R,1.5,N,A*13
20231006 230515+01:00 $GPRMC,220512,A,4918.7230,N,12306.4159,W,0,336,061023,,,D,V*16
20231006 230517+01:00 $HCHDT,179.1,T*27
20231006 230517+01:00 $IIMDA,30.1,I,1.018,B,21.3,C,,C,66,,,C,,T,,M,,N,,M*3E
20231006 230517+01:00 $WIMWV,80.49,R,2.59,N,A*18
20231006 230517+01:00 $GPRMC,220514,A,4918.7231,N,12306.4159,W,0,336,061023,,,D,V*11
20231006 230519+01:00 $HCHDT,179.1,T*27
20231006 230519+01:00 $IIMDA,30.1,I,1.018,B,21.3,C,,C,66,,,C,,T,,M,,N,,M*3E
20231006 230519+01:00 $WIMWV,46.7,R,2.59,N,A*28
20231006 230519+01:00 $GPRMC,220516,A,4918.7232,N,12306.4159,W,0,336,061023,,,D,V*10
20231006 230521+01:00 $HCHDT,179,T*38
20231006 230521+01:00 $IIMDA,30.1,I,1.018,B,21.3,C,,C,66.1,,,C,,T,,M,,N,,M*21
20231006 230521+01:00 $WIMWV,83.59,R,1.59,N,A*19
20231006 230521+01:00 $GPRMC,220518,A,4918.7232,N,12306.4159,W,0,336,061023,,,D,V*1E
20231006 230523+01:00 $HCHDT,179,T*38
20231006 230523+01:00 $IIMDA,30.1,I,1.018,B,21.3,C,,C,66.1,,,C,,T,,M,,N,,M*21
20231006 230523+01:00 $WIMWV,58.89,R,1.79,N,A*10
20231006 230523+01:00 $GPRMC,220520,A,4918.7231,N,12306.4158,W,0,336,061023,,,D,V*17
20231006 230525+01:00 $HCHDT,178.9,T*2E
20231006 230525+01:00 $IIMDA,30.1,I,1.018,B,21.3,C,,C,66.1,,,C,,T,,M,,N,,M*21
20231006 230525+01:00 $WIMWV,82.7,R,1.5,N,A*1A
20231006 230525+01:00 $GPRMC,220522,A,4918.7232,N,12306.4159,W,0,336,061023,,,D,V*17
20231006 230527+01:00 $HCHDT,178.9,T*2E
20231006 230527+01:00 $IIMDA,30.1,I,1.018,B,21.3,C,,C,66.2,,,C,,T,,M,,N,,M*22
20231006 230527+01:00 $WIMWV,120.49,R,1.09,N,A*25
20231006 230527+01:00 $GPRMC,220524,A,4918.7232,N,12306.4159,W,0,336,061023,,,D,V*11
20231006 230529+01:00 $HCHDT,178.8,T*2F
20231006 230529+01:00 $IIMDA,30.1,I,1.018,B,21.3,C,,C,66.2,,,C,,T,,M,,N,,M*22
20231006 230529+01:00 $WIMWV,110.2,R,1.28,N,A*1A
20231006 230529+01:00 $GPRMC,220526,A,4918.7232,N,12306.4158,W,0,336,061023,,,D,V*12
20231006 230531+01:00 $HCHDT,178.8,T*2F
20231006 230531+01:00 $IIMDA,30.1,I,1.018,B,21.3,C,,C,66.2,,,C,,T,,M,,N,,M*22
20231006 230531+01:00 $WIMWV,0.19,R,0.19,N,A*23
20231006 230531+01:00 $GPRMC,220528,A,4918.7232,N,12306.4158,W,0,336,061023,,,D,V*1C
20231006 230533+01:00 $HCHDT,178.8,T*2F
20231006 230533+01:00 $IIMDA,30.1,I,1.018,B,21.4,C,,C,66.1,,,C,,T,,M,,N,,M*26
20231006 230533+01:00 $WIMWV,48.9,R,0.29,N,A*2D
20231006 230533+01:00 $GPRMC,220530,A,4918.7231,N,12306.4158,W,0,336,061023,,,D,V*16
20231006 230535+01:00 $HCHDT,178.8,T*2F
20231006 230535+01:00 $IIMDA,30.1,I,1.018,B,21.4,C,,C,66.1,,,C,,T,,M,,N,,M*26
20231006 230535+01:00 $WIMWV,180.6,R,0.58,N,A*11
20231006 230535+01:00 $GPRMC,220532,A,4918.7231,N,12306.4158,W,0,336,061023,,,D,V*14
20231006 230537+01:00 $HCHDT,178.7,T*20
20231006 230537+01:00 $IIMDA,30.1,I,1.018,B,21.4,C,,C,66.2,,,C,,T,,M,,N,,M*25
20231006 230537+01:00 $WIMWV,110.79,R,0.58,N,A*20
20231006 230537+01:00 $GPRMC,220534,A,4918.7230,N,12306.4158,W,0,336,061023,,,D,V*13
20231006 230539+01:00 $HCHDT,178.7,T*20
20231006 230539+01:00 $IIMDA,30.1,I,1.018,B,21.4,C,,C,66.3,,,C,,T,,M,,N,,M*24
20231006 230539+01:00 $WIMWV,54,R,0.39,N,A*36
20231006 230539+01:00 $GPRMC,220536,A,4918.7230,N,12306.4158,W,0,336,061023,,,D,V*11
20231006 230541+01:00 $HCHDT,178.6,T*21
20231006 230541+01:00 $IIMDA,30.1,I,1.018,B,21.4,C,,C,66.3,,,C,,T,,M,,N,,M*24
20231006 230541+01:00 $WIMWV,155.39,R,0.8,N,A*10
20231006 230541+01:00 $GPRMC,220538,A,4918.7231,N,12306.4159,W,0,336,061023,,,D,V*1F
20231006 230543+01:00 $HCHDT,178.6,T*21
20231006 230543+01:00 $IIMDA,30.1,I,1.018,B,21.4,C,,C,66.4,,,C,,T,,M,,N,,M*23
20231006 230543+01:00 $WIMWV,119.99,R,2.29,N,A*23
20231006 230543+01:00 $GPRMC,220540,A,4918.7231,N,12306.4159,W,0,336,061023,,,D,V*10
20231006 230545+01:00 $HCHDT,178.6,T*21
20231006 230545+01:00 $IIMDA,30.1,I,1.018,B,21.4,C,,C,66.4,,,C,,T,,M,,N,,M*23
20231006 230545+01:00 $WIMWV,123.29,R,3.38,N,A*20
20231006 230545+01:00 $GPRMC,220542,A,4918.7231,N,12306.4159,W,0,336,061023,,,D,V*12
20231006 230547+01:00 $HCHDT,178.6,T*21
20231006 230547+01:00 $IIMDA,30.1,I,1.018,B,21.4,C,,C,66.4,,,C,,T,,M,,N,,M*23
20231006 230547+01:00 $WIMWV,180.6,R,1.79,N,A*13
20231006 230547+01:00 $GPRMC,220544,A,4918.7230,N,12306.4159,W,0,336,061023,,,D,V*15
20231006 230549+01:00 $HCHDT,178.6,T*21
20231006 230549+01:00 $IIMDA,30.1,I,1.018,B,21.4,C,,C,66.3,,,C,,T,,M,,N,,M*24
20231006 230549+01:00 $WIMWV,117.5,R,1.79,N,A*1E
20231006 230549+01:00 $GPRMC,220546,A,4918.7229,N,12306.4159,W,0,336,061023,,,D,V*1F
20231006 230551+01:00 $HCHDT,178.5,T*22
20231006 230551+01:00 $IIMDA,30.1,I,1.018,B,21.4,C,,C,66.3,,,C,,T,,M,,N,,M*24
20231006 230551+01:00 $WIMWV,140.29,R,3.69,N,A*21
20231006 230551+01:00 $GPRMC,220548,A,4918.7229,N,12306.4159,W,0,336,061023,,,D,V*11
20231006 230553+01:00 $HCHDT,178.5,T*22
20231006 230553+01:00 $IIMDA,30.1,I,1.018,B,21.4,C,,C,66.3,,,C,,T,,M,,N,,M*24
20231006 230553+01:00 $WIMWV,133.89,R,2.68,N,A*2F
20231006 230553+01:00 $GPRMC,220550,A,4918.7231,N,12306.4159,W,0,336,061023,,,D,V*11
20231006 230555+01:00 $HCHDT,178.5,T*22
20231006 230555+01:00 $IIMDA,30.1,I,1.018,B,21.4,C,,C,66.2,,,C,,T,,M,,N,,M*25
20231006 230555+01:00 $WIMWV,91.7,R,1.89,N,A*2C
20231006 230555+01:00 $GPRMC,220552,A,4918.7231,N,12306.4158,W,0,336,061023,,,D,V*12
20231006 230557+01:00 $HCHDT,178.5,T*22
20231006 230557+01:00 $IIMDA,30.1,I,1.018,B,21.4,C,,C,66.2,,,C,,T,,M,,N,,M*25
20231006 230557+01:00 $WIMWV,138.7,R,1.4,N,A*2B
20231006 230557+01:00 $GPRMC,220554,A,4918.7231,N,12306.4159,W,0,336,061023,,,D,V*15
20231006 230559+01:00 $HCHDT,178.5,T*22
20231006 230559+01:00 $IIMDA,30.1,I,1.018,B,21.4,C,,C,66.2,,,C,,T,,M,,N,,M*25
20231006 230559+01:00 $WIMWV,117.5,R,2.39,N,A*19
20231006 230559+01:00 $GPRMC,220556,A,4918.7230,N,12306.4159,W,0,336,061023,,,D,V*16
20231006 230601+01:00 $HCHDT,178.5,T*22
20231006 230601+01:00 $IIMDA,30.1,I,1.018,B,21.4,C,,C,66.2,,,C,,T,,M,,N,,M*25
20231006 230601+01:00 $WIMWV,113.19,R,1.4,N,A*1D
20231006 230601+01:00 $GPRMC,220558,A,4918.7230,N,12306.4159,W,0,336,061023,,,D,V*18
20231006 230603+01:00 $HCHDT,178.4,T*23
20231006 230603+01:00 $IIMDA,30.1,I,1.018,B,21.4,C,,C,66.2,,,C,,T,,M,,N,,M*25
20231006 230603+01:00 $WIMWV,101.29,R,3.19,N,A*23
20231006 230603+01:00 $GPRMC,220600,A,4918.7230,N,12306.4159,W,0,336,061023,,,D,V*16
20231006 230605+01:00 $HCHDT,178.4,T*23
20231006 230605+01:00 $IIMDA,30.1,I,1.018,B,21.4,C,,C,66.3,,,C,,T,,M,,N,,M*24
20231006 230605+01:00 $WIMWV,126.69,R,3.38,N,A*21
20231006 230605+01:00 $GPRMC,220602,A,4918.7235,N,12306.4161,W,0,336,061023,,,D,V*1A
20231006 230607+01:00 $HCHDT,178.5,T*22
20231006 230607+01:00 $IIMDA,30.1,I,1.018,B,21.4,C,,C,66.2,,,C,,T,,M,,N,,M*25
20231006 230607+01:00 $WIMWV,78.09,R,2.49,N,A*1A
20231006 230607+01:00 $GPRMC,220604,A,4918.7234,N,12306.4160,W,0,336,061023,,,D,V*1C
20231006 230609+01:00 $HCHDT,178.5,T*22
20231006 230609+01:00 $IIMDA,30.1,I,1.018,B,21.4,C,,C,66.3,,,C,,T,,M,,N,,M*24
20231006 230609+01:00 $WIMWV,43.8,R,2.1,N,A*1F
20231006 230609+01:00 $GPRMC,220606,A,4918.7235,N,12306.4160,W,0,336,061023,,,D,V*1F
20231006 230611+01:00 $HCHDT,178.4,T*23
20231006 230611+01:00 $IIMDA,30.1,I,1.018,B,21.4,C,,C,66.4,,,C,,T,,M,,N,,M*23
20231006 230611+01:00 $WIMWV,0.19,R,0.58,N,A*26
20231006 230611+01:00 $GPRMC,220608,A,4918.7234,N,12306.4160,W,0,336,061023,,,D,V*10
20231006 230613+01:00 $HCHDT,178.5,T*22
20231006 230613+01:00 $IIMDA,30.1,I,1.018,B,21.4,C,,C,66.4,,,C,,T,,M,,N,,M*23
20231006 230613+01:00 $WIMWV,123.5,R,0.49,N,A*1B
20231006 230613+01:00 $GPRMC,220610,A,4918.7234,N,12306.4160,W,0,336,061023,,,D,V*19
20231006 230615+01:00 $HCHDT,178.4,T*23
20231006 230615+01:00 $IIMDA,30.1,I,1.018,B,21.4,C,,C,66.5,,,C,,T,,M,,N,,M*22
20231006 230615+01:00 $WIMWV,242.99,R,0.49,N,A*2A
20231006 230615+01:00 $GPRMC,220612,A,4918.7234,N,12306.4160,W,0,336,061023,,,D,V*1B
20231006 230617+01:00 $HCHDT,178.4,T*23
20231006 230617+01:00 $IIMDA,30.1,I,1.018,B,21.4,C,,C,66.5,,,C,,T,,M,,N,,M*22
20231006 230617+01:00 $WIMWV,0.19,R,0,N,A*05
20231006 230617+01:00 $GPRMC,220614,A,4918.7235,N,12306.4160,W,0,336,061023,,,D,V*1C
20231006 230619+01:00 $HCHDT,178.4,T*23
20231006 230619+01:00 $IIMDA,30.1,I,1.018,B,21.4,C,,C,66.7,,,C,,T,,M,,N,,M*20
20231006 230619+01:00 $WIMWV,91.7,R,0.49,N,A*21
20231006 230619+01:00 $GPRMC,220616,A,4918.7235,N,12306.4160,W,0,336,061023,,,D,V*1E
20231006 230621+01:00 $HCHDT,178.4,T*23
20231006 230621+01:00 $IIMDA,30.1,I,1.018,B,21.4,C,,C,66.7,,,C,,T,,M,,N,,M*20
20231006 230621+01:00 $WIMWV,120.6,R,2.8,N,A*2C
20231006 230621+01:00 $GPRMC,220618,A,4918.7236,N,12306.4160,W,0,336,061023,,,D,V*13
20231006 230623+01:00 $HCHDT,178.3,T*24
20231006 230623+01:00 $IIMDA,30.1,I,1.018,B,21.4,C,,C,66.7,,,C,,T,,M,,N,,M*20
20231006 230623+01:00 $WIMWV,113.59,R,2.49,N,A*23
20231006 230623+01:00 $GPRMC,220620,A,4918.7234,N,12306.4160,W,0,336,061023,,,D,V*1A
20231006 230625+01:00 $HCHDT,178.3,T*24
20231006 230625+01:00 $IIMDA,30.1,I,1.018,B,21.4,C,,C,66.7,,,C,,T,,M,,N,,M*20
20231006 230625+01:00 $WIMWV,100,R,2.8,N,A*36
20231006 230625+01:00 $GPRMC,220622,A,4918.7234,N,12306.4160,W,0,336,061023,,,D,V*18
20231006 230627+01:00 $HCHDT,178.3,T*24
20231006 230627+01:00 $IIMDA,30.1,I,1.018,B,21.4,C,,C,66.6,,,C,,T,,M,,N,,M*21
20231006 230627+01:00 $WIMWV,118.6,R,2.29,N,A*14
20231006 230627+01:00 $GPRMC,220624,A,4918.7234,N,12306.4160,W,0,336,061023,,,D,V*1E
20231006 230629+01:00 $HCHDT,178.2,T*25
20231006 230629+01:00 $IIMDA,30.1,I,1.018,B,21.4,C,,C,66.5,,,C,,T,,M,,N,,M*22
20231006 230629+01:00 $WIMWV,69.4,R,2.1,N,A*1B
20231006 230629+01:00 $GPRMC,220626,A,4918.7235,N,12306.4159,W,0,336,061023,,,D,V*17
20231006 230631+01:00 $HCHDT,178.2,T*25
20231006 230631+01:00 $IIMDA,30.1,I,1.018,B,21.4,C,,C,66.5,,,C,,T,,M,,N,,M*22
20231006 230631+01:00 $WIMWV,149.5,R,2.1,N,A*29
20231006 230631+01:00 $GPRMC,220628,A,4918.7235,N,12306.4159,W,0,336,061023,,,D,V*19
20231006 230633+01:00 $HCHDT,178.1,T*26
20231006 230633+01:00 $IIMDA,30.1,I,1.018,B,21.4,C,,C,66.4,,,C,,T,,M,,N,,M*23
20231006 230633+01:00 $WIMWV,150.2,R,1.89,N,A*15
20231006 230633+01:00 $GPRMC,220630,A,4918.7235,N,12306.4159,W,0,336,061023,,,D,V*10
20231006 230635+01:00 $HCHDT,178.1,T*26
20231006 230635+01:00 $IIMDA,30.1,I,1.018,B,21.4,C,,C,66.4,,,C,,T,,M,,N,,M*23
20231006 230635+01:00 $WIMWV,145.1,R,0.89,N,A*13
20231006 230635+01:00 $GPRMC,220632,A,4918.7234,N,12306.4159,W,0,336,061023,,,D,V*13
20231006 230637+01:00 $HCHDT,178,T*39
20231006 230637+01:00 $IIMDA,30.1,I,1.018,B,21.4,C,,C,66.4,,,C,,T,,M,,N,,M*23
20231006 230637+01:00 $WIMWV,117,R,1.69,N,A*04
20231006 230637+01:00 $GPRMC,220634,A,4918.7232,N,12306.4160,W,0,336,061023,,,D,V*19
20231006 230639+01:00 $HCHDT,178.1,T*26
20231006 230639+01:00 $IIMDA,30.1,I,1.018,B,21.4,C,,C,66.5,,,C,,T,,M,,N,,M*22
20231006 230639+01:00 $WIMWV,80.6,R,2.1,N,A*1E
20231006 230639+01:00 $GPRMC,220636,A,4918.7233,N,12306.4160,W,0,336,061023,,,D,V*1A
20231006 230641+01:00 $HCHDT,178.1,T*26
20231006 230641+01:00 $IIMDA,30.1,I,1.018,B,21.4,C,,C,66.5,,,C,,T,,M,,N,,M*22
20231006 230641+01:00 $WIMWV,148.4,R,0.8,N,A*22
20231006 230641+01:00 $GPRMC,220638,A,4918.7233,N,12306.4160,W,0,336,061023,,,D,V*14
20231006 230643+01:00 $HCHDT,178.1,T*26
20231006 230643+01:00 $IIMDA,30.1,I,1.018,B,21.4,C,,C,66.5,,,C,,T,,M,,N,,M*22
20231006 230643+01:00 $WIMWV,96.8,R,1.19,N,A*2D
20231006 230643+01:00 $GPRMC,220640,A,4918.7234,N,12306.4160,W,0,336,061023,,,D,V*1C
20231006 230645+01:00 $HCHDT,178.1,T*26
20231006 230645+01:00 $IIMDA,30.1,I,1.018,B,21.4,C,,C,66.6,,,C,,T,,M,,N,,M*21
20231006 230645+01:00 $WIMWV,115.39,R,0.99,N,A*2C
20231006 230645+01:00 $GPRMC,220642,A,4918.7234,N,12306.4160,W,0,336,061023,,,D,V*1E
20231006 230647+01:00 $HCHDT,178,T*39
20231006 230647+01:00 $IIMDA,30.1,I,1.018,B,21.5,C,,C,66.6,,,C,,T,,M,,N,,M*20
20231006 230647+01:00 $WIMWV,91.7,R,0.99,N,A*2C
20231006 230647+01:00 $GPRMC,220644,A,4918.7233,N,12306.4160,W,0,336,061023,,,D,V*1F
20231006 230649+01:00 $HCHDT,178.1,T*26
20231006 230649+01:00 $IIMDA,30.1,I,1.018,B,21.5,C,,C,66.6,,,C,,T,,M,,N,,M*20
20231006 230649+01:00 $WIMWV,55,R,0.89,N,A*3C
20231006 230649+01:00 $GPRMC,220646,A,4918.7232,N,12306.4160,W,0,336,061023,,,D,V*1C
20231006 230651+01:00 $HCHDT,178,T*39
20231006 230651+01:00 $IIMDA,30.1,I,1.018,B,21.5,C,,C,66.7,,,C,,T,,M,,N,,M*21
20231006 230651+01:00 $WIMWV,211.19,R,0.58,N,A*24
20231006 230651+01:00 $GPRMC,220648,A,4918.7232,N,12306.4160,W,0,336,061023,,,D,V*12
20231006 230653+01:00 $HCHDT,178,T*39
20231006 230653+01:00 $IIMDA,30.1,I,1.018,B,21.5,C,,C,66.7,,,C,,T,,M,,N,,M*21
20231006 230653+01:00 $WIMWV,269.99,R,0.49,N,A*23
20231006 230653+01:00 $GPRMC,220650,A,4918.7232,N,12306.4160,W,0,336,061023,,,D,V*1B
20231006 230655+01:00 $HCHDT,178,T*39
20231006 230655+01:00 $IIMDA,30.1,I,1.018,B,21.5,C,,C,66.8,,,C,,T,,M,,N,,M*2E
20231006 230655+01:00 $WIMWV,304.89,R,0.39,N,A*2F
20231006 230655+01:00 $GPRMC,220652,A,4918.7233,N,12306.4159,W,0,336,061023,,,D,V*12
20231006 230657+01:00 $HCHDT,177.9,T*21
20231006 230657+01:00 $IIMDA,30.1,I,1.018,B,21.5,C,,C,66.8,,,C,,T,,M,,N,,M*2E
20231006 230657+01:00 $WIMWV,61.5,R,0.39,N,A*2B
20231006 230657+01:00 $GPRMC,220654,A,4918.7233,N,12306.4159,W,0,336,061023,,,D,V*14
20231006 230659+01:00 $HCHDT,178,T*39
20231006 230659+01:00 $IIMDA,30.1,I,1.018,B,21.5,C,,C,66.8,,,C,,T,,M,,N,,M*2E
20231006 230659+01:00 $WIMWV,27.99,R,0.99,N,A*16
20231006 230659+01:00 $GPRMC,220656,A,4918.7232,N,12306.4159,W,0,336,061023,,,D,V*17
20231006 230701+01:00 $HCHDT,177.9,T*21
20231006 230701+01:00 $IIMDA,30.1,I,1.018,B,21.5,C,,C,66.9,,,C,,T,,M,,N,,M*2F
20231006 230701+01:00 $WIMWV,55.39,R,0.89,N,A*18
20231006 230701+01:00 $GPRMC,220658,A,4918.7232,N,12306.4159,W,0,336,061023,,,D,V*19
20231006 230703+01:00 $HCHDT,178,T*39
20231006 230703+01:00 $IIMDA,30.1,I,1.018,B,21.6,C,,C,66.9,,,C,,T,,M,,N,,M*2C
20231006 230703+01:00 $WIMWV,123.5,R,1.59,N,A*1B
20231006 230703+01:00 $GPRMC,220700,A,4918.7232,N,12306.4159,W,0,336,061023,,,D,V*15
20231006 230705+01:00 $HCHDT,178,T*39
20231006 230705+01:00 $IIMDA,30.1,I,1.018,B,21.6,C,,C,66.9,,,C,,T,,M,,N,,M*2C
20231006 230705+01:00 $WIMWV,121.09,R,1.4,N,A*1D
20231006 230705+01:00 $GPRMC,220702,A,4918.7232,N,12306.4159,W,0,336,061023,,,D,V*17
20231006 230707+01:00 $HCHDT,178,T*39
20231006 230707+01:00 $IIMDA,30.1,I,1.018,B,21.6,C,,C,66.9,,,C,,T,,M,,N,,M*2C
20231006 230707+01:00 $WIMWV,69.1,R,2.9,N,A*16
20231006 230707+01:00 $GPRMC,220704,A,4918.7232,N,12306.4159,W,0,336,061023,,,D,V*11
20231006 230709+01:00 $HCHDT,178,T*39
20231006 230709+01:00 $IIMDA,30.1,I,1.018,B,21.6,C,,C,66.9,,,C,,T,,M,,N,,M*2C
20231006 230709+01:00 $WIMWV,62.7,R,3.79,N,A*2D
20231006 230709+01:00 $GPRMC,220706,A,4918.7232,N,12306.4159,W,0,336,061023,,,D,V*13
20231006 230711+01:00 $HCHDT,178,T*39
20231006 230711+01:00 $IIMDA,30.1,I,1.018,B,21.6,C,,C,66.9,,,C,,T,,M,,N,,M*2C
20231006 230711+01:00 $WIMWV,78.09,R,2.9,N,A*2E
20231006 230711+01:00 $GPRMC,220708,A,4918.7232,N,12306.4159,W,0,336,061023,,,D,V*1D
20231006 230713+01:00 $HCHDT,178,T*39
20231006 230713+01:00 $IIMDA,30.1,I,1.018,B,21.6,C,,C,66.7,,,C,,T,,M,,N,,M*22
20231006 230713+01:00 $WIMWV,63.5,R,0.58,N,A*2E
20231006 230713+01:00 $GPRMC,220710,A,4918.7231,N,12306.4159,W,0,336,061023,,,D,V*17
20231006 230715+01:00 $HCHDT,178,T*39
20231006 230715+01:00 $IIMDA,30.1,I,1.018,B,21.6,C,,C,66.7,,,C,,T,,M,,N,,M*22
20231006 230715+01:00 $WIMWV,77.1,R,0.8,N,A*1A
20231006 230715+01:00 $GPRMC,220712,A,4918.7231,N,12306.4159,W,0,336,061023,,,D,V*15
20231006 230717+01:00 $HCHDT,178,T*39
20231006 230717+01:00 $IIMDA,30.1,I,1.018,B,21.6,C,,C,66.7,,,C,,T,,M,,N,,M*22
20231006 230717+01:00 $WIMWV,334.69,R,0.8,N,A*10
20231006 230717+01:00 $GPRMC,220714,A,4918.7230,N,12306.4159,W,0,336,061023,,,D,V*12
20231006 230719+01:00 $HCHDT,178.1,T*26
20231006 230719+01:00 $IIMDA,30.1,I,1.018,B,21.6,C,,C,66.7,,,C,,T,,M,,N,,M*22
20231006 230719+01:00 $WIMWV,8.2,R,0.99,N,A*19
20231006 230719+01:00 $GPRMC,220716,A,4918.7230,N,12306.4159,W,0,336,061023,,,D,V*10
20231006 230721+01:00 $HCHDT,178.1,T*26
20231006 230721+01:00 $IIMDA,30.1,I,1.018,B,21.6,C,,C,66.7,,,C,,T,,M,,N,,M*22
20231006 230721+01:00 $WIMWV,55,R,2.29,N,A*34
20231006 230721+01:00 $GPRMC,220718,A,4918.7230,N,12306.4159,W,0,336,061023,,,D,V*1E
20231006 230723+01:00 $HCHDT,178.1,T*26
20231006 230723+01:00 $IIMDA,30.1,I,1.018,B,21.6,C,,C,66.7,,,C,,T,,M,,N,,M*22
20231006 230723+01:00 $WIMWV,28.89,R,1.4,N,A*2D
20231006 230723+01:00 $GPRMC,220720,A,4918.7221,N,12306.4159,W,0,336,061023,,,D,V*15
20231006 230725+01:00 $HCHDT,178.1,T*26
20231006 230725+01:00 $IIMDA,30.1,I,1.018,B,21.6,C,,C,66.8,,,C,,T,,M,,N,,M*2D
20231006 230725+01:00 $WIMWV,206,R,0.89,N,A*08
20231006 230725+01:00 $GPRMC,220722,A,4918.7220,N,12306.4159,W,0,336,061023,,,D,V*16
20231006 230727+01:00 $HCHDT,178.1,T*26
20231006 230727+01:00 $IIMDA,30.1,I,1.018,B,21.6,C,,C,66.7,,,C,,T,,M,,N,,M*22
20231006 230727+01:00 $WIMWV,180.6,R,0.19,N,A*14
20231006 230727+01:00 $GPRMC,220724,A,4918.7220,N,12306.4159,W,0,336,061023,,,D,V*10
20231006 230729+01:00 $HCHDT,178.1,T*26
20231006 230729+01:00 $IIMDA,30.1,I,1.018,B,21.6,C,,C,66.7,,,C,,T,,M,,N,,M*22
20231006 230729+01:00 $WIMWV,180.6,R,1.4,N,A*29
20231006 230729+01:00 $GPRMC,220726,A,4918.7220,N,12306.4159,W,0,336,061023,,,D,V*12
20231006 230731+01:00 $HCHDT,178.1,T*26
20231006 230731+01:00 $IIMDA,30.1,I,1.018,B,21.6,C,,C,66.8,,,C,,T,,M,,N,,M*2D
20231006 230731+01:00 $WIMWV,176.69,R,2.2,N,A*1C
20231006 230731+01:00 $GPRMC,220728,A,4918.7220,N,12306.4158,W,0,336,061023,,,D,V*1D
20231006 230733+01:00 $HCHDT,178.1,T*26
20231006 230733+01:00 $IIMDA,30.1,I,1.018,B,21.6,C,,C,66.7,,,C,,T,,M,,N,,M*22
20231006 230733+01:00 $WIMWV,142.2,R,2.2,N,A*26
20231006 230733+01:00 $GPRMC,220730,A,4918.7220,N,12306.4158,W,0,336,061023,,,D,V*14
20231006 230735+01:00 $HCHDT,178.1,T*26
20231006 230735+01:00 $IIMDA,30.1,I,1.018,B,21.6,C,,C,66.6,,,C,,T,,M,,N,,M*23
20231006 230735+01:00 $WIMWV,127.09,R,2.2,N,A*1E
20231006 230735+01:00 $GPRMC,220732,A,4918.7219,N,12306.4157,W,0,336,061023,,,D,V*13
20231006 230737+01:00 $HCHDT,178.2,T*25
20231006 230737+01:00 $IIMDA,30.1,I,1.018,B,21.7,C,,C,66.6,,,C,,T,,M,,N,,M*22
20231006 230737+01:00 $WIMWV,112.7,R,2.8,N,A*2C
20231006 230737+01:00 $GPRMC,220734,A,4918.7219,N,12306.4157,W,0,336,061023,,,D,V*15
20231006 230739+01:00 $HCHDT,178.2,T*25
20231006 230739+01:00 $IIMDA,30.1,I,1.018,B,21.7,C,,C,66.5,,,C,,T,,M,,N,,M*21
20231006 230739+01:00 $WIMWV,118.49,R,3.79,N,A*2B
20231006 230739+01:00 $GPRMC,220736,A,4918.7219,N,12306.4157,W,0,336,061023,,,D,V*17
20231006 230741+01:00 $HCHDT,178.3,T*24
20231006 230741+01:00 $IIMDA,30.1,I,1.018,B,21.7,C,,C,66.5,,,C,,T,,M,,N,,M*21
20231006 230741+01:00 $WIMWV,122.4,R,4.2,N,A*20
20231006 230741+01:00 $GPRMC,220738,A,4918.7219,N,12306.4157,W,0,336,061023,,,D,V*19
20231006 230743+01:00 $HCHDT,178.3,T*24
20231006 230743+01:00 $IIMDA,30.1,I,1.018,B,21.7,C,,C,66.4,,,C,,T,,M,,N,,M*20
20231006 230743+01:00 $WIMWV,99.2,R,1.69,N,A*2F
20231006 230743+01:00 $GPRMC,220740,A,4918.7219,N,12306.4156,W,0,336,061023,,,D,V*17
20231006 230745+01:00 $HCHDT,178.2,T*25
20231006 230745+01:00 $IIMDA,30.1,I,1.018,B,21.6,C,,C,66.4,,,C,,T,,M,,N,,M*21
20231006 230745+01:00 $WIMWV,100,R,1.09,N,A*04
20231006 230745+01:00 $GPRMC,220742,A,4918.7219,N,12306.4156,W,0,336,061023,,,D,V*15
20231006 230747+01:00 $HCHDT,178.2,T*25
20231006 230747+01:00 $IIMDA,30.1,I,1.018,B,21.6,C,,C,66.4,,,C,,T,,M,,N,,M*21
20231006 230747+01:00 $WIMWV,59.3,R,2.39,N,A*24
20231006 230747+01:00 $GPRMC,220744,A,4918.7219,N,12306.4156,W,0,336,061023,,,D,V*13
20231006 230749+01:00 $HCHDT,178.2,T*25
20231006 230749+01:00 $IIMDA,30.1,I,1.018,B,21.6,C,,C,66.5,,,C,,T,,M,,N,,M*20
20231006 230749+01:00 $WIMWV,82.2,R,3.5,N,A*1D
20231006 230749+01:00 $GPRMC,220746,A,4918.7218,N,12306.4156,W,0,336,061023,,,D,V*10
20231006 230751+01:00 $HCHDT,178.2,T*25
20231006 230751+01:00 $IIMDA,30.1,I,1.018,B,21.6,C,,C,66.6,,,C,,T,,M,,N,,M*23
20231006 230751+01:00 $WIMWV,109.6,R,0.7,N,A*2A
20231006 230751+01:00 $GPRMC,220748,A,4918.7218,N,12306.4155,W,0,336,061023,,,D,V*1D
20231006 230753+01:00 $HCHDT,178.2,T*25
20231006 230753+01:00 $IIMDA,30.1,I,1.018,B,21.6,C,,C,66.6,,,C,,T,,M,,N,,M*23
20231006 230753+01:00 $WIMWV,269.99,R,0.19,N,A*26
20231006 230753+01:00 $GPRMC,220750,A,4918.7218,N,12306.4155,W,0,336,061023,,,D,V*14
20231006 230755+01:00 $HCHDT,178.2,T*25
20231006 230755+01:00 $IIMDA,30.1,I,1.018,B,21.6,C,,C,66.6,,,C,,T,,M,,N,,M*23
20231006 230755+01:00 $WIMWV,140.79,R,1.09,N,A*20
20231006 230755+01:00 $GPRMC,220752,A,4918.7218,N,12306.4155,W,0,336,061023,,,D,V*16
20231006 230757+01:00 $HCHDT,178.2,T*25
20231006 230757+01:00 $IIMDA,30.1,I,1.018,B,21.6,C,,C,66.6,,,C,,T,,M,,N,,M*23
20231006 230757+01:00 $WIMWV,33.2,R,2.29,N,A*28
20231006 230757+01:00 $GPRMC,220754,A,4918.7218,N,12306.4155,W,0,336,061023,,,D,V*10
