20220704 110001+00:00 $IIMDA,29.9,I,1.011,B,12.6,C,,C,91.8,,,C,,T,,M,,N,,M*2C
20220704 110001+00:00 $HCHDT,127.3,T*2E
20220704 110001+00:00 $GPRMC,105956,A,4901.8096,N,12607.3500,W,9.51,131,040722,12.2,E,A,V*60
20220704 110001+00:00 $WIMWV,130.39,R,3.69,N,A*27
20220704 110003+00:00 $IIMDA,29.9,I,1.011,B,12.6,C,,C,91.8,,,C,,T,,M,,N,,M*2C
20220704 110003+00:00 $HCHDT,126.9,T*25
20220704 110003+00:00 $GPRMC,105958,A,4901.8096,N,12607.3500,W,9.51,131,040722,12.2,E,A,V*6E
20220704 110003+00:00 $WIMWV,130.7,R,4.08,N,A*1A
20220704 110005+00:00 $IIMDA,29.9,I,1.011,B,12.6,C,,C,91.7,,,C,,T,,M,,N,,M*23
20220704 110005+00:00 $HCHDT,127.2,T*2F
20220704 110005+00:00 $GPRMC,110000,A,4901.8000,N,12607.3296,W,9.51,131,040722,12.2,E,A,V*69
20220704 110005+00:00 $WIMWV,146.09,R,5,N,A*02
20220704 110007+00:00 $IIMDA,29.9,I,1.011,B,12.6,C,,C,91.7,,,C,,T,,M,,N,,M*23
20220704 110007+00:00 $HCHDT,127.3,T*2E
20220704 110007+00:00 $GPRMC,110002,A,4901.8000,N,12607.3296,W,9.51,130,040722,12.2,E,A,V*6A
20220704 110007+00:00 $WIMWV,160.79,R,3.69,N,A*26
20220704 110009+00:00 $IIMDA,29.9,I,1.011,B,12.6,C,,C,91.7,,,C,,T,,M,,N,,M*23
20220704 110009+00:00 $HCHDT,126.7,T*2B
20220704 110009+00:00 $GPRMC,110004,A,4901.8000,N,12607.3200,W,9.51,130,040722,12.2,E,A,V*63
20220704 110009+00:00 $WIMWV,154.49,R,2.99,N,A*2C
20220704 110011+00:00 $IIMDA,29.9,I,1.011,B,12.6,C,,C,91.7,,,C,,T,,M,,N,,M*23
20220704 110011+00:00 $HCHDT,126.6,T*2A
20220704 110011+00:00 $GPRMC,110006,A,4901.7898,N,12607.3098,W,9.51,130,040722,12.2,E,A,V*64
20220704 110011+00:00 $WIMWV,162.39,R,3.19,N,A*27
20220704 110013+00:00 $IIMDA,29.9,I,1.011,B,12.6,C,,C,91.7,,,C,,T,,M,,N,,M*23
20220704 110013+00:00 $HCHDT,126.6,T*2A
20220704 110013+00:00 $GPRMC,110008,A,4901.7898,N,12607.3098,W,9.51,130,040722,12.2,E,A,V*6A
20220704 110013+00:00 $WIMWV,174.29,R,2.8,N,A*10
20220704 110015+00:00 $IIMDA,29.9,I,1.011,B,12.6,C,,C,91.7,,,C,,T,,M,,N,,M*23
20220704 110015+00:00 $HCHDT,126.6,T*2A
20220704 110015+00:00 $GPRMC,110010,A,4901.7898,N,12607.3098,W,9.51,130,040722,12.2,E,A,V*63
20220704 110015+00:00 $WIMWV,155.59,R,2.2,N,A*1E
20220704 110017+00:00 $IIMDA,29.9,I,1.011,B,12.6,C,,C,91.7,,,C,,T,,M,,N,,M*23
20220704 110017+00:00 $HCHDT,126.7,T*2B
20220704 110017+00:00 $GPRMC,110012,A,4901.7796,N,12607.2996,W,9.51,130,040722,12.2,E,A,V*66
20220704 110017+00:00 $WIMWV,114.9,R,3.98,N,A*1C
20220704 110019+00:00 $IIMDA,29.9,I,1.011,B,12.6,C,,C,91.8,,,C,,T,,M,,N,,M*2C
20220704 110019+00:00 $HCHDT,126.3,T*2F
20220704 110019+00:00 $GPRMC,110014,A,4901.7796,N,12607.2900,W,9.51,130,040722,12.2,E,A,V*6F
20220704 110019+00:00 $WIMWV,117.79,R,3.69,N,A*26
20220704 110021+00:00 $IIMDA,29.9,I,1.011,B,12.6,C,,C,91.7,,,C,,T,,M,,N,,M*23
20220704 110021+00:00 $HCHDT,126.4,T*28
20220704 110021+00:00 $GPRMC,110016,A,4901.7700,N,12607.2798,W,9.51,130,040722,12.2,E,A,V*6D
20220704 110021+00:00 $WIMWV,121.79,R,3.38,N,A*27
20220704 110023+00:00 $IIMDA,29.9,I,1.011,B,12.6,C,,C,91.7,,,C,,T,,M,,N,,M*23
20220704 110023+00:00 $HCHDT,126.5,T*29
20220704 110023+00:00 $GPRMC,110018,A,4901.7700,N,12607.2798,W,9.51,129,040722,12.2,E,A,V*6B
20220704 110023+00:00 $WIMWV,148.6,R,2.9,N,A*23
20220704 110025+00:00 $IIMDA,29.9,I,1.011,B,12.6,C,,C,91.7,,,C,,T,,M,,N,,M*23
20220704 110025+00:00 $HCHDT,126.6,T*2A
20220704 110025+00:00 $GPRMC,110020,A,4901.7700,N,12607.2696,W,9.51,130,040722,12.2,E,A,V*67
20220704 110025+00:00 $WIMWV,126.69,R,4.59,N,A*21
20220704 110027+00:00 $IIMDA,29.9,I,1.011,B,12.6,C,,C,91.7,,,C,,T,,M,,N,,M*23
20220704 110027+00:00 $HCHDT,126.5,T*29
20220704 110027+00:00 $GPRMC,110022,A,4901.7598,N,12607.2696,W,9.51,130,040722,12.2,E,A,V*66
20220704 110027+00:00 $WIMWV,158.69,R,3.5,N,A*16
20220704 110029+00:00 $IIMDA,29.9,I,1.011,B,12.6,C,,C,91.7,,,C,,T,,M,,N,,M*23
20220704 110029+00:00 $HCHDT,126.3,T*2F
20220704 110029+00:00 $GPRMC,110024,A,4901.7598,N,12607.2600,W,9.51,129,040722,12.2,E,A,V*67
20220704 110029+00:00 $WIMWV,142.59,R,3.19,N,A*23
20220704 110031+00:00 $IIMDA,29.9,I,1.011,B,12.6,C,,C,91.8,,,C,,T,,M,,N,,M*2C
20220704 110031+00:00 $HCHDT,126.3,T*2F
20220704 110031+00:00 $GPRMC,110026,A,4901.7598,N,12607.2498,W,9.51,129,040722,12.2,E,A,V*66
20220704 110031+00:00 $WIMWV,74.7,R,1.69,N,A*29
20220704 110033+00:00 $IIMDA,29.9,I,1.011,B,12.6,C,,C,91.8,,,C,,T,,M,,N,,M*2C
20220704 110033+00:00 $HCHDT,126.6,T*2A
20220704 110033+00:00 $GPRMC,110028,A,4901.7598,N,12607.2498,W,9.51,129,040722,12.2,E,A,V*68
20220704 110033+00:00 $WIMWV,104.5,R,2.29,N,A*1A
20220704 110035+00:00 $IIMDA,29.9,I,1.011,B,12.6,C,,C,91.9,,,C,,T,,M,,N,,M*2D
20220704 110035+00:00 $HCHDT,126.7,T*2B
20220704 110035+00:00 $GPRMC,110030,A,4901.7496,N,12607.2396,W,9.51,129,040722,12.2,E,A,V*67
20220704 110035+00:00 $WIMWV,148.99,R,3.79,N,A*23
20220704 110037+00:00 $IIMDA,29.9,I,1.011,B,12.7,C,,C,91.8,,,C,,T,,M,,N,,M*2D
20220704 110037+00:00 $HCHDT,127,T*33
20220704 110037+00:00 $GPRMC,110032,A,4901.7496,N,12607.2300,W,9.51,129,040722,12.2,E,A,V*6A
20220704 110037+00:00 $WIMWV,136.99,R,1.98,N,A*27
20220704 110039+00:00 $IIMDA,29.9,I,1.011,B,12.7,C,,C,91.8,,,C,,T,,M,,N,,M*2D
20220704 110039+00:00 $HCHDT,127.2,T*2F
20220704 110039+00:00 $GPRMC,110034,A,4901.7400,N,12607.2300,W,9.51,129,040722,12.2,E,A,V*63
20220704 110039+00:00 $WIMWV,124.49,R,3.09,N,A*23
20220704 110041+00:00 $IIMDA,29.9,I,1.011,B,12.7,C,,C,91.8,,,C,,T,,M,,N,,M*2D
20220704 110041+00:00 $HCHDT,127.6,T*2B
20220704 110041+00:00 $GPRMC,110036,A,4901.7400,N,12607.2198,W,9.51,129,040722,12.2,E,A,V*62
20220704 110041+00:00 $WIMWV,119.39,R,4.39,N,A*2E
20220704 110043+00:00 $IIMDA,29.9,I,1.011,B,12.7,C,,C,91.9,,,C,,T,,M,,N,,M*2C
20220704 110043+00:00 $HCHDT,127.8,T*25
20220704 110043+00:00 $GPRMC,110038,A,4901.7400,N,12607.2198,W,9.51,130,040722,12.2,E,A,V*64
20220704 110043+00:00 $WIMWV,115.79,R,2.68,N,A*24
20220704 110045+00:00 $IIMDA,29.9,I,1.011,B,12.7,C,,C,91.8,,,C,,T,,M,,N,,M*2D
20220704 110045+00:00 $HCHDT,127.8,T*25
20220704 110045+00:00 $GPRMC,110040,A,4901.7298,N,12607.2096,W,9.51,130,040722,12.2,E,A,V*63
20220704 110045+00:00 $WIMWV,164.1,R,1.89,N,A*11
20220704 110047+00:00 $IIMDA,29.9,I,1.011,B,12.7,C,,C,91.8,,,C,,T,,M,,N,,M*2D
20220704 110047+00:00 $HCHDT,127,T*33
20220704 110047+00:00 $GPRMC,110042,A,4901.7298,N,12607.2000,W,9.51,130,040722,12.2,E,A,V*6E
20220704 110047+00:00 $WIMWV,121.9,R,2.8,N,A*22
20220704 110049+00:00 $IIMDA,29.9,I,1.011,B,12.7,C,,C,91.8,,,C,,T,,M,,N,,M*2D
20220704 110049+00:00 $HCHDT,127,T*33
20220704 110049+00:00 $GPRMC,110044,A,4901.7298,N,12607.2000,W,9.51,130,040722,12.2,E,A,V*68
20220704 110049+00:00 $WIMWV,121.7,R,2.49,N,A*19
20220704 110051+00:00 $IIMDA,29.9,I,1.011,B,12.7,C,,C,91.8,,,C,,T,,M,,N,,M*2D
20220704 110051+00:00 $HCHDT,127.2,T*2F
20220704 110051+00:00 $GPRMC,110046,A,4901.7196,N,12607.1898,W,9.51,130,040722,12.2,E,A,V*6D
20220704 110051+00:00 $WIMWV,127.2,R,1.69,N,A*1B
20220704 110053+00:00 $IIMDA,29.9,I,1.011,B,12.7,C,,C,91.8,,,C,,T,,M,,N,,M*2D
20220704 110053+00:00 $HCHDT,128.2,T*20
20220704 110053+00:00 $GPRMC,110048,A,4901.7196,N,12607.1898,W,9.51,130,040722,12.2,E,A,V*63
20220704 110053+00:00 $WIMWV,123.79,R,3.38,N,A*25
20220704 110055+00:00 $IIMDA,29.9,I,1.011,B,12.7,C,,C,91.8,,,C,,T,,M,,N,,M*2D
20220704 110055+00:00 $HCHDT,128.4,T*26
20220704 110055+00:00 $GPRMC,110050,A,4901.7196,N,12607.1796,W,9.51,130,040722,12.2,E,A,V*6B
20220704 110055+00:00 $WIMWV,123.7,R,4.39,N,A*1A
20220704 110057+00:00 $IIMDA,29.9,I,1.011,B,12.7,C,,C,91.8,,,C,,T,,M,,N,,M*2D
20220704 110057+00:00 $HCHDT,127,T*33
20220704 110057+00:00 $GPRMC,110052,A,4901.7100,N,12607.1700,W,9.51,130,040722,12.2,E,A,V*69
20220704 110057+00:00 $WIMWV,118.69,R,4.3,N,A*13
20220704 110059+00:00 $IIMDA,29.9,I,1.011,B,12.7,C,,C,91.7,,,C,,T,,M,,N,,M*22
20220704 110059+00:00 $HCHDT,126.1,T*2D
20220704 110059+00:00 $GPRMC,110054,A,4901.7100,N,12607.1700,W,9.51,130,040722,12.2,E,A,V*6F
20220704 110059+00:00 $WIMWV,131.49,R,2.99,N,A*2F
20220704 110101+00:00 $IIMDA,29.9,I,1.011,B,12.7,C,,C,91.7,,,C,,T,,M,,N,,M*22
20220704 110101+00:00 $HCHDT,126,T*32
20220704 110101+00:00 $GPRMC,110056,A,4901.7100,N,12607.1598,W,9.51,130,040722,12.2,E,A,V*6E
20220704 110101+00:00 $WIMWV,127.29,R,5.09,N,A*20
20220704 110103+00:00 $IIMDA,29.9,I,1.011,B,12.7,C,,C,91.7,,,C,,T,,M,,N,,M*22
20220704 110103+00:00 $HCHDT,127.1,T*2C
20220704 110103+00:00 $GPRMC,110058,A,4901.6998,N,12607.1496,W,9.51,129,040722,12.2,E,A,V*6F
20220704 110103+00:00 $WIMWV,122.19,R,3.5,N,A*1C
20220704 110105+00:00 $IIMDA,29.9,I,1.011,B,12.7,C,,C,91.7,,,C,,T,,M,,N,,M*22
20220704 110105+00:00 $HCHDT,127.4,T*29
20220704 110105+00:00 $GPRMC,110100,A,4901.6998,N,12607.1496,W,9.51,129,040722,12.2,E,A,V*63
20220704 110105+00:00 $WIMWV,123.09,R,3.98,N,A*28
20220704 110107+00:00 $IIMDA,29.9,I,1.011,B,12.7,C,,C,91.7,,,C,,T,,M,,N,,M*22
20220704 110107+00:00 $HCHDT,127.2,T*2F
20220704 110107+00:00 $GPRMC,110102,A,4901.6998,N,12607.1400,W,9.51,129,040722,12.2,E,A,V*6E
20220704 110107+00:00 $WIMWV,140.99,R,3.6,N,A*13
20220704 110109+00:00 $IIMDA,29.9,I,1.011,B,12.7,C,,C,91.7,,,C,,T,,M,,N,,M*22
20220704 110109+00:00 $HCHDT,126.8,T*24
20220704 110109+00:00 $GPRMC,110104,A,4901.6896,N,12607.1400,W,9.51,129,040722,12.2,E,A,V*67
20220704 110109+00:00 $WIMWV,125,R,4.68,N,A*01
20220704 110111+00:00 $IIMDA,29.9,I,1.011,B,12.7,C,,C,91.7,,,C,,T,,M,,N,,M*22
20220704 110111+00:00 $HCHDT,126.8,T*24
20220704 110111+00:00 $GPRMC,110106,A,4901.6896,N,12607.1298,W,9.51,129,040722,12.2,E,A,V*62
20220704 110111+00:00 $WIMWV,124.8,R,5.09,N,A*10
20220704 110113+00:00 $IIMDA,29.9,I,1.011,B,12.7,C,,C,91.7,,,C,,T,,M,,N,,M*22
20220704 110113+00:00 $HCHDT,127.3,T*2E
20220704 110113+00:00 $GPRMC,110108,A,4901.6896,N,12607.1196,W,9.51,129,040722,12.2,E,A,V*61
20220704 110113+00:00 $WIMWV,123.2,R,6.88,N,A*17
20220704 110115+00:00 $IIMDA,29.9,I,1.011,B,12.7,C,,C,91.7,,,C,,T,,M,,N,,M*22
20220704 110115+00:00 $HCHDT,127.6,T*2B
20220704 110115+00:00 $GPRMC,110110,A,4901.6800,N,12607.1196,W,9.51,129,040722,12.2,E,A,V*67
20220704 110115+00:00 $WIMWV,141.6,R,3.38,N,A*19
20220704 110117+00:00 $IIMDA,29.9,I,1.011,B,12.7,C,,C,91.7,,,C,,T,,M,,N,,M*22
20220704 110117+00:00 $HCHDT,127.5,T*28
20220704 110117+00:00 $GPRMC,110112,A,4901.6800,N,12607.1196,W,9.51,129,040722,12.2,E,A,V*65
20220704 110117+00:00 $WIMWV,124.49,R,5.99,N,A*2C
20220704 110119+00:00 $IIMDA,29.9,I,1.011,B,12.7,C,,C,91.6,,,C,,T,,M,,N,,M*23
20220704 110119+00:00 $HCHDT,127.3,T*2E
20220704 110119+00:00 $GPRMC,110114,A,4901.6800,N,12607.0998,W,9.51,130,040722,12.2,E,A,V*6C
20220704 110119+00:00 $WIMWV,166.7,R,4.78,N,A*1E
20220704 110121+00:00 $IIMDA,29.9,I,1.011,B,12.7,C,,C,91.6,,,C,,T,,M,,N,,M*23
20220704 110121+00:00 $HCHDT,126.9,T*25
20220704 110121+00:00 $GPRMC,110116,A,4901.6698,N,12607.0998,W,9.51,130,040722,12.2,E,A,V*61
20220704 110121+00:00 $WIMWV,161.09,R,3.5,N,A*1A
20220704 110123+00:00 $IIMDA,29.9,I,1.011,B,12.7,C,,C,91.5,,,C,,T,,M,,N,,M*20
20220704 110123+00:00 $HCHDT,126.8,T*24
20220704 110123+00:00 $GPRMC,110118,A,4901.6698,N,12607.0896,W,9.51,130,040722,12.2,E,A,V*60
20220704 110123+00:00 $WIMWV,129.49,R,4.08,N,A*28
20220704 110125+00:00 $IIMDA,29.9,I,1.011,B,12.7,C,,C,91.6,,,C,,T,,M,,N,,M*23
20220704 110125+00:00 $HCHDT,126.9,T*25
20220704 110125+00:00 $GPRMC,110120,A,4901.6698,N,12607.0896,W,9.51,129,040722,12.2,E,A,V*63
20220704 110125+00:00 $WIMWV,124.39,R,6.3,N,A*1B
20220704 110127+00:00 $IIMDA,29.9,I,1.011,B,12.7,C,,C,91.5,,,C,,T,,M,,N,,M*20
20220704 110127+00:00 $HCHDT,127.1,T*2C
20220704 110127+00:00 $GPRMC,110122,A,4901.6596,N,12607.0800,W,9.51,129,040722,12.2,E,A,V*63
20220704 110127+00:00 $WIMWV,116.69,R,2.99,N,A*28
20220704 110129+00:00 $IIMDA,29.9,I,1.011,B,12.7,C,,C,91.5,,,C,,T,,M,,N,,M*20
20220704 110129+00:00 $HCHDT,127.6,T*2B
20220704 110129+00:00 $GPRMC,110124,A,4901.6596,N,12607.0698,W,9.51,129,040722,12.2,E,A,V*6A
20220704 110129+00:00 $WIMWV,117.5,R,1.98,N,A*11
20220704 110131+00:00 $IIMDA,29.9,I,1.011,B,12.7,C,,C,91.5,,,C,,T,,M,,N,,M*20
20220704 110131+00:00 $HCHDT,128,T*3C
20220704 110131+00:00 $GPRMC,110126,A,4901.6596,N,12607.0698,W,9.51,130,040722,12.2,E,A,V*60
20220704 110131+00:00 $WIMWV,121.9,R,5.99,N,A*1D
20220704 110133+00:00 $IIMDA,29.9,I,1.011,B,12.7,C,,C,91.5,,,C,,T,,M,,N,,M*20
20220704 110133+00:00 $HCHDT,128.2,T*20
20220704 110133+00:00 $GPRMC,110128,A,4901.6500,N,12607.0596,W,9.51,130,040722,12.2,E,A,V*6C
20220704 110133+00:00 $WIMWV,129,R,4.68,N,A*0D
20220704 110135+00:00 $IIMDA,29.9,I,1.011,B,12.7,C,,C,91.5,,,C,,T,,M,,N,,M*20
20220704 110135+00:00 $HCHDT,128.3,T*21
20220704 110135+00:00 $GPRMC,110130,A,4901.6500,N,12607.0596,W,9.51,130,040722,12.2,E,A,V*65
20220704 110135+00:00 $WIMWV,150.89,R,5.29,N,A*28
20220704 110137+00:00 $IIMDA,29.9,I,1.011,B,12.7,C,,C,91.5,,,C,,T,,M,,N,,M*20
20220704 110137+00:00 $HCHDT,127.6,T*2B
20220704 110137+00:00 $GPRMC,110132,A,4901.6500,N,12607.0500,W,9.51,130,040722,12.2,E,A,V*68
20220704 110137+00:00 $WIMWV,142.29,R,3.89,N,A*2D
20220704 110139+00:00 $IIMDA,29.9,I,1.011,B,12.7,C,,C,91.5,,,C,,T,,M,,N,,M*20
20220704 110139+00:00 $HCHDT,126.7,T*2B
20220704 110139+00:00 $GPRMC,110134,A,4901.6398,N,12607.0398,W,9.51,130,040722,12.2,E,A,V*6E
20220704 110139+00:00 $WIMWV,112.9,R,2.99,N,A*1A
20220704 110141+00:00 $IIMDA,29.9,I,1.011,B,12.7,C,,C,91.5,,,C,,T,,M,,N,,M*20
20220704 110141+00:00 $HCHDT,126.7,T*2B
20220704 110141+00:00 $GPRMC,110136,A,4901.6398,N,12607.0398,W,9.51,130,040722,12.2,E,A,V*6C
20220704 110141+00:00 $WIMWV,117.9,R,2.9,N,A*26
20220704 110143+00:00 $IIMDA,29.9,I,1.011,B,12.7,C,,C,91.5,,,C,,T,,M,,N,,M*20
20220704 110143+00:00 $HCHDT,127.2,T*2F
20220704 110143+00:00 $GPRMC,110138,A,4901.6398,N,12607.0296,W,9.51,130,040722,12.2,E,A,V*6D
20220704 110143+00:00 $WIMWV,133.69,R,2.39,N,A*25
20220704 110145+00:00 $IIMDA,29.9,I,1.011,B,12.7,C,,C,91.5,,,C,,T,,M,,N,,M*20
20220704 110145+00:00 $HCHDT,127.8,T*25
20220704 110145+00:00 $GPRMC,110140,A,4901.6296,N,12607.0200,W,9.51,130,040722,12.2,E,A,V*62
20220704 110145+00:00 $WIMWV,156.3,R,2.8,N,A*28
20220704 110147+00:00 $IIMDA,29.9,I,1.011,B,12.7,C,,C,91.5,,,C,,T,,M,,N,,M*20
20220704 110147+00:00 $HCHDT,127.7,T*2A
20220704 110147+00:00 $GPRMC,110142,A,4901.6296,N,12607.0200,W,9.51,130,040722,12.2,E,A,V*60
20220704 110147+00:00 $WIMWV,142.59,R,3.69,N,A*24
20220704 110149+00:00 $IIMDA,29.9,I,1.011,B,12.7,C,,C,91.5,,,C,,T,,M,,N,,M*20
20220704 110149+00:00 $HCHDT,127,T*33
20220704 110149+00:00 $GPRMC,110144,A,4901.6296,N,12607.0098,W,9.51,129,040722,12.2,E,A,V*6D
20220704 110149+00:00 $WIMWV,126.6,R,3.5,N,A*26
20220704 110151+00:00 $IIMDA,29.9,I,1.011,B,12.7,C,,C,91.5,,,C,,T,,M,,N,,M*20
20220704 110151+00:00 $HCHDT,127.1,T*2C
20220704 110151+00:00 $GPRMC,110146,A,4901.6200,N,12607.0098,W,9.51,129,040722,12.2,E,A,V*60
20220704 110151+00:00 $WIMWV,170.7,R,4.39,N,A*1C
20220704 110153+00:00 $IIMDA,29.9,I,1.011,B,12.7,C,,C,91.4,,,C,,T,,M,,N,,M*21
20220704 110153+00:00 $HCHDT,127.6,T*2B
20220704 110153+00:00 $GPRMC,110148,A,4901.6200,N,12607.0098,W,9.51,129,040722,12.2,E,A,V*6E
20220704 110153+00:00 $WIMWV,118.89,R,3.98,N,A*28
20220704 110155+00:00 $IIMDA,29.9,I,1.011,B,12.7,C,,C,91.5,,,C,,T,,M,,N,,M*20
20220704 110155+00:00 $HCHDT,128.1,T*23
20220704 110155+00:00 $GPRMC,110150,A,4901.6200,N,12606.9900,W,9.51,129,040722,12.2,E,A,V*67
20220704 110155+00:00 $WIMWV,113.5,R,4.59,N,A*1D
20220704 110157+00:00 $IIMDA,29.9,I,1.011,B,12.7,C,,C,91.5,,,C,,T,,M,,N,,M*20
20220704 110157+00:00 $HCHDT,128.5,T*27
20220704 110157+00:00 $GPRMC,110152,A,4901.6098,N,12606.9900,W,9.51,130,040722,12.2,E,A,V*6E
20220704 110157+00:00 $WIMWV,120.49,R,5,N,A*06
20220704 110159+00:00 $IIMDA,29.9,I,1.011,B,12.7,C,,C,91.5,,,C,,T,,M,,N,,M*20
20220704 110159+00:00 $HCHDT,128.6,T*24
20220704 110159+00:00 $GPRMC,110154,A,4901.6098,N,12606.9798,W,9.51,130,040722,12.2,E,A,V*67
20220704 110159+00:00 $WIMWV,130.59,R,3.89,N,A*2F
20220704 110201+00:00 $IIMDA,29.9,I,1.011,B,12.7,C,,C,91.4,,,C,,T,,M,,N,,M*21
20220704 110201+00:00 $HCHDT,128.6,T*24
20220704 110201+00:00 $GPRMC,110156,A,4901.6098,N,12606.9696,W,9.51,130,040722,12.2,E,A,V*6A
20220704 110201+00:00 $WIMWV,122.49,R,4.9,N,A*12
20220704 110203+00:00 $IIMDA,29.9,I,1.011,B,12.7,C,,C,91.5,,,C,,T,,M,,N,,M*20
20220704 110203+00:00 $HCHDT,128.3,T*21
20220704 110203+00:00 $GPRMC,110158,A,4901.5996,N,12606.9696,W,9.51,130,040722,12.2,E,A,V*60
20220704 110203+00:00 $WIMWV,120.1,R,4.3,N,A*26
20220704 110205+00:00 $IIMDA,29.9,I,1.011,B,12.7,C,,C,91.5,,,C,,T,,M,,N,,M*20
20220704 110205+00:00 $HCHDT,127.7,T*2A
20220704 110205+00:00 $GPRMC,110200,A,4901.5996,N,12606.9600,W,9.51,130,040722,12.2,E,A,V*61
20220704 110205+00:00 $WIMWV,120.4,R,5.6,N,A*27
20220704 110207+00:00 $IIMDA,29.9,I,1.011,B,12.7,C,,C,91.4,,,C,,T,,M,,N,,M*21
20220704 110207+00:00 $HCHDT,127.5,T*28
20220704 110207+00:00 $GPRMC,110202,A,4901.5996,N,12606.9600,W,9.51,130,040722,12.2,E,A,V*63
20220704 110207+00:00 $WIMWV,115.79,R,2.68,N,A*24
20220704 110209+00:00 $IIMDA,29.9,I,1.011,B,12.7,C,,C,91.4,,,C,,T,,M,,N,,M*21
20220704 110209+00:00 $HCHDT,127.7,T*2A
20220704 110209+00:00 $GPRMC,110204,A,4901.5900,N,12606.9498,W,9.51,130,040722,12.2,E,A,V*69
20220704 110209+00:00 $WIMWV,30.89,R,1.19,N,A*18
20220704 110211+00:00 $IIMDA,29.9,I,1.011,B,12.7,C,,C,91.4,,,C,,T,,M,,N,,M*21
20220704 110211+00:00 $HCHDT,127.8,T*25
20220704 110211+00:00 $GPRMC,110206,A,4901.5900,N,12606.9498,W,9.51,130,040722,12.2,E,A,V*6B
20220704 110211+00:00 $WIMWV,114.99,R,3.09,N,A*2D
20220704 110213+00:00 $IIMDA,29.9,I,1.011,B,12.7,C,,C,91.4,,,C,,T,,M,,N,,M*21
20220704 110213+00:00 $HCHDT,127.3,T*2E
20220704 110213+00:00 $GPRMC,110208,A,4901.5900,N,12606.9396,W,9.6,130,040722,12.2,E,A,V*5E
20220704 110213+00:00 $WIMWV,128.39,R,7.1,N,A*14
20220704 110215+00:00 $IIMDA,29.9,I,1.011,B,12.7,C,,C,91.3,,,C,,T,,M,,N,,M*26
20220704 110215+00:00 $HCHDT,126.7,T*2B
20220704 110215+00:00 $GPRMC,110210,A,4901.5798,N,12606.9300,W,9.6,130,040722,12.2,E,A,V*57
20220704 110215+00:00 $WIMWV,120.89,R,4.9,N,A*1C
20220704 110217+00:00 $IIMDA,29.9,I,1.011,B,12.6,C,,C,91.3,,,C,,T,,M,,N,,M*27
20220704 110217+00:00 $HCHDT,126.3,T*2F
20220704 110217+00:00 $GPRMC,110212,A,4901.5798,N,12606.9198,W,9.51,129,040722,12.2,E,A,V*6C
20220704 110217+00:00 $WIMWV,68.7,R,2.68,N,A*26
20220704 110219+00:00 $IIMDA,29.9,I,1.011,B,12.6,C,,C,91.3,,,C,,T,,M,,N,,M*27
20220704 110219+00:00 $HCHDT,126.3,T*2F
20220704 110219+00:00 $GPRMC,110214,A,4901.5798,N,12606.9198,W,9.51,129,040722,12.2,E,A,V*6A
20220704 110219+00:00 $WIMWV,148.09,R,1.4,N,A*12
20220704 110221+00:00 $IIMDA,29.9,I,1.011,B,12.6,C,,C,91.3,,,C,,T,,M,,N,,M*27
20220704 110221+00:00 $HCHDT,126.9,T*25
20220704 110221+00:00 $GPRMC,110216,A,4901.5696,N,12606.9096,W,9.51,129,040722,12.2,E,A,V*68
20220704 110221+00:00 $WIMWV,142.9,R,3.79,N,A*10
20220704 110223+00:00 $IIMDA,29.9,I,1.011,B,12.6,C,,C,91.3,,,C,,T,,M,,N,,M*27
20220704 110223+00:00 $HCHDT,127.6,T*2B
20220704 110223+00:00 $GPRMC,110218,A,4901.5696,N,12606.9096,W,9.51,129,040722,12.2,E,A,V*66
20220704 110223+00:00 $WIMWV,119.9,R,3.79,N,A*1E
20220704 110225+00:00 $IIMDA,29.9,I,1.011,B,12.6,C,,C,91.3,,,C,,T,,M,,N,,M*27
20220704 110225+00:00 $HCHDT,127.7,T*2A
20220704 110225+00:00 $GPRMC,110220,A,4901.5696,N,12606.9000,W,9.51,129,040722,12.2,E,A,V*62
20220704 110225+00:00 $WIMWV,122.49,R,3.38,N,A*27
20220704 110227+00:00 $IIMDA,29.9,I,1.011,B,12.6,C,,C,91.3,,,C,,T,,M,,N,,M*27
20220704 110227+00:00 $HCHDT,127.9,T*24
20220704 110227+00:00 $GPRMC,110222,A,4901.5600,N,12606.8898,W,9.51,129,040722,12.2,E,A,V*67
20220704 110227+00:00 $WIMWV,115.5,R,2.49,N,A*1C
20220704 110229+00:00 $IIMDA,29.9,I,1.011,B,12.6,C,,C,91.3,,,C,,T,,M,,N,,M*27
20220704 110229+00:00 $HCHDT,128.2,T*20
20220704 110229+00:00 $GPRMC,110224,A,4901.5600,N,12606.8898,W,9.51,130,040722,12.2,E,A,V*69
20220704 110229+00:00 $WIMWV,112.99,R,2.59,N,A*2F
20220704 110231+00:00 $IIMDA,29.9,I,1.011,B,12.6,C,,C,91.3,,,C,,T,,M,,N,,M*27
20220704 110231+00:00 $HCHDT,128.3,T*21
20220704 110231+00:00 $GPRMC,110226,A,4901.5600,N,12606.8796,W,9.51,130,040722,12.2,E,A,V*6A
20220704 110231+00:00 $WIMWV,122.89,R,4.59,N,A*2B
20220704 110233+00:00 $IIMDA,29.9,I,1.011,B,12.6,C,,C,91.3,,,C,,T,,M,,N,,M*27
20220704 110233+00:00 $HCHDT,127.9,T*24
20220704 110233+00:00 $GPRMC,110228,A,4901.5498,N,12606.8796,W,9.51,130,040722,12.2,E,A,V*67
20220704 110233+00:00 $WIMWV,122.49,R,5.48,N,A*26
20220704 110235+00:00 $IIMDA,29.9,I,1.011,B,12.6,C,,C,91.4,,,C,,T,,M,,N,,M*20
20220704 110235+00:00 $HCHDT,128.1,T*23
20220704 110235+00:00 $GPRMC,110230,A,4901.5498,N,12606.8700,W,9.51,130,040722,12.2,E,A,V*61
20220704 110235+00:00 $WIMWV,119.39,R,4.3,N,A*17
20220704 110237+00:00 $IIMDA,29.9,I,1.011,B,12.6,C,,C,91.4,,,C,,T,,M,,N,,M*20
20220704 110237+00:00 $HCHDT,128.2,T*20
20220704 110237+00:00 $GPRMC,110232,A,4901.5498,N,12606.8598,W,9.51,130,040722,12.2,E,A,V*60
20220704 110237+00:00 $WIMWV,161.89,R,3.38,N,A*2C
20220704 110239+00:00 $IIMDA,29.9,I,1.011,B,12.6,C,,C,91.4,,,C,,T,,M,,N,,M*20
20220704 110239+00:00 $HCHDT,127.7,T*2A
20220704 110239+00:00 $GPRMC,110234,A,4901.5396,N,12606.8598,W,9.51,130,040722,12.2,E,A,V*6F
20220704 110239+00:00 $WIMWV,131.09,R,1.59,N,A*24
20220704 110241+00:00 $IIMDA,29.9,I,1.011,B,12.6,C,,C,91.4,,,C,,T,,M,,N,,M*20
20220704 110241+00:00 $HCHDT,126.6,T*2A
20220704 110241+00:00 $GPRMC,110236,A,4901.5396,N,12606.8496,W,9.51,130,040722,12.2,E,A,V*62
20220704 110241+00:00 $WIMWV,169.89,R,3.5,N,A*1A
20220704 110243+00:00 $IIMDA,29.9,I,1.011,B,12.6,C,,C,91.4,,,C,,T,,M,,N,,M*20
20220704 110243+00:00 $HCHDT,126,T*32
20220704 110243+00:00 $GPRMC,110238,A,4901.5396,N,12606.8400,W,9.51,130,040722,12.2,E,A,V*63
20220704 110243+00:00 $WIMWV,142.9,R,4.2,N,A*2B
20220704 110245+00:00 $IIMDA,29.9,I,1.011,B,12.6,C,,C,91.4,,,C,,T,,M,,N,,M*20
20220704 110245+00:00 $HCHDT,126.2,T*2E
20220704 110245+00:00 $GPRMC,110240,A,4901.5300,N,12606.8400,W,9.51,129,040722,12.2,E,A,V*6B
20220704 110245+00:00 $WIMWV,183.5,R,3.89,N,A*1E
20220704 110247+00:00 $IIMDA,29.9,I,1.011,B,12.6,C,,C,91.4,,,C,,T,,M,,N,,M*20
20220704 110247+00:00 $HCHDT,126.8,T*24
20220704 110247+00:00 $GPRMC,110242,A,4901.5300,N,12606.8298,W,9.51,129,040722,12.2,E,A,V*6E
20220704 110247+00:00 $WIMWV,170.29,R,2.2,N,A*1E
20220704 110249+00:00 $IIMDA,29.9,I,1.011,B,12.6,C,,C,91.5,,,C,,T,,M,,N,,M*21
20220704 110249+00:00 $HCHDT,127.9,T*24
20220704 110249+00:00 $GPRMC,110244,A,4901.5300,N,12606.8298,W,9.51,129,040722,12.2,E,A,V*68
20220704 110249+00:00 $WIMWV,150.4,R,2.68,N,A*1F
20220704 110251+00:00 $IIMDA,29.9,I,1.011,B,12.6,C,,C,91.5,,,C,,T,,M,,N,,M*21
20220704 110251+00:00 $HCHDT,128,T*3C
20220704 110251+00:00 $GPRMC,110246,A,4901.5198,N,12606.8196,W,9.51,129,040722,12.2,E,A,V*64
20220704 110251+00:00 $WIMWV,127.2,R,3.19,N,A*1E
20220704 110253+00:00 $IIMDA,29.9,I,1.011,B,12.6,C,,C,91.5,,,C,,T,,M,,N,,M*21
20220704 110253+00:00 $HCHDT,127.2,T*2F
20220704 110253+00:00 $GPRMC,110248,A,4901.5198,N,12606.8100,W,9.51,129,040722,12.2,E,A,V*65
20220704 110253+00:00 $WIMWV,148.6,R,1.89,N,A*18
20220704 110255+00:00 $IIMDA,29.9,I,1.011,B,12.6,C,,C,91.5,,,C,,T,,M,,N,,M*21
20220704 110255+00:00 $HCHDT,127,T*33
20220704 110255+00:00 $GPRMC,110250,A,4901.5198,N,12606.8100,W,9.51,129,040722,12.2,E,A,V*6C
20220704 110255+00:00 $WIMWV,135.1,R,2.9,N,A*2E
20220704 110257+00:00 $IIMDA,29.9,I,1.011,B,12.6,C,,C,91.5,,,C,,T,,M,,N,,M*21
20220704 110257+00:00 $HCHDT,127.4,T*29
20220704 110257+00:00 $GPRMC,110252,A,4901.5096,N,12606.7998,W,9.51,129,040722,12.2,E,A,V*67
20220704 110257+00:00 $WIMWV,147.5,R,2.2,N,A*24
20220704 110259+00:00 $IIMDA,29.9,I,1.011,B,12.6,C,,C,91.6,,,C,,T,,M,,N,,M*22
20220704 110259+00:00 $HCHDT,127.9,T*24
20220704 110259+00:00 $GPRMC,110254,A,4901.5096,N,12606.7998,W,9.51,130,040722,12.2,E,A,V*69
20220704 110259+00:00 $WIMWV,125.29,R,2.68,N,A*22
20220704 110301+00:00 $IIMDA,29.9,I,1.011,B,12.6,C,,C,91.6,,,C,,T,,M,,N,,M*22
20220704 110301+00:00 $HCHDT,128.3,T*21
20220704 110301+00:00 $GPRMC,110256,A,4901.5096,N,12606.7896,W,9.51,130,040722,12.2,E,A,V*64
20220704 110301+00:00 $WIMWV,180.6,R,3.6,N,A*29
20220704 110303+00:00 $IIMDA,29.9,I,1.011,B,12.6,C,,C,91.6,,,C,,T,,M,,N,,M*22
20220704 110303+00:00 $HCHDT,128.2,T*20
20220704 110303+00:00 $GPRMC,110258,A,4901.5000,N,12606.7800,W,9.51,130,040722,12.2,E,A,V*6A
20220704 110303+00:00 $WIMWV,184.09,R,2.68,N,A*2B
20220704 110305+00:00 $IIMDA,29.9,I,1.011,B,12.6,C,,C,91.7,,,C,,T,,M,,N,,M*23
20220704 110305+00:00 $HCHDT,127.6,T*2B
20220704 110305+00:00 $GPRMC,110300,A,4901.5000,N,12606.7800,W,9.51,130,040722,12.2,E,A,V*66
20220704 110305+00:00 $WIMWV,112.49,R,2.39,N,A*24
20220704 110307+00:00 $IIMDA,29.9,I,1.011,B,12.6,C,,C,91.7,,,C,,T,,M,,N,,M*23
20220704 110307+00:00 $HCHDT,127.3,T*2E
20220704 110307+00:00 $GPRMC,110302,A,4901.5000,N,12606.7698,W,9.51,130,040722,12.2,E,A,V*6B
20220704 110307+00:00 $WIMWV,338.39,R,0.8,N,A*19
20220704 110309+00:00 $IIMDA,29.9,I,1.011,B,12.6,C,,C,91.7,,,C,,T,,M,,N,,M*23
20220704 110309+00:00 $HCHDT,127.5,T*28
20220704 110309+00:00 $GPRMC,110304,A,4901.4898,N,12606.7596,W,9.51,130,040722,12.2,E,A,V*68
20220704 110309+00:00 $WIMWV,149.59,R,1.79,N,A*2C
20220704 110311+00:00 $IIMDA,29.9,I,1.011,B,12.6,C,,C,91.7,,,C,,T,,M,,N,,M*23
20220704 110311+00:00 $HCHDT,128.1,T*23
20220704 110311+00:00 $GPRMC,110306,A,4901.4898,N,12606.7596,W,9.51,130,040722,12.2,E,A,V*6A
20220704 110311+00:00 $WIMWV,123.4,R,4.68,N,A*1D
20220704 110313+00:00 $IIMDA,29.9,I,1.011,B,12.6,C,,C,91.7,,,C,,T,,M,,N,,M*23
20220704 110313+00:00 $HCHDT,128.7,T*25
20220704 110313+00:00 $GPRMC,110308,A,4901.4898,N,12606.7500,W,9.6,130,040722,12.2,E,A,V*59
20220704 110313+00:00 $WIMWV,163.6,R,3.89,N,A*13
20220704 110315+00:00 $IIMDA,29.9,I,1.011,B,12.6,C,,C,91.7,,,C,,T,,M,,N,,M*23
20220704 110315+00:00 $HCHDT,128.9,T*2B
20220704 110315+00:00 $GPRMC,110310,A,4901.4796,N,12606.7500,W,9.51,130,040722,12.2,E,A,V*63
20220704 110315+00:00 $WIMWV,168.79,R,3.98,N,A*20
20220704 110317+00:00 $IIMDA,29.9,I,1.011,B,12.6,C,,C,91.8,,,C,,T,,M,,N,,M*2C
20220704 110317+00:00 $HCHDT,128.4,T*26
20220704 110317+00:00 $GPRMC,110312,A,4901.4796,N,12606.7398,W,9.51,131,040722,12.2,E,A,V*67
20220704 110317+00:00 $WIMWV,186.6,R,1.5,N,A*2E
20220704 110319+00:00 $IIMDA,29.9,I,1.011,B,12.7,C,,C,91.8,,,C,,T,,M,,N,,M*2D
20220704 110319+00:00 $HCHDT,128.1,T*23
20220704 110319+00:00 $GPRMC,110314,A,4901.4700,N,12606.7296,W,9.51,131,040722,12.2,E,A,V*61
20220704 110319+00:00 $WIMWV,112.9,R,1.69,N,A*16
20220704 110321+00:00 $IIMDA,29.9,I,1.011,B,12.7,C,,C,91.7,,,C,,T,,M,,N,,M*22
20220704 110321+00:00 $HCHDT,128.5,T*27
20220704 110321+00:00 $GPRMC,110316,A,4901.4700,N,12606.7296,W,9.51,131,040722,12.2,E,A,V*63
20220704 110321+00:00 $WIMWV,129.2,R,1.4,N,A*2E
20220704 110323+00:00 $IIMDA,29.9,I,1.011,B,12.7,C,,C,91.7,,,C,,T,,M,,N,,M*22
20220704 110323+00:00 $HCHDT,128.9,T*2B
20220704 110323+00:00 $GPRMC,110318,A,4901.4700,N,12606.7296,W,9.51,131,040722,12.2,E,A,V*6D
20220704 110323+00:00 $WIMWV,20.1,R,1.09,N,A*28
20220704 110325+00:00 $IIMDA,29.9,I,1.011,B,12.7,C,,C,91.7,,,C,,T,,M,,N,,M*22
20220704 110325+00:00 $HCHDT,128.7,T*25
20220704 110325+00:00 $GPRMC,110320,A,4901.4700,N,12606.7200,W,9.51,131,040722,12.2,E,A,V*69
20220704 110325+00:00 $WIMWV,125.09,R,3.38,N,A*24
20220704 110327+00:00 $IIMDA,29.9,I,1.011,B,12.7,C,,C,91.8,,,C,,T,,M,,N,,M*2D
20220704 110327+00:00 $HCHDT,128.3,T*21
20220704 110327+00:00 $GPRMC,110322,A,4901.4598,N,12606.7200,W,9.51,131,040722,12.2,E,A,V*68
20220704 110327+00:00 $WIMWV,124.49,R,4.2,N,A*1F
20220704 110329+00:00 $IIMDA,29.9,I,1.011,B,12.7,C,,C,91.7,,,C,,T,,M,,N,,M*22
20220704 110329+00:00 $HCHDT,128.1,T*23
20220704 110329+00:00 $GPRMC,110324,A,4901.4598,N,12606.7098,W,9.51,131,040722,12.2,E,A,V*6D
20220704 110329+00:00 $WIMWV,155.59,R,2.68,N,A*22
20220704 110331+00:00 $IIMDA,29.9,I,1.011,B,12.7,C,,C,91.8,,,C,,T,,M,,N,,M*2D
20220704 110331+00:00 $HCHDT,127.6,T*2B
20220704 110331+00:00 $GPRMC,110326,A,4901.4598,N,12606.6996,W,9.51,131,040722,12.2,E,A,V*69
20220704 110331+00:00 $WIMWV,130.19,R,3.89,N,A*2B
20220704 110333+00:00 $IIMDA,29.9,I,1.011,B,12.7,C,,C,91.8,,,C,,T,,M,,N,,M*2D
20220704 110333+00:00 $HCHDT,127.2,T*2F
20220704 110333+00:00 $GPRMC,110328,A,4901.4496,N,12606.6996,W,9.51,131,040722,12.2,E,A,V*68
20220704 110333+00:00 $WIMWV,82.09,R,2.29,N,A*19
20220704 110335+00:00 $IIMDA,29.9,I,1.011,B,12.7,C,,C,91.8,,,C,,T,,M,,N,,M*2D
20220704 110335+00:00 $HCHDT,127.4,T*29
20220704 110335+00:00 $GPRMC,110330,A,4901.4496,N,12606.6900,W,9.51,130,040722,12.2,E,A,V*6F
20220704 110335+00:00 $WIMWV,124.19,R,4.3,N,A*1B
20220704 110337+00:00 $IIMDA,29.9,I,1.011,B,12.7,C,,C,91.8,,,C,,T,,M,,N,,M*2D
20220704 110337+00:00 $HCHDT,127.6,T*2B
20220704 110337+00:00 $GPRMC,110332,A,4901.4400,N,12606.6798,W,9.51,130,040722,12.2,E,A,V*6D
20220704 110337+00:00 $WIMWV,162.59,R,3.98,N,A*28
20220704 110339+00:00 $IIMDA,29.9,I,1.011,B,12.7,C,,C,91.8,,,C,,T,,M,,N,,M*2D
20220704 110339+00:00 $HCHDT,127.7,T*2A
20220704 110339+00:00 $GPRMC,110334,A,4901.4400,N,12606.6798,W,9.51,130,040722,12.2,E,A,V*6B
20220704 110339+00:00 $WIMWV,153.19,R,5.19,N,A*21
20220704 110341+00:00 $IIMDA,29.9,I,1.011,B,12.7,C,,C,91.8,,,C,,T,,M,,N,,M*2D
20220704 110341+00:00 $HCHDT,127.4,T*29
20220704 110341+00:00 $GPRMC,110336,A,4901.4400,N,12606.6696,W,9.51,130,040722,12.2,E,A,V*66
20220704 110341+00:00 $WIMWV,183.99,R,4.3,N,A*1E
20220704 110343+00:00 $IIMDA,29.9,I,1.011,B,12.7,C,,C,91.7,,,C,,T,,M,,N,,M*22
20220704 110343+00:00 $HCHDT,127.4,T*29
20220704 110343+00:00 $GPRMC,110338,A,4901.4400,N,12606.6696,W,9.51,130,040722,12.2,E,A,V*68
20220704 110343+00:00 $WIMWV,147.1,R,4.49,N,A*19
20220704 110345+00:00 $IIMDA,29.9,I,1.011,B,12.7,C,,C,91.7,,,C,,T,,M,,N,,M*22
20220704 110345+00:00 $HCHDT,127.6,T*2B
20220704 110345+00:00 $GPRMC,110340,A,4901.4298,N,12606.6600,W,9.51,130,040722,12.2,E,A,V*6F
20220704 110345+00:00 $WIMWV,134.39,R,4.39,N,A*21
20220704 110347+00:00 $IIMDA,29.9,I,1.011,B,12.7,C,,C,91.7,,,C,,T,,M,,N,,M*22
20220704 110347+00:00 $HCHDT,127.6,T*2B
20220704 110347+00:00 $GPRMC,110342,A,4901.4298,N,12606.6498,W,9.51,130,040722,12.2,E,A,V*6E
20220704 110347+00:00 $WIMWV,143.1,R,2.29,N,A*1D
20220704 110349+00:00 $IIMDA,29.9,I,1.011,B,12.7,C,,C,91.6,,,C,,T,,M,,N,,M*23
20220704 110349+00:00 $HCHDT,127,T*33
20220704 110349+00:00 $GPRMC,110344,A,4901.4298,N,12606.6498,W,9.51,130,040722,12.2,E,A,V*68
20220704 110349+00:00 $WIMWV,116.29,R,2.8,N,A*14
20220704 110351+00:00 $IIMDA,29.9,I,1.011,B,12.7,C,,C,91.6,,,C,,T,,M,,N,,M*23
20220704 110351+00:00 $HCHDT,126.8,T*24
20220704 110351+00:00 $GPRMC,110346,A,4901.4196,N,12606.6396,W,9.51,130,040722,12.2,E,A,V*6E
20220704 110351+00:00 $WIMWV,180.6,R,1.28,N,A*17
20220704 110353+00:00 $IIMDA,29.9,I,1.011,B,12.7,C,,C,91.6,,,C,,T,,M,,N,,M*23
20220704 110353+00:00 $HCHDT,126.9,T*25
20220704 110353+00:00 $GPRMC,110348,A,4901.4196,N,12606.6300,W,9.51,130,040722,12.2,E,A,V*6F
20220704 110353+00:00 $WIMWV,126.8,R,2.1,N,A*2D
20220704 110355+00:00 $IIMDA,29.9,I,1.011,B,12.7,C,,C,91.7,,,C,,T,,M,,N,,M*22
20220704 110355+00:00 $HCHDT,127.2,T*2F
20220704 110355+00:00 $GPRMC,110350,A,4901.4196,N,12606.6300,W,9.51,130,040722,12.2,E,A,V*66
20220704 110355+00:00 $WIMWV,159.09,R,1.79,N,A*28
20220704 110357+00:00 $IIMDA,29.9,I,1.011,B,12.7,C,,C,91.7,,,C,,T,,M,,N,,M*22
20220704 110357+00:00 $HCHDT,128.1,T*23
20220704 110357+00:00 $GPRMC,110352,A,4901.4100,N,12606.6198,W,9.51,130,040722,12.2,E,A,V*68
20220704 110357+00:00 $WIMWV,117.99,R,2.99,N,A*26
20220704 110359+00:00 $IIMDA,29.9,I,1.011,B,12.7,C,,C,91.6,,,C,,T,,M,,N,,M*23
20220704 110359+00:00 $HCHDT,127.7,T*2A
20220704 110359+00:00 $GPRMC,110354,A,4901.4100,N,12606.6198,W,9.51,130,040722,12.2,E,A,V*6E
20220704 110359+00:00 $WIMWV,127.99,R,2.1,N,A*14
20220704 110401+00:00 $IIMDA,29.9,I,1.011,B,12.7,C,,C,91.7,,,C,,T,,M,,N,,M*22
20220704 110401+00:00 $HCHDT,127.1,T*2C
20220704 110401+00:00 $GPRMC,110356,A,4901.4100,N,12606.6096,W,9.51,130,040722,12.2,E,A,V*63
20220704 110401+00:00 $WIMWV,124.39,R,3.38,N,A*26
20220704 110403+00:00 $IIMDA,29.9,I,1.011,B,12.7,C,,C,91.7,,,C,,T,,M,,N,,M*22
20220704 110403+00:00 $HCHDT,127.2,T*2F
20220704 110403+00:00 $GPRMC,110358,A,4901.3998,N,12606.6096,W,9.51,130,040722,12.2,E,A,V*63
20220704 110403+00:00 $WIMWV,121.39,R,2.68,N,A*27
20220704 110405+00:00 $IIMDA,29.9,I,1.011,B,12.7,C,,C,91.7,,,C,,T,,M,,N,,M*22
20220704 110405+00:00 $HCHDT,127.6,T*2B
20220704 110405+00:00 $GPRMC,110400,A,4901.3998,N,12606.6000,W,9.41,130,040722,12.2,E,A,V*67
20220704 110405+00:00 $WIMWV,115.39,R,0.7,N,A*1B
20220704 110407+00:00 $IIMDA,29.9,I,1.011,B,12.7,C,,C,91.7,,,C,,T,,M,,N,,M*22
20220704 110407+00:00 $HCHDT,127.4,T*29
20220704 110407+00:00 $GPRMC,110402,A,4901.3896,N,12606.5898,W,9.41,130,040722,12.2,E,A,V*60
20220704 110407+00:00 $WIMWV,104.5,R,2.1,N,A*20
20220704 110409+00:00 $IIMDA,29.9,I,1.011,B,12.7,C,,C,91.7,,,C,,T,,M,,N,,M*22
20220704 110409+00:00 $HCHDT,127.5,T*28
20220704 110409+00:00 $GPRMC,110404,A,4901.3896,N,12606.5898,W,9.51,130,040722,12.2,E,A,V*67
20220704 110409+00:00 $WIMWV,172.99,R,1.59,N,A*2A
20220704 110411+00:00 $IIMDA,29.9,I,1.011,B,12.7,C,,C,91.7,,,C,,T,,M,,N,,M*22
20220704 110411+00:00 $HCHDT,127.2,T*2F
20220704 110411+00:00 $GPRMC,110406,A,4901.3896,N,12606.5796,W,9.51,130,040722,12.2,E,A,V*64
20220704 110411+00:00 $WIMWV,126.89,R,1.4,N,A*12
20220704 110413+00:00 $IIMDA,29.9,I,1.011,B,12.7,C,,C,91.7,,,C,,T,,M,,N,,M*22
20220704 110413+00:00 $HCHDT,126.9,T*25
20220704 110413+00:00 $GPRMC,110408,A,4901.3896,N,12606.5796,W,9.51,130,040722,12.2,E,A,V*6A
20220704 110413+00:00 $WIMWV,112,R,2.99,N,A*0D
20220704 110415+00:00 $IIMDA,29.9,I,1.011,B,12.7,C,,C,91.7,,,C,,T,,M,,N,,M*22
20220704 110415+00:00 $HCHDT,127,T*33
20220704 110415+00:00 $GPRMC,110410,A,4901.3800,N,12606.5700,W,9.51,130,040722,12.2,E,A,V*63
20220704 110415+00:00 $WIMWV,114.69,R,2.59,N,A*26
20220704 110417+00:00 $IIMDA,29.9,I,1.011,B,12.7,C,,C,91.8,,,C,,T,,M,,N,,M*2D
20220704 110417+00:00 $HCHDT,126.8,T*24
20220704 110417+00:00 $GPRMC,110412,A,4901.3800,N,12606.5598,W,9.51,130,040722,12.2,E,A,V*62
20220704 110417+00:00 $WIMWV,121.7,R,3.89,N,A*14
20220704 110419+00:00 $IIMDA,29.9,I,1.011,B,12.7,C,,C,91.8,,,C,,T,,M,,N,,M*2D
20220704 110419+00:00 $HCHDT,127,T*33
20220704 110419+00:00 $GPRMC,110414,A,4901.3800,N,12606.5598,W,9.51,130,040722,12.2,E,A,V*64
20220704 110419+00:00 $WIMWV,111.3,R,3.6,N,A*24
20220704 110421+00:00 $IIMDA,29.9,I,1.011,B,12.7,C,,C,91.8,,,C,,T,,M,,N,,M*2D
20220704 110421+00:00 $HCHDT,127.8,T*25
20220704 110421+00:00 $GPRMC,110416,A,4901.3698,N,12606.5496,W,9.41,130,040722,12.2,E,A,V*67
20220704 110421+00:00 $WIMWV,23.7,R,1.5,N,A*11
20220704 110423+00:00 $IIMDA,29.9,I,1.011,B,12.7,C,,C,91.8,,,C,,T,,M,,N,,M*2D
20220704 110423+00:00 $HCHDT,128.3,T*21
20220704 110423+00:00 $GPRMC,110418,A,4901.3698,N,12606.5400,W,9.41,130,040722,12.2,E,A,V*66
20220704 110423+00:00 $WIMWV,339.39,R,2.1,N,A*13
20220704 110425+00:00 $IIMDA,29.9,I,1.011,B,12.7,C,,C,91.8,,,C,,T,,M,,N,,M*2D
20220704 110425+00:00 $HCHDT,128.3,T*21
20220704 110425+00:00 $GPRMC,110420,A,4901.3596,N,12606.5298,W,9.51,131,040722,12.2,E,A,V*67
20220704 110425+00:00 $WIMWV,122.4,R,5,N,A*3D
20220704 110427+00:00 $IIMDA,29.9,I,1.011,B,12.7,C,,C,91.9,,,C,,T,,M,,N,,M*2C
20220704 110427+00:00 $HCHDT,127.6,T*2B
20220704 110427+00:00 $GPRMC,110422,A,4901.3596,N,12606.5298,W,9.51,131,040722,12.2,E,A,V*65
20220704 110427+00:00 $WIMWV,124.89,R,5.6,N,A*16
20220704 110429+00:00 $IIMDA,29.9,I,1.011,B,12.7,C,,C,91.8,,,C,,T,,M,,N,,M*2D
20220704 110429+00:00 $HCHDT,127,T*33
20220704 110429+00:00 $GPRMC,110424,A,4901.3596,N,12606.5196,W,9.51,130,040722,12.2,E,A,V*6F
20220704 110429+00:00 $WIMWV,112.99,R,3.6,N,A*14
20220704 110431+00:00 $IIMDA,29.9,I,1.011,B,12.7,C,,C,91.9,,,C,,T,,M,,N,,M*2C
20220704 110431+00:00 $HCHDT,127.2,T*2F
20220704 110431+00:00 $GPRMC,110426,A,4901.3596,N,12606.5196,W,9.51,130,040722,12.2,E,A,V*6D
20220704 110431+00:00 $WIMWV,119.39,R,5.38,N,A*2E
20220704 110433+00:00 $IIMDA,29.9,I,1.011,B,12.7,C,,C,91.8,,,C,,T,,M,,N,,M*2D
20220704 110433+00:00 $HCHDT,127.9,T*24
20220704 110433+00:00 $GPRMC,110428,A,4901.3500,N,12606.5100,W,9.51,130,040722,12.2,E,A,V*63
20220704 110433+00:00 $WIMWV,124.49,R,7.7,N,A*19
20220704 110435+00:00 $IIMDA,29.9,I,1.011,B,12.7,C,,C,91.8,,,C,,T,,M,,N,,M*2D
20220704 110435+00:00 $HCHDT,128.4,T*26
20220704 110435+00:00 $GPRMC,110430,A,4901.3500,N,12606.5100,W,9.41,131,040722,12.2,E,A,V*6A
20220704 110435+00:00 $WIMWV,101.09,R,2.68,N,A*26
20220704 110437+00:00 $IIMDA,29.9,I,1.011,B,12.7,C,,C,91.8,,,C,,T,,M,,N,,M*2D
20220704 110437+00:00 $HCHDT,128.3,T*21
20220704 110437+00:00 $GPRMC,110432,A,4901.3500,N,12606.4998,W,9.41,131,040722,12.2,E,A,V*60
20220704 110437+00:00 $WIMWV,235.8,R,1.98,N,A*1F
20220704 110439+00:00 $IIMDA,29.9,I,1.011,B,12.6,C,,C,91.8,,,C,,T,,M,,N,,M*2C
20220704 110439+00:00 $HCHDT,128.8,T*2A
20220704 110439+00:00 $GPRMC,110434,A,4901.3398,N,12606.4896,W,9.41,131,040722,12.2,E,A,V*6E
20220704 110439+00:00 $WIMWV,157.29,R,4.2,N,A*1D
20220704 110441+00:00 $IIMDA,29.9,I,1.011,B,12.6,C,,C,91.7,,,C,,T,,M,,N,,M*23
20220704 110441+00:00 $HCHDT,128.8,T*2A
20220704 110441+00:00 $GPRMC,110436,A,4901.3296,N,12606.4800,W,9.51,131,040722,12.2,E,A,V*6D
20220704 110441+00:00 $WIMWV,111.1,R,3.29,N,A*1B
20220704 110443+00:00 $IIMDA,29.9,I,1.011,B,12.6,C,,C,91.8,,,C,,T,,M,,N,,M*2C
20220704 110443+00:00 $HCHDT,128.7,T*25
20220704 110443+00:00 $GPRMC,110438,A,4901.3296,N,12606.4800,W,9.51,131,040722,12.2,E,A,V*63
20220704 110443+00:00 $WIMWV,121.7,R,4.78,N,A*1D
20220704 110445+00:00 $IIMDA,29.9,I,1.011,B,12.6,C,,C,91.7,,,C,,T,,M,,N,,M*23
20220704 110445+00:00 $HCHDT,128.7,T*25
20220704 110445+00:00 $GPRMC,110440,A,4901.3296,N,12606.4698,W,9.51,131,040722,12.2,E,A,V*63
20220704 110445+00:00 $WIMWV,120.49,R,6.88,N,A*2B
20220704 110447+00:00 $IIMDA,29.9,I,1.011,B,12.6,C,,C,91.7,,,C,,T,,M,,N,,M*23
20220704 110447+00:00 $HCHDT,128.4,T*26
20220704 110447+00:00 $GPRMC,110442,A,4901.3296,N,12606.4698,W,9.51,131,040722,12.2,E,A,V*61
20220704 110447+00:00 $WIMWV,120.29,R,5,N,A*00
20220704 110449+00:00 $IIMDA,29.9,I,1.011,B,12.6,C,,C,91.8,,,C,,T,,M,,N,,M*2C
20220704 110449+00:00 $HCHDT,128.4,T*26
20220704 110449+00:00 $GPRMC,110444,A,4901.3200,N,12606.4698,W,9.51,131,040722,12.2,E,A,V*68
20220704 110449+00:00 $WIMWV,118.89,R,6.49,N,A*21
20220704 110451+00:00 $IIMDA,29.9,I,1.011,B,12.6,C,,C,91.7,,,C,,T,,M,,N,,M*23
20220704 110451+00:00 $HCHDT,128.4,T*26
20220704 110451+00:00 $GPRMC,110446,A,4901.3200,N,12606.4596,W,9.51,131,040722,12.2,E,A,V*67
20220704 110451+00:00 $WIMWV,123.2,R,6.78,N,A*18
20220704 110453+00:00 $IIMDA,29.9,I,1.011,B,12.6,C,,C,91.7,,,C,,T,,M,,N,,M*23
20220704 110453+00:00 $HCHDT,127.7,T*2A
20220704 110453+00:00 $GPRMC,110448,A,4901.3098,N,12606.4500,W,9.51,131,040722,12.2,E,A,V*65
20220704 110453+00:00 $WIMWV,94.3,R,5.48,N,A*24
20220704 110455+00:00 $IIMDA,29.9,I,1.011,B,12.6,C,,C,91.7,,,C,,T,,M,,N,,M*23
20220704 110455+00:00 $HCHDT,127.4,T*29
20220704 110455+00:00 $GPRMC,110450,A,4901.3098,N,12606.4398,W,9.51,131,040722,12.2,E,A,V*6B
20220704 110455+00:00 $WIMWV,134.39,R,2.9,N,A*14
20220704 110457+00:00 $IIMDA,29.9,I,1.011,B,12.6,C,,C,91.7,,,C,,T,,M,,N,,M*23
20220704 110457+00:00 $HCHDT,127.5,T*28
20220704 110457+00:00 $GPRMC,110452,A,4901.3098,N,12606.4398,W,9.51,131,040722,12.2,E,A,V*69
20220704 110457+00:00 $WIMWV,151,R,4.68,N,A*02
20220704 110459+00:00 $IIMDA,29.9,I,1.011,B,12.6,C,,C,91.7,,,C,,T,,M,,N,,M*23
20220704 110459+00:00 $HCHDT,127.6,T*2B
20220704 110459+00:00 $GPRMC,110454,A,4901.3098,N,12606.4398,W,9.51,130,040722,12.2,E,A,V*6E
20220704 110459+00:00 $WIMWV,124.39,R,6.59,N,A*24
20220704 110501+00:00 $IIMDA,29.9,I,1.011,B,12.6,C,,C,91.6,,,C,,T,,M,,N,,M*22
20220704 110501+00:00 $HCHDT,127.3,T*2E
20220704 110501+00:00 $GPRMC,110456,A,4901.2996,N,12606.4296,W,9.51,130,040722,12.2,E,A,V*65
20220704 110501+00:00 $WIMWV,153.5,R,3.38,N,A*19
20220704 110503+00:00 $IIMDA,29.9,I,1.011,B,12.6,C,,C,91.6,,,C,,T,,M,,N,,M*22
20220704 110503+00:00 $HCHDT,127,T*33
20220704 110503+00:00 $GPRMC,110458,A,4901.2996,N,12606.4200,W,9.51,130,040722,12.2,E,A,V*64
20220704 110503+00:00 $WIMWV,122.1,R,3.38,N,A*1B
20220704 110505+00:00 $IIMDA,29.9,I,1.011,B,12.6,C,,C,91.6,,,C,,T,,M,,N,,M*22
20220704 110505+00:00 $HCHDT,126.7,T*2B
20220704 110505+00:00 $GPRMC,110500,A,4901.2996,N,12606.4200,W,9.51,130,040722,12.2,E,A,V*68
20220704 110505+00:00 $WIMWV,111.1,R,2.99,N,A*11
20220704 110507+00:00 $IIMDA,29.9,I,1.011,B,12.6,C,,C,91.6,,,C,,T,,M,,N,,M*22
20220704 110507+00:00 $HCHDT,127.3,T*2E
20220704 110507+00:00 $GPRMC,110502,A,4901.2900,N,12606.4098,W,9.51,130,040722,12.2,E,A,V*66
20220704 110507+00:00 $WIMWV,108.7,R,2.1,N,A*2E
20220704 110509+00:00 $IIMDA,29.9,I,1.011,B,12.6,C,,C,91.6,,,C,,T,,M,,N,,M*22
20220704 110509+00:00 $HCHDT,127.8,T*25
20220704 110509+00:00 $GPRMC,110504,A,4901.2900,N,12606.4098,W,9.51,130,040722,12.2,E,A,V*60
20220704 110509+00:00 $WIMWV,123.2,R,5.19,N,A*1C
20220704 110511+00:00 $IIMDA,29.9,I,1.011,B,12.6,C,,C,91.6,,,C,,T,,M,,N,,M*22
20220704 110511+00:00 $HCHDT,127.7,T*2A
20220704 110511+00:00 $GPRMC,110506,A,4901.2798,N,12606.3900,W,9.51,130,040722,12.2,E,A,V*62
20220704 110511+00:00 $WIMWV,151.5,R,3.19,N,A*18
20220704 110513+00:00 $IIMDA,29.9,I,1.011,B,12.6,C,,C,91.6,,,C,,T,,M,,N,,M*22
20220704 110513+00:00 $HCHDT,127.6,T*2B
20220704 110513+00:00 $GPRMC,110508,A,4901.2798,N,12606.3900,W,9.51,130,040722,12.2,E,A,V*6C
20220704 110513+00:00 $WIMWV,110.99,R,3.29,N,A*2B
20220704 110515+00:00 $IIMDA,29.9,I,1.011,B,12.6,C,,C,91.6,,,C,,T,,M,,N,,M*22
20220704 110515+00:00 $HCHDT,127.6,T*2B
20220704 110515+00:00 $GPRMC,110510,A,4901.2798,N,12606.3900,W,9.51,130,040722,12.2,E,A,V*65
20220704 110515+00:00 $WIMWV,128.39,R,3.6,N,A*17
20220704 110517+00:00 $IIMDA,29.9,I,1.011,B,12.6,C,,C,91.6,,,C,,T,,M,,N,,M*22
20220704 110517+00:00 $HCHDT,127.8,T*25
20220704 110517+00:00 $GPRMC,110512,A,4901.2798,N,12606.3798,W,9.51,130,040722,12.2,E,A,V*68
20220704 110517+00:00 $WIMWV,155.79,R,3.09,N,A*26
20220704 110519+00:00 $IIMDA,29.9,I,1.011,B,12.6,C,,C,91.6,,,C,,T,,M,,N,,M*22
20220704 110519+00:00 $HCHDT,128.2,T*20
20220704 110519+00:00 $GPRMC,110514,A,4901.2696,N,12606.3696,W,9.41,130,040722,12.2,E,A,V*6F
20220704 110519+00:00 $WIMWV,144.9,R,3.09,N,A*11
20220704 110521+00:00 $IIMDA,29.9,I,1.011,B,12.6,C,,C,91.5,,,C,,T,,M,,N,,M*21
20220704 110521+00:00 $HCHDT,128.5,T*27
20220704 110521+00:00 $GPRMC,110516,A,4901.2696,N,12606.3696,W,9.41,131,040722,12.2,E,A,V*6C
20220704 110521+00:00 $WIMWV,117.79,R,4.08,N,A*26
20220704 110523+00:00 $IIMDA,29.9,I,1.011,B,12.6,C,,C,91.6,,,C,,T,,M,,N,,M*22
20220704 110523+00:00 $HCHDT,128.6,T*24
20220704 110523+00:00 $GPRMC,110518,A,4901.2600,N,12606.3600,W,9.51,131,040722,12.2,E,A,V*63
20220704 110523+00:00 $WIMWV,133.4,R,4.2,N,A*20
20220704 110525+00:00 $IIMDA,29.9,I,1.011,B,12.6,C,,C,91.6,,,C,,T,,M,,N,,M*22
20220704 110525+00:00 $HCHDT,128.5,T*27
20220704 110525+00:00 $GPRMC,110520,A,4901.2600,N,12606.3498,W,9.51,131,040722,12.2,E,A,V*6B
20220704 110525+00:00 $WIMWV,97.6,R,5.89,N,A*2F
20220704 110527+00:00 $IIMDA,29.9,I,1.011,B,12.6,C,,C,91.5,,,C,,T,,M,,N,,M*21
20220704 110527+00:00 $HCHDT,128.7,T*25
20220704 110527+00:00 $GPRMC,110522,A,4901.2600,N,12606.3396,W,9.51,131,040722,12.2,E,A,V*60
20220704 110527+00:00 $WIMWV,114.9,R,5,N,A*35
20220704 110529+00:00 $IIMDA,29.9,I,1.011,B,12.6,C,,C,91.5,,,C,,T,,M,,N,,M*21
20220704 110529+00:00 $HCHDT,128.2,T*20
20220704 110529+00:00 $GPRMC,110524,A,4901.2498,N,12606.3396,W,9.51,131,040722,12.2,E,A,V*65
20220704 110529+00:00 $WIMWV,125,R,5.6,N,A*38
20220704 110531+00:00 $IIMDA,29.9,I,1.011,B,12.6,C,,C,91.5,,,C,,T,,M,,N,,M*21
20220704 110531+00:00 $HCHDT,127.9,T*24
20220704 110531+00:00 $GPRMC,110526,A,4901.2498,N,12606.3396,W,9.51,131,040722,12.2,E,A,V*67
20220704 110531+00:00 $WIMWV,122.69,R,5.29,N,A*23
20220704 110533+00:00 $IIMDA,29.9,I,1.011,B,12.6,C,,C,91.5,,,C,,T,,M,,N,,M*21
20220704 110533+00:00 $HCHDT,127.8,T*25
20220704 110533+00:00 $GPRMC,110528,A,4901.2498,N,12606.3300,W,9.51,131,040722,12.2,E,A,V*66
20220704 110533+00:00 $WIMWV,144.79,R,1.79,N,A*23
20220704 110535+00:00 $IIMDA,29.9,I,1.011,B,12.6,C,,C,91.4,,,C,,T,,M,,N,,M*20
20220704 110535+00:00 $HCHDT,127.9,T*24
20220704 110535+00:00 $GPRMC,110530,A,4901.2498,N,12606.3300,W,9.51,131,040722,12.2,E,A,V*6F
20220704 110535+00:00 $WIMWV,127.4,R,3.5,N,A*25
20220704 110537+00:00 $IIMDA,29.9,I,1.011,B,12.6,C,,C,91.4,,,C,,T,,M,,N,,M*20
20220704 110537+00:00 $HCHDT,127.6,T*2B
20220704 110537+00:00 $GPRMC,110532,A,4901.2396,N,12606.3096,W,9.41,131,040722,12.2,E,A,V*69
20220704 110537+00:00 $WIMWV,116.4,R,2.49,N,A*1E
20220704 110539+00:00 $IIMDA,29.9,I,1.011,B,12.6,C,,C,91.4,,,C,,T,,M,,N,,M*20
20220704 110539+00:00 $HCHDT,127.6,T*2B
20220704 110539+00:00 $GPRMC,110534,A,4901.2396,N,12606.3096,W,9.51,131,040722,12.2,E,A,V*6E
20220704 110539+00:00 $WIMWV,123.9,R,5.09,N,A*16
20220704 110541+00:00 $IIMDA,29.9,I,1.011,B,12.6,C,,C,91.4,,,C,,T,,M,,N,,M*20
20220704 110541+00:00 $HCHDT,127.2,T*2F
20220704 110541+00:00 $GPRMC,110536,A,4901.2300,N,12606.3000,W,9.51,131,040722,12.2,E,A,V*6C
20220704 110541+00:00 $WIMWV,151.9,R,4.3,N,A*28
20220704 110543+00:00 $IIMDA,29.9,I,1.011,B,12.6,C,,C,91.4,,,C,,T,,M,,N,,M*20
20220704 110543+00:00 $HCHDT,126.9,T*25
20220704 110543+00:00 $GPRMC,110538,A,4901.2300,N,12606.3000,W,9.51,131,040722,12.2,E,A,V*62
20220704 110543+00:00 $WIMWV,176.99,R,4.2,N,A*15
20220704 110545+00:00 $IIMDA,29.9,I,1.011,B,12.6,C,,C,91.3,,,C,,T,,M,,N,,M*27
20220704 110545+00:00 $HCHDT,126.6,T*2A
20220704 110545+00:00 $GPRMC,110540,A,4901.2300,N,12606.2898,W,9.51,130,040722,12.2,E,A,V*64
20220704 110545+00:00 $WIMWV,86.6,R,2.1,N,A*18
20220704 110547+00:00 $IIMDA,29.9,I,1.011,B,12.6,C,,C,91.4,,,C,,T,,M,,N,,M*20
20220704 110547+00:00 $HCHDT,127.2,T*2F
20220704 110547+00:00 $GPRMC,110542,A,4901.2300,N,12606.2898,W,9.41,130,040722,12.2,E,A,V*67
20220704 110547+00:00 $WIMWV,125.9,R,2.39,N,A*14
20220704 110549+00:00 $IIMDA,29.9,I,1.011,B,12.6,C,,C,91.4,,,C,,T,,M,,N,,M*20
20220704 110549+00:00 $HCHDT,128.2,T*20
20220704 110549+00:00 $GPRMC,110544,A,4901.2198,N,12606.2796,W,9.41,130,040722,12.2,E,A,V*63
20220704 110549+00:00 $WIMWV,54.6,R,1.19,N,A*2D
20220704 110551+00:00 $IIMDA,29.9,I,1.011,B,12.6,C,,C,91.4,,,C,,T,,M,,N,,M*20
20220704 110551+00:00 $HCHDT,128.2,T*20
20220704 110551+00:00 $GPRMC,110546,A,4901.2198,N,12606.2700,W,9.41,130,040722,12.2,E,A,V*6E
20220704 110551+00:00 $WIMWV,118.49,R,4.2,N,A*10
20220704 110553+00:00 $IIMDA,29.9,I,1.011,B,12.6,C,,C,91.3,,,C,,T,,M,,N,,M*27
20220704 110553+00:00 $HCHDT,128.3,T*21
20220704 110553+00:00 $GPRMC,110548,A,4901.2096,N,12606.2700,W,9.41,130,040722,12.2,E,A,V*6F
20220704 110553+00:00 $WIMWV,117.7,R,4.3,N,A*24
20220704 110555+00:00 $IIMDA,29.9,I,1.011,B,12.6,C,,C,91.4,,,C,,T,,M,,N,,M*20
20220704 110555+00:00 $HCHDT,128.4,T*26
20220704 110555+00:00 $GPRMC,110550,A,4901.2096,N,12606.2598,W,9.41,130,040722,12.2,E,A,V*65
20220704 110555+00:00 $WIMWV,121.39,R,4.59,N,A*23
20220704 110557+00:00 $IIMDA,29.9,I,1.011,B,12.6,C,,C,91.4,,,C,,T,,M,,N,,M*20
20220704 110557+00:00 $HCHDT,128.6,T*24
20220704 110557+00:00 $GPRMC,110552,A,4901.2096,N,12606.2598,W,9.51,130,040722,12.2,E,A,V*66
20220704 110557+00:00 $WIMWV,122.8,R,5.7,N,A*28
20220704 110559+00:00 $IIMDA,29.9,I,1.011,B,12.6,C,,C,91.4,,,C,,T,,M,,N,,M*20
20220704 110559+00:00 $HCHDT,128.6,T*24
20220704 110559+00:00 $GPRMC,110554,A,4901.2000,N,12606.2496,W,9.51,131,040722,12.2,E,A,V*61
20220704 110559+00:00 $WIMWV,118.49,R,3.6,N,A*13
20220704 110601+00:00 $IIMDA,29.9,I,1.011,B,12.6,C,,C,91.4,,,C,,T,,M,,N,,M*20
20220704 110601+00:00 $HCHDT,128.2,T*20
20220704 110601+00:00 $GPRMC,110556,A,4901.2000,N,12606.2496,W,9.51,131,040722,12.2,E,A,V*63
20220704 110601+00:00 $WIMWV,127.4,R,5,N,A*38
20220704 110603+00:00 $IIMDA,29.9,I,1.011,B,12.6,C,,C,91.3,,,C,,T,,M,,N,,M*27
20220704 110603+00:00 $HCHDT,127.7,T*2A
20220704 110603+00:00 $GPRMC,110558,A,4901.1898,N,12606.2400,W,9.51,131,040722,12.2,E,A,V*68
20220704 110603+00:00 $WIMWV,123.59,R,3.89,N,A*2D
20220704 110605+00:00 $IIMDA,29.9,I,1.011,B,12.6,C,,C,91.3,,,C,,T,,M,,N,,M*27
20220704 110605+00:00 $HCHDT,127.9,T*24
20220704 110605+00:00 $GPRMC,110600,A,4901.1898,N,12606.2298,W,9.51,131,040722,12.2,E,A,V*61
20220704 110605+00:00 $WIMWV,104.3,R,2.8,N,A*2F
20220704 110607+00:00 $IIMDA,29.9,I,1.011,B,12.6,C,,C,91.4,,,C,,T,,M,,N,,M*20
20220704 110607+00:00 $HCHDT,128.1,T*23
20220704 110607+00:00 $GPRMC,110602,A,4901.1898,N,12606.2196,W,9.51,131,040722,12.2,E,A,V*6E
20220704 110607+00:00 $WIMWV,115.5,R,2.9,N,A*28
20220704 110609+00:00 $IIMDA,29.9,I,1.011,B,12.6,C,,C,91.4,,,C,,T,,M,,N,,M*20
20220704 110609+00:00 $HCHDT,128.1,T*23
20220704 110609+00:00 $GPRMC,110604,A,4901.1796,N,12606.2196,W,9.51,131,040722,12.2,E,A,V*69
20220704 110609+00:00 $WIMWV,126.5,R,3.98,N,A*11
20220704 110611+00:00 $IIMDA,29.9,I,1.011,B,12.6,C,,C,91.4,,,C,,T,,M,,N,,M*20
20220704 110611+00:00 $HCHDT,127.8,T*25
20220704 110611+00:00 $GPRMC,110606,A,4901.1796,N,12606.2196,W,9.51,131,040722,12.2,E,A,V*6B
20220704 110611+00:00 $WIMWV,106.39,R,4.49,N,A*27
20220704 110613+00:00 $IIMDA,29.9,I,1.011,B,12.6,C,,C,91.4,,,C,,T,,M,,N,,M*20
20220704 110613+00:00 $HCHDT,127.4,T*29
20220704 110613+00:00 $GPRMC,110608,A,4901.1796,N,12606.2100,W,9.51,131,040722,12.2,E,A,V*6A
20220704 110613+00:00 $WIMWV,129,R,4.68,N,A*0D
20220704 110615+00:00 $IIMDA,29.9,I,1.011,B,12.6,C,,C,91.4,,,C,,T,,M,,N,,M*20
20220704 110615+00:00 $HCHDT,126.9,T*25
20220704 110615+00:00 $GPRMC,110610,A,4901.1796,N,12606.2100,W,9.51,131,040722,12.2,E,A,V*63
20220704 110615+00:00 $WIMWV,120.89,R,5.89,N,A*25
20220704 110617+00:00 $IIMDA,29.9,I,1.011,B,12.6,C,,C,91.3,,,C,,T,,M,,N,,M*27
20220704 110617+00:00 $HCHDT,127.4,T*29
20220704 110617+00:00 $GPRMC,110612,A,4901.1700,N,12606.1896,W,9.51,131,040722,12.2,E,A,V*6B
20220704 110617+00:00 $WIMWV,121.7,R,4.49,N,A*1F
20220704 110619+00:00 $IIMDA,29.9,I,1.011,B,12.6,C,,C,91.4,,,C,,T,,M,,N,,M*20
20220704 110619+00:00 $HCHDT,128,T*3C
20220704 110619+00:00 $GPRMC,110614,A,4901.1700,N,12606.1896,W,9.41,131,040722,12.2,E,A,V*6C
20220704 110619+00:00 $WIMWV,172.59,R,2.68,N,A*27
20220704 110621+00:00 $IIMDA,29.9,I,1.011,B,12.6,C,,C,91.3,,,C,,T,,M,,N,,M*27
20220704 110621+00:00 $HCHDT,127.9,T*24
20220704 110621+00:00 $GPRMC,110616,A,4901.1598,N,12606.1800,W,9.41,130,040722,12.2,E,A,V*63
20220704 110621+00:00 $WIMWV,141.1,R,3.5,N,A*20
20220704 110623+00:00 $IIMDA,29.9,I,1.011,B,12.6,C,,C,91.4,,,C,,T,,M,,N,,M*20
20220704 110623+00:00 $HCHDT,127.9,T*24
20220704 110623+00:00 $GPRMC,110618,A,4901.1598,N,12606.1698,W,9.41,130,040722,12.2,E,A,V*62
20220704 110623+00:00 $WIMWV,125.7,R,3.6,N,A*27
20220704 110625+00:00 $IIMDA,29.9,I,1.011,B,12.6,C,,C,91.4,,,C,,T,,M,,N,,M*20
20220704 110625+00:00 $HCHDT,128.1,T*23
20220704 110625+00:00 $GPRMC,110620,A,4901.1598,N,12606.1698,W,9.51,130,040722,12.2,E,A,V*68
20220704 110625+00:00 $WIMWV,122.4,R,6.08,N,A*18
20220704 110627+00:00 $IIMDA,29.9,I,1.011,B,12.6,C,,C,91.4,,,C,,T,,M,,N,,M*20
20220704 110627+00:00 $HCHDT,127.7,T*2A
20220704 110627+00:00 $GPRMC,110622,A,4901.1598,N,12606.1698,W,9.51,130,040722,12.2,E,A,V*6A
20220704 110627+00:00 $WIMWV,118.29,R,4.59,N,A*28
20220704 110629+00:00 $IIMDA,29.9,I,1.011,B,12.6,C,,C,91.4,,,C,,T,,M,,N,,M*20
20220704 110629+00:00 $HCHDT,127.4,T*29
20220704 110629+00:00 $GPRMC,110624,A,4901.1496,N,12606.1596,W,9.41,130,040722,12.2,E,A,V*6F
20220704 110629+00:00 $WIMWV,149.1,R,3.89,N,A*1C
20220704 110631+00:00 $IIMDA,29.9,I,1.011,B,12.6,C,,C,91.4,,,C,,T,,M,,N,,M*20
20220704 110631+00:00 $HCHDT,128.3,T*21
20220704 110631+00:00 $GPRMC,110626,A,4901.1496,N,12606.1596,W,9.41,130,040722,12.2,E,A,V*6D
20220704 110631+00:00 $WIMWV,175.5,R,2.2,N,A*25
20220704 110633+00:00 $IIMDA,29.9,I,1.011,B,12.6,C,,C,91.4,,,C,,T,,M,,N,,M*20
20220704 110633+00:00 $HCHDT,128.7,T*25
20220704 110633+00:00 $GPRMC,110628,A,4901.1496,N,12606.1500,W,9.41,130,040722,12.2,E,A,V*6C
20220704 110633+00:00 $WIMWV,116.6,R,2.99,N,A*11
20220704 110635+00:00 $IIMDA,29.9,I,1.011,B,12.6,C,,C,91.3,,,C,,T,,M,,N,,M*27
20220704 110635+00:00 $HCHDT,128.3,T*21
20220704 110635+00:00 $GPRMC,110630,A,4901.1400,N,12606.1398,W,9.41,131,040722,12.2,E,A,V*6C
20220704 110635+00:00 $WIMWV,129.09,R,2.49,N,A*2F
20220704 110637+00:00 $IIMDA,29.9,I,1.011,B,12.6,C,,C,91.3,,,C,,T,,M,,N,,M*27
20220704 110637+00:00 $HCHDT,127.9,T*24
20220704 110637+00:00 $GPRMC,110632,A,4901.1400,N,12606.1296,W,9.41,131,040722,12.2,E,A,V*61
20220704 110637+00:00 $WIMWV,112.2,R,3.09,N,A*19
20220704 110639+00:00 $IIMDA,29.9,I,1.011,B,12.6,C,,C,91.3,,,C,,T,,M,,N,,M*27
20220704 110639+00:00 $HCHDT,126.9,T*25
20220704 110639+00:00 $GPRMC,110634,A,4901.1298,N,12606.1296,W,9.51,130,040722,12.2,E,A,V*60
20220704 110639+00:00 $WIMWV,160.5,R,1.79,N,A*1E
20220704 110641+00:00 $IIMDA,29.9,I,1.011,B,12.6,C,,C,91.3,,,C,,T,,M,,N,,M*27
20220704 110641+00:00 $HCHDT,127,T*33
20220704 110641+00:00 $GPRMC,110636,A,4901.1298,N,12606.1200,W,9.51,130,040722,12.2,E,A,V*6D
20220704 110641+00:00 $WIMWV,142,R,3.89,N,A*08
20220704 110643+00:00 $IIMDA,29.9,I,1.011,B,12.6,C,,C,91.3,,,C,,T,,M,,N,,M*27
20220704 110643+00:00 $HCHDT,127.7,T*2A
20220704 110643+00:00 $GPRMC,110638,A,4901.1298,N,12606.1200,W,9.41,130,040722,12.2,E,A,V*62
20220704 110643+00:00 $WIMWV,110,R,2.2,N,A*3D
20220704 110645+00:00 $IIMDA,29.9,I,1.011,B,12.6,C,,C,91.3,,,C,,T,,M,,N,,M*27
20220704 110645+00:00 $HCHDT,127.7,T*2A
20220704 110645+00:00 $GPRMC,110640,A,4901.1298,N,12606.1098,W,9.41,130,040722,12.2,E,A,V*6E
20220704 110645+00:00 $WIMWV,118.49,R,2.29,N,A*2F
20220704 110647+00:00 $IIMDA,29.9,I,1.011,B,12.6,C,,C,91.4,,,C,,T,,M,,N,,M*20
20220704 110647+00:00 $HCHDT,126.8,T*24
20220704 110647+00:00 $GPRMC,110642,A,4901.1196,N,12606.0996,W,9.41,130,040722,12.2,E,A,V*67
20220704 110647+00:00 $WIMWV,173.19,R,2.8,N,A*14
20220704 110649+00:00 $IIMDA,29.9,I,1.011,B,12.6,C,,C,91.3,,,C,,T,,M,,N,,M*27
20220704 110649+00:00 $HCHDT,126.4,T*28
20220704 110649+00:00 $GPRMC,110644,A,4901.1196,N,12606.0996,W,9.41,130,040722,12.2,E,A,V*61
20220704 110649+00:00 $WIMWV,133.6,R,2.49,N,A*1B
20220704 110651+00:00 $IIMDA,29.9,I,1.011,B,12.6,C,,C,91.4,,,C,,T,,M,,N,,M*20
20220704 110651+00:00 $HCHDT,126.2,T*2E
20220704 110651+00:00 $GPRMC,110646,A,4901.1100,N,12606.0900,W,9.41,129,040722,12.2,E,A,V*6B
20220704 110651+00:00 $WIMWV,122.69,R,3.89,N,A*2F
20220704 110653+00:00 $IIMDA,29.9,I,1.011,B,12.6,C,,C,91.4,,,C,,T,,M,,N,,M*20
20220704 110653+00:00 $HCHDT,126.5,T*29
20220704 110653+00:00 $GPRMC,110648,A,4901.1100,N,12606.0798,W,9.41,129,040722,12.2,E,A,V*6A
20220704 110653+00:00 $WIMWV,111.5,R,1.98,N,A*17
20220704 110655+00:00 $IIMDA,29.9,I,1.011,B,12.6,C,,C,91.4,,,C,,T,,M,,N,,M*20
20220704 110655+00:00 $HCHDT,127.9,T*24
20220704 110655+00:00 $GPRMC,110650,A,4901.1100,N,12606.0798,W,9.41,129,040722,12.2,E,A,V*63
20220704 110655+00:00 $WIMWV,72.99,R,2.1,N,A*25
20220704 110657+00:00 $IIMDA,29.9,I,1.011,B,12.6,C,,C,91.4,,,C,,T,,M,,N,,M*20
20220704 110657+00:00 $HCHDT,128.9,T*2B
20220704 110657+00:00 $GPRMC,110652,A,4901.0998,N,12606.0696,W,9.41,130,040722,12.2,E,A,V*6E
20220704 110657+00:00 $WIMWV,152.89,R,2.2,N,A*14
20220704 110659+00:00 $IIMDA,29.9,I,1.011,B,12.6,C,,C,91.4,,,C,,T,,M,,N,,M*20
20220704 110659+00:00 $HCHDT,128.1,T*23
20220704 110659+00:00 $GPRMC,110654,A,4901.0998,N,12606.0696,W,9.41,130,040722,12.2,E,A,V*68
20220704 110659+00:00 $WIMWV,176.2,R,3.69,N,A*1D
20220704 110701+00:00 $IIMDA,29.9,I,1.011,B,12.6,C,,C,91.4,,,C,,T,,M,,N,,M*20
20220704 110701+00:00 $HCHDT,127.7,T*2A
20220704 110701+00:00 $GPRMC,110656,A,4901.0998,N,12606.0600,W,9.51,130,040722,12.2,E,A,V*64
20220704 110701+00:00 $WIMWV,147.1,R,3.19,N,A*1B
20220704 110703+00:00 $IIMDA,29.9,I,1.011,B,12.6,C,,C,91.4,,,C,,T,,M,,N,,M*20
20220704 110703+00:00 $HCHDT,127.2,T*2F
20220704 110703+00:00 $GPRMC,110658,A,4901.0896,N,12606.0498,W,9.41,130,040722,12.2,E,A,V*67
20220704 110703+00:00 $WIMWV,112.09,R,2.29,N,A*21
20220704 110705+00:00 $IIMDA,29.9,I,1.011,B,12.6,C,,C,91.4,,,C,,T,,M,,N,,M*20
20220704 110705+00:00 $HCHDT,127.8,T*25
20220704 110705+00:00 $GPRMC,110700,A,4901.0896,N,12606.0498,W,9.41,130,040722,12.2,E,A,V*6B
20220704 110705+00:00 $WIMWV,120.69,R,2.39,N,A*27
20220704 110707+00:00 $IIMDA,29.9,I,1.011,B,12.6,C,,C,91.5,,,C,,T,,M,,N,,M*21
20220704 110707+00:00 $HCHDT,128.1,T*23
20220704 110707+00:00 $GPRMC,110702,A,4901.0896,N,12606.0396,W,9.41,130,040722,12.2,E,A,V*60
20220704 110707+00:00 $WIMWV,125.29,R,1.79,N,A*21
20220704 110709+00:00 $IIMDA,29.9,I,1.011,B,12.6,C,,C,91.5,,,C,,T,,M,,N,,M*21
20220704 110709+00:00 $HCHDT,128.5,T*27
20220704 110709+00:00 $GPRMC,110704,A,4901.0896,N,12606.0396,W,9.41,130,040722,12.2,E,A,V*66
20220704 110709+00:00 $WIMWV,66.9,R,1.4,N,A*1F
20220704 110711+00:00 $IIMDA,29.9,I,1.011,B,12.6,C,,C,91.5,,,C,,T,,M,,N,,M*21
20220704 110711+00:00 $HCHDT,127.7,T*2A
20220704 110711+00:00 $GPRMC,110706,A,4901.0800,N,12606.0300,W,9.41,130,040722,12.2,E,A,V*64
20220704 110711+00:00 $WIMWV,121.5,R,2.59,N,A*1A
20220704 110713+00:00 $IIMDA,29.9,I,1.011,B,12.6,C,,C,91.5,,,C,,T,,M,,N,,M*21
20220704 110713+00:00 $HCHDT,127.3,T*2E
20220704 110713+00:00 $GPRMC,110708,A,4901.0800,N,12606.0300,W,9.41,130,040722,12.2,E,A,V*6A
20220704 110713+00:00 $WIMWV,175.89,R,2.39,N,A*29
20220704 110715+00:00 $IIMDA,29.9,I,1.011,B,12.6,C,,C,91.6,,,C,,T,,M,,N,,M*22
20220704 110715+00:00 $HCHDT,127.6,T*2B
20220704 110715+00:00 $GPRMC,110710,A,4901.0698,N,12606.0198,W,9.41,130,040722,12.2,E,A,V*6F
20220704 110715+00:00 $WIMWV,127.4,R,4.08,N,A*1F
20220704 110717+00:00 $IIMDA,29.9,I,1.011,B,12.6,C,,C,91.6,,,C,,T,,M,,N,,M*22
20220704 110717+00:00 $HCHDT,127.8,T*25
20220704 110717+00:00 $GPRMC,110712,A,4901.0698,N,12606.0096,W,9.41,130,040722,12.2,E,A,V*62
20220704 110717+00:00 $WIMWV,138.59,R,0.29,N,A*2E
20220704 110719+00:00 $IIMDA,29.9,I,1.011,B,12.6,C,,C,91.5,,,C,,T,,M,,N,,M*21
20220704 110719+00:00 $HCHDT,128.1,T*23
20220704 110719+00:00 $GPRMC,110714,A,4901.0698,N,12606.0000,W,9.41,130,040722,12.2,E,A,V*6B
20220704 110719+00:00 $WIMWV,153.79,R,2.39,N,A*22
20220704 110721+00:00 $IIMDA,29.9,I,1.011,B,12.6,C,,C,91.6,,,C,,T,,M,,N,,M*22
20220704 110721+00:00 $HCHDT,128.1,T*23
20220704 110721+00:00 $GPRMC,110716,A,4901.0698,N,12606.0000,W,9.41,130,040722,12.2,E,A,V*69
20220704 110721+00:00 $WIMWV,122.69,R,4.39,N,A*23
20220704 110723+00:00 $IIMDA,29.9,I,1.011,B,12.6,C,,C,91.6,,,C,,T,,M,,N,,M*22
20220704 110723+00:00 $HCHDT,128.2,T*20
20220704 110723+00:00 $GPRMC,110718,A,4901.0596,N,12605.9898,W,9.41,130,040722,12.2,E,A,V*69
20220704 110723+00:00 $WIMWV,129.4,R,2.68,N,A*11
20220704 110725+00:00 $IIMDA,29.9,I,1.011,B,12.6,C,,C,91.6,,,C,,T,,M,,N,,M*22
20220704 110725+00:00 $HCHDT,128.1,T*23
20220704 110725+00:00 $GPRMC,110720,A,4901.0596,N,12605.9898,W,9.41,130,040722,12.2,E,A,V*62
20220704 110725+00:00 $WIMWV,136.39,R,4.78,N,A*26
20220704 110727+00:00 $IIMDA,29.9,I,1.011,B,12.6,C,,C,91.6,,,C,,T,,M,,N,,M*22
20220704 110727+00:00 $HCHDT,128.1,T*23
20220704 110727+00:00 $GPRMC,110722,A,4901.0500,N,12605.9796,W,9.41,130,040722,12.2,E,A,V*6E
20220704 110727+00:00 $WIMWV,129.69,R,4.39,N,A*28
20220704 110729+00:00 $IIMDA,29.9,I,1.011,B,12.7,C,,C,91.6,,,C,,T,,M,,N,,M*23
20220704 110729+00:00 $HCHDT,128.3,T*21
20220704 110729+00:00 $GPRMC,110724,A,4901.0500,N,12605.9700,W,9.41,130,040722,12.2,E,A,V*67
20220704 110729+00:00 $WIMWV,125.29,R,3.79,N,A*23
20220704 110731+00:00 $IIMDA,29.9,I,1.011,B,12.7,C,,C,91.6,,,C,,T,,M,,N,,M*23
20220704 110731+00:00 $HCHDT,128,T*3C
20220704 110731+00:00 $GPRMC,110726,A,4901.0500,N,12605.9700,W,9.41,130,040722,12.2,E,A,V*65
20220704 110731+00:00 $WIMWV,111.3,R,3.89,N,A*13
20220704 110733+00:00 $IIMDA,29.9,I,1.011,B,12.7,C,,C,91.7,,,C,,T,,M,,N,,M*22
20220704 110733+00:00 $HCHDT,127.4,T*29
20220704 110733+00:00 $GPRMC,110728,A,4901.0398,N,12605.9598,W,9.41,130,040722,12.2,E,A,V*6F
20220704 110733+00:00 $WIMWV,144.99,R,2.99,N,A*20
20220704 110735+00:00 $IIMDA,29.9,I,1.011,B,12.7,C,,C,91.7,,,C,,T,,M,,N,,M*22
20220704 110735+00:00 $HCHDT,127.8,T*25
20220704 110735+00:00 $GPRMC,110730,A,4901.0398,N,12605.9598,W,9.41,130,040722,12.2,E,A,V*66
20220704 110735+00:00 $WIMWV,176.49,R,3.19,N,A*25
20220704 110737+00:00 $IIMDA,29.9,I,1.011,B,12.7,C,,C,91.7,,,C,,T,,M,,N,,M*22
20220704 110737+00:00 $HCHDT,128.3,T*21
20220704 110737+00:00 $GPRMC,110732,A,4901.0398,N,12605.9598,W,9.41,130,040722,12.2,E,A,V*64
20220704 110737+00:00 $WIMWV,127.6,R,3.19,N,A*1A
20220704 110739+00:00 $IIMDA,29.9,I,1.011,B,12.7,C,,C,91.7,,,C,,T,,M,,N,,M*22
20220704 110739+00:00 $HCHDT,127.8,T*25
20220704 110739+00:00 $GPRMC,110734,A,4901.0296,N,12605.9400,W,9.41,131,040722,12.2,E,A,V*6C
20220704 110739+00:00 $WIMWV,133.4,R,1.79,N,A*19
20220704 110741+00:00 $IIMDA,29.9,I,1.011,B,12.7,C,,C,91.6,,,C,,T,,M,,N,,M*23
20220704 110741+00:00 $HCHDT,127.8,T*25
20220704 110741+00:00 $GPRMC,110736,A,4901.0296,N,12605.9400,W,9.41,131,040722,12.2,E,A,V*6E
