20220704 030001+00:00 $IIMDA,29.9,I,1.011,B,13.3,C,,C,92.4,,,C,,T,,M,,N,,M*27
20220704 030001+00:00 $HCHDT,4.9,T*24
20220704 030001+00:00 $GPRMC,025956,A,4938.8800,N,12605.5200,W,2.2,14,040722,12.2,E,A,V*66
20220704 030001+00:00 $WIMWV,26.89,R,2.68,N,A*1A
20220704 030003+00:00 $IIMDA,29.9,I,1.011,B,13.3,C,,C,92.5,,,C,,T,,M,,N,,M*26
20220704 030003+00:00 $HCHDT,3.6,T*2C
20220704 030003+00:00 $GPRMC,025958,A,4938.8800,N,12605.5200,W,2.2,12,040722,12.2,E,A,V*6E
20220704 030003+00:00 $WIMWV,24.1,R,2.29,N,A*2D
20220704 030005+00:00 $IIMDA,29.9,I,1.011,B,13.3,C,,C,92.5,,,C,,T,,M,,N,,M*26
20220704 030005+00:00 $HCHDT,2,T*35
20220704 030005+00:00 $GPRMC,030000,A,4938.8800,N,12605.5200,W,2.2,10,040722,12.2,E,A,V*6C
20220704 030005+00:00 $WIMWV,24,R,1.98,N,A*3B
20220704 030007+00:00 $IIMDA,29.9,I,1.011,B,13.3,C,,C,92.5,,,C,,T,,M,,N,,M*26
20220704 030007+00:00 $HCHDT,0.5,T*2C
20220704 030007+00:00 $GPRMC,030002,A,4938.8896,N,12605.5200,W,2.2,8,040722,12.2,E,A,V*58
20220704 030007+00:00 $WIMWV,21.59,R,1.98,N,A*1C
20220704 030009+00:00 $IIMDA,29.9,I,1.011,B,13.3,C,,C,92.5,,,C,,T,,M,,N,,M*26
20220704 030009+00:00 $HCHDT,358.5,T*22
20220704 030009+00:00 $GPRMC,030004,A,4938.8896,N,12605.5200,W,2.2,6,040722,12.2,E,A,V*50
20220704 030009+00:00 $WIMWV,22.1,R,1.69,N,A*2C
20220704 030011+00:00 $IIMDA,29.9,I,1.011,B,13.3,C,,C,92.5,,,C,,T,,M,,N,,M*26
20220704 030011+00:00 $HCHDT,357.1,T*29
20220704 030011+00:00 $GPRMC,030006,A,4938.8896,N,12605.5200,W,2.2,4,040722,12.2,E,A,V*50
20220704 030011+00:00 $WIMWV,20.6,R,1.59,N,A*2A
20220704 030013+00:00 $IIMDA,29.9,I,1.011,B,13.3,C,,C,92.5,,,C,,T,,M,,N,,M*26
20220704 030013+00:00 $HCHDT,355.6,T*2C
20220704 030013+00:00 $GPRMC,030008,A,4938.8896,N,12605.5200,W,2.2,2,040722,12.2,E,A,V*58
20220704 030013+00:00 $WIMWV,22.49,R,1.89,N,A*1E
20220704 030015+00:00 $IIMDA,29.9,I,1.011,B,13.3,C,,C,92.5,,,C,,T,,M,,N,,M*26
20220704 030015+00:00 $HCHDT,354.2,T*29
20220704 030015+00:00 $GPRMC,030010,A,4938.8896,N,12605.5200,W,2.2,0,040722,12.2,E,A,V*53
20220704 030015+00:00 $WIMWV,16.5,R,1.59,N,A*2C
20220704 030017+00:00 $IIMDA,29.9,I,1.011,B,13.3,C,,C,92.5,,,C,,T,,M,,N,,M*26
20220704 030017+00:00 $HCHDT,353.1,T*2D
20220704 030017+00:00 $GPRMC,030012,A,4938.8896,N,12605.5200,W,2.29,359,040722,12.2,E,A,V*67
20220704 030017+00:00 $WIMWV,20.49,R,1.69,N,A*12
20220704 030019+00:00 $IIMDA,29.9,I,1.011,B,13.3,C,,C,92.5,,,C,,T,,M,,N,,M*26
20220704 030019+00:00 $HCHDT,352,T*33
20220704 030019+00:00 $GPRMC,030014,A,4938.8896,N,12605.5200,W,2.29,357,040722,12.2,E,A,V*6F
20220704 030019+00:00 $WIMWV,24.6,R,2.2,N,A*13
20220704 030021+00:00 $IIMDA,29.9,I,1.011,B,13.3,C,,C,92.5,,,C,,T,,M,,N,,M*26
20220704 030021+00:00 $HCHDT,351.1,T*2F
20220704 030021+00:00 $GPRMC,030016,A,4938.8896,N,12605.5200,W,2.29,356,040722,12.2,E,A,V*6C
20220704 030021+00:00 $WIMWV,25.5,R,2.59,N,A*2F
20220704 030023+00:00 $IIMDA,29.9,I,1.011,B,13.3,C,,C,92.5,,,C,,T,,M,,N,,M*26
20220704 030023+00:00 $HCHDT,350.4,T*2B
20220704 030023+00:00 $GPRMC,030018,A,4938.8998,N,12605.5200,W,2.29,354,040722,12.2,E,A,V*6F
20220704 030023+00:00 $WIMWV,25,R,2.2,N,A*0A
20220704 030025+00:00 $IIMDA,29.9,I,1.011,B,13.3,C,,C,92.5,,,C,,T,,M,,N,,M*26
20220704 030025+00:00 $HCHDT,349.5,T*22
20220704 030025+00:00 $GPRMC,030020,A,4938.8998,N,12605.5200,W,2.29,354,040722,12.2,E,A,V*64
20220704 030025+00:00 $WIMWV,24.4,R,2.29,N,A*28
20220704 030027+00:00 $IIMDA,29.9,I,1.011,B,13.3,C,,C,92.5,,,C,,T,,M,,N,,M*26
20220704 030027+00:00 $HCHDT,349.1,T*26
20220704 030027+00:00 $GPRMC,030022,A,4938.8998,N,12605.5200,W,2.29,353,040722,12.2,E,A,V*61
20220704 030027+00:00 $WIMWV,24.9,R,2.39,N,A*24
20220704 030029+00:00 $IIMDA,29.9,I,1.011,B,13.3,C,,C,92.6,,,C,,T,,M,,N,,M*25
20220704 030029+00:00 $HCHDT,348.9,T*2F
20220704 030029+00:00 $GPRMC,030024,A,4938.8998,N,12605.5200,W,2.29,352,040722,12.2,E,A,V*66
20220704 030029+00:00 $WIMWV,23.5,R,2.29,N,A*2E
20220704 030031+00:00 $IIMDA,29.9,I,1.011,B,13.3,C,,C,92.6,,,C,,T,,M,,N,,M*25
20220704 030031+00:00 $HCHDT,349.1,T*26
20220704 030031+00:00 $GPRMC,030026,A,4938.8998,N,12605.5200,W,2.39,352,040722,12.2,E,A,V*65
20220704 030031+00:00 $WIMWV,12.3,R,1.79,N,A*2C
20220704 030033+00:00 $IIMDA,29.9,I,1.011,B,13.3,C,,C,92.6,,,C,,T,,M,,N,,M*25
20220704 030033+00:00 $HCHDT,349.6,T*21
20220704 030033+00:00 $GPRMC,030028,A,4938.8998,N,12605.5200,W,2.39,351,040722,12.2,E,A,V*68
20220704 030033+00:00 $WIMWV,10.5,R,1.89,N,A*27
20220704 030035+00:00 $IIMDA,29.9,I,1.011,B,13.3,C,,C,92.6,,,C,,T,,M,,N,,M*25
20220704 030035+00:00 $HCHDT,350.1,T*2E
20220704 030035+00:00 $GPRMC,030030,A,4938.8998,N,12605.5200,W,2.39,351,040722,12.2,E,A,V*61
20220704 030035+00:00 $WIMWV,7,R,1.5,N,A*3E
20220704 030037+00:00 $IIMDA,29.9,I,1.011,B,13.3,C,,C,92.6,,,C,,T,,M,,N,,M*25
20220704 030037+00:00 $HCHDT,350.8,T*27
20220704 030037+00:00 $GPRMC,030032,A,4938.9100,N,12605.5200,W,2.39,351,040722,12.2,E,A,V*6B
20220704 030037+00:00 $WIMWV,7,R,1.69,N,A*04
20220704 030039+00:00 $IIMDA,29.9,I,1.011,B,13.3,C,,C,92.6,,,C,,T,,M,,N,,M*25
20220704 030039+00:00 $HCHDT,351.8,T*26
20220704 030039+00:00 $GPRMC,030034,A,4938.9100,N,12605.5200,W,2.39,352,040722,12.2,E,A,V*6E
20220704 030039+00:00 $WIMWV,10,R,1.69,N,A*32
20220704 030041+00:00 $IIMDA,29.9,I,1.011,B,13.3,C,,C,92.6,,,C,,T,,M,,N,,M*25
20220704 030041+00:00 $HCHDT,352.6,T*2B
20220704 030041+00:00 $GPRMC,030036,A,4938.9100,N,12605.5200,W,2.39,352,040722,12.2,E,A,V*6C
20220704 030041+00:00 $WIMWV,14.3,R,1.79,N,A*2A
20220704 030043+00:00 $IIMDA,29.9,I,1.011,B,13.3,C,,C,92.6,,,C,,T,,M,,N,,M*25
20220704 030043+00:00 $HCHDT,353.4,T*28
20220704 030043+00:00 $GPRMC,030038,A,4938.9100,N,12605.5200,W,2.39,352,040722,12.2,E,A,V*62
20220704 030043+00:00 $WIMWV,5.9,R,1.5,N,A*2B
20220704 030045+00:00 $IIMDA,29.9,I,1.011,B,13.3,C,,C,92.6,,,C,,T,,M,,N,,M*25
20220704 030045+00:00 $HCHDT,354,T*35
20220704 030045+00:00 $GPRMC,030040,A,4938.9100,N,12605.5200,W,2.39,353,040722,12.2,E,A,V*6C
20220704 030045+00:00 $WIMWV,7.9,R,1.4,N,A*28
20220704 030047+00:00 $IIMDA,29.9,I,1.011,B,13.3,C,,C,92.6,,,C,,T,,M,,N,,M*25
20220704 030047+00:00 $HCHDT,354.5,T*2E
20220704 030047+00:00 $GPRMC,030042,A,4938.9100,N,12605.5200,W,2.39,353,040722,12.2,E,A,V*6E
20220704 030047+00:00 $WIMWV,0.19,R,1.28,N,A*20
20220704 030049+00:00 $IIMDA,29.9,I,1.011,B,13.3,C,,C,92.6,,,C,,T,,M,,N,,M*25
20220704 030049+00:00 $HCHDT,354.7,T*2C
20220704 030049+00:00 $GPRMC,030044,A,4938.9100,N,12605.5200,W,2.51,353,040722,12.2,E,A,V*66
20220704 030049+00:00 $WIMWV,350.69,R,2.1,N,A*19
20220704 030051+00:00 $IIMDA,29.9,I,1.011,B,13.3,C,,C,92.6,,,C,,T,,M,,N,,M*25
20220704 030051+00:00 $HCHDT,354.6,T*2D
20220704 030051+00:00 $GPRMC,030046,A,4938.9100,N,12605.5200,W,2.51,353,040722,12.2,E,A,V*64
20220704 030051+00:00 $WIMWV,343.29,R,2.1,N,A*1F
20220704 030053+00:00 $IIMDA,29.9,I,1.011,B,13.3,C,,C,92.6,,,C,,T,,M,,N,,M*25
20220704 030053+00:00 $HCHDT,354.2,T*29
20220704 030053+00:00 $GPRMC,030048,A,4938.9196,N,12605.5200,W,2.51,352,040722,12.2,E,A,V*64
20220704 030053+00:00 $WIMWV,343.59,R,1.98,N,A*2B
20220704 030055+00:00 $IIMDA,29.9,I,1.011,B,13.3,C,,C,92.6,,,C,,T,,M,,N,,M*25
20220704 030055+00:00 $HCHDT,353.6,T*2A
20220704 030055+00:00 $GPRMC,030050,A,4938.9196,N,12605.5296,W,2.51,352,040722,12.2,E,A,V*62
20220704 030055+00:00 $WIMWV,340.59,R,2.2,N,A*18
20220704 030057+00:00 $IIMDA,29.9,I,1.011,B,13.3,C,,C,92.7,,,C,,T,,M,,N,,M*24
20220704 030057+00:00 $HCHDT,352.9,T*24
20220704 030057+00:00 $GPRMC,030052,A,4938.9196,N,12605.5296,W,2.6,351,040722,12.2,E,A,V*51
20220704 030057+00:00 $WIMWV,333.99,R,1.89,N,A*20
20220704 030059+00:00 $IIMDA,29.9,I,1.011,B,13.3,C,,C,92.7,,,C,,T,,M,,N,,M*24
20220704 030059+00:00 $HCHDT,352.4,T*29
20220704 030059+00:00 $GPRMC,030054,A,4938.9196,N,12605.5296,W,2.6,350,040722,12.2,E,A,V*56
20220704 030059+00:00 $WIMWV,340.19,R,1.98,N,A*2C
20220704 030101+00:00 $IIMDA,29.9,I,1.011,B,13.3,C,,C,92.6,,,C,,T,,M,,N,,M*25
20220704 030101+00:00 $HCHDT,352,T*33
20220704 030101+00:00 $GPRMC,030056,A,4938.9196,N,12605.5296,W,2.6,350,040722,12.2,E,A,V*54
20220704 030101+00:00 $WIMWV,341.19,R,1.89,N,A*2D
20220704 030103+00:00 $IIMDA,29.9,I,1.011,B,13.3,C,,C,92.7,,,C,,T,,M,,N,,M*24
20220704 030103+00:00 $HCHDT,351.8,T*26
20220704 030103+00:00 $GPRMC,030058,A,4938.9196,N,12605.5296,W,2.6,350,040722,12.2,E,A,V*5A
20220704 030103+00:00 $WIMWV,340.39,R,2.1,N,A*1D
20220704 030105+00:00 $IIMDA,29.9,I,1.011,B,13.3,C,,C,92.7,,,C,,T,,M,,N,,M*24
20220704 030105+00:00 $HCHDT,351.9,T*27
20220704 030105+00:00 $GPRMC,030100,A,4938.9196,N,12605.5296,W,2.6,349,040722,12.2,E,A,V*5E
20220704 030105+00:00 $WIMWV,336.19,R,1.89,N,A*2D
20220704 030107+00:00 $IIMDA,29.9,I,1.011,B,13.3,C,,C,92.7,,,C,,T,,M,,N,,M*24
20220704 030107+00:00 $HCHDT,352.4,T*29
20220704 030107+00:00 $GPRMC,030102,A,4938.9298,N,12605.5296,W,2.51,349,040722,12.2,E,A,V*63
20220704 030107+00:00 $WIMWV,337.19,R,1.59,N,A*21
20220704 030109+00:00 $IIMDA,29.9,I,1.011,B,13.3,C,,C,92.7,,,C,,T,,M,,N,,M*24
20220704 030109+00:00 $HCHDT,353.6,T*2A
20220704 030109+00:00 $GPRMC,030104,A,4938.9298,N,12605.5296,W,2.51,349,040722,12.2,E,A,V*65
20220704 030109+00:00 $WIMWV,331.99,R,1.5,N,A*16
20220704 030111+00:00 $IIMDA,29.9,I,1.011,B,13.3,C,,C,92.7,,,C,,T,,M,,N,,M*24
20220704 030111+00:00 $HCHDT,354.9,T*22
20220704 030111+00:00 $GPRMC,030106,A,4938.9298,N,12605.5296,W,2.51,350,040722,12.2,E,A,V*6F
20220704 030111+00:00 $WIMWV,7.3,R,1.4,N,A*22
20220704 030113+00:00 $IIMDA,29.9,I,1.011,B,13.3,C,,C,92.7,,,C,,T,,M,,N,,M*24
20220704 030113+00:00 $HCHDT,356.8,T*21
20220704 030113+00:00 $GPRMC,030108,A,4938.9298,N,12605.5296,W,2.39,350,040722,12.2,E,A,V*6F
20220704 030113+00:00 $WIMWV,12.4,R,1.28,N,A*2F
20220704 030115+00:00 $IIMDA,29.9,I,1.011,B,13.3,C,,C,92.7,,,C,,T,,M,,N,,M*24
20220704 030115+00:00 $HCHDT,358.8,T*2F
20220704 030115+00:00 $GPRMC,030110,A,4938.9298,N,12605.5296,W,2.29,351,040722,12.2,E,A,V*66
20220704 030115+00:00 $WIMWV,0.19,R,1.19,N,A*22
20220704 030117+00:00 $IIMDA,29.9,I,1.011,B,13.3,C,,C,92.8,,,C,,T,,M,,N,,M*2B
20220704 030117+00:00 $HCHDT,1,T*36
20220704 030117+00:00 $GPRMC,030112,A,4938.9298,N,12605.5296,W,2.2,352,040722,12.2,E,A,V*5E
20220704 030117+00:00 $WIMWV,0.19,R,0.7,N,A*1C
20220704 030119+00:00 $IIMDA,29.9,I,1.011,B,13.3,C,,C,92.8,,,C,,T,,M,,N,,M*2B
20220704 030119+00:00 $HCHDT,3.1,T*2B
20220704 030119+00:00 $GPRMC,030114,A,4938.9298,N,12605.5296,W,2.1,354,040722,12.2,E,A,V*5D
20220704 030119+00:00 $WIMWV,91.7,R,0.19,N,A*24
20220704 030121+00:00 $IIMDA,29.9,I,1.011,B,13.3,C,,C,92.7,,,C,,T,,M,,N,,M*24
20220704 030121+00:00 $HCHDT,5,T*32
20220704 030121+00:00 $GPRMC,030116,A,4938.9298,N,12605.5296,W,2.1,355,040722,12.2,E,A,V*5E
20220704 030121+00:00 $WIMWV,103.2,R,0.7,N,A*24
20220704 030123+00:00 $IIMDA,29.9,I,1.011,B,13.3,C,,C,92.8,,,C,,T,,M,,N,,M*2B
20220704 030123+00:00 $HCHDT,6.9,T*26
20220704 030123+00:00 $GPRMC,030118,A,4938.9400,N,12605.5296,W,2,355,040722,12.2,E,A,V*48
20220704 030123+00:00 $WIMWV,343.99,R,0.49,N,A*2A
20220704 030125+00:00 $IIMDA,29.9,I,1.011,B,13.3,C,,C,92.8,,,C,,T,,M,,N,,M*2B
20220704 030125+00:00 $HCHDT,8.2,T*23
20220704 030125+00:00 $GPRMC,030120,A,4938.9400,N,12605.5296,W,1.9,356,040722,12.2,E,A,V*54
20220704 030125+00:00 $WIMWV,0.19,R,0.89,N,A*2A
20220704 030127+00:00 $IIMDA,29.9,I,1.011,B,13.3,C,,C,92.8,,,C,,T,,M,,N,,M*2B
20220704 030127+00:00 $HCHDT,9.2,T*22
20220704 030127+00:00 $GPRMC,030122,A,4938.9400,N,12605.5296,W,1.81,356,040722,12.2,E,A,V*66
20220704 030127+00:00 $WIMWV,328.79,R,1.28,N,A*2F
20220704 030129+00:00 $IIMDA,29.9,I,1.011,B,13.3,C,,C,92.8,,,C,,T,,M,,N,,M*2B
20220704 030129+00:00 $HCHDT,9.9,T*29
20220704 030129+00:00 $GPRMC,030124,A,4938.9400,N,12605.5296,W,1.69,356,040722,12.2,E,A,V*66
20220704 030129+00:00 $WIMWV,329.09,R,1.69,N,A*2C
20220704 030131+00:00 $IIMDA,29.9,I,1.011,B,13.3,C,,C,92.8,,,C,,T,,M,,N,,M*2B
20220704 030131+00:00 $HCHDT,10.2,T*1A
20220704 030131+00:00 $GPRMC,030126,A,4938.9400,N,12605.5296,W,1.59,356,040722,12.2,E,A,V*67
20220704 030131+00:00 $WIMWV,309.79,R,1.5,N,A*13
20220704 030133+00:00 $IIMDA,29.9,I,1.011,B,13.3,C,,C,92.8,,,C,,T,,M,,N,,M*2B
20220704 030133+00:00 $HCHDT,10.2,T*1A
20220704 030133+00:00 $GPRMC,030128,A,4938.9400,N,12605.5296,W,1.59,355,040722,12.2,E,A,V*6A
20220704 030133+00:00 $WIMWV,302.89,R,1.09,N,A*2B
20220704 030135+00:00 $IIMDA,29.9,I,1.011,B,13.3,C,,C,92.8,,,C,,T,,M,,N,,M*2B
20220704 030135+00:00 $HCHDT,9.9,T*29
20220704 030135+00:00 $GPRMC,030130,A,4938.9400,N,12605.5296,W,1.4,354,040722,12.2,E,A,V*5A
20220704 030135+00:00 $WIMWV,337.09,R,1.09,N,A*25
20220704 030137+00:00 $IIMDA,29.9,I,1.011,B,13.3,C,,C,92.8,,,C,,T,,M,,N,,M*2B
20220704 030137+00:00 $HCHDT,9.4,T*24
20220704 030137+00:00 $GPRMC,030132,A,4938.9400,N,12605.5296,W,1.3,353,040722,12.2,E,A,V*58
20220704 030137+00:00 $WIMWV,334.89,R,1.28,N,A*2D
20220704 030139+00:00 $IIMDA,29.9,I,1.011,B,13.3,C,,C,92.8,,,C,,T,,M,,N,,M*2B
20220704 030139+00:00 $HCHDT,8.7,T*26
20220704 030139+00:00 $GPRMC,030134,A,4938.9400,N,12605.5296,W,1.21,351,040722,12.2,E,A,V*6C
20220704 030139+00:00 $WIMWV,336.69,R,1.09,N,A*22
20220704 030141+00:00 $IIMDA,29.9,I,1.011,B,13.3,C,,C,92.8,,,C,,T,,M,,N,,M*2B
20220704 030141+00:00 $HCHDT,7.4,T*2A
20220704 030141+00:00 $GPRMC,030136,A,4938.9400,N,12605.5296,W,1.11,349,040722,12.2,E,A,V*64
20220704 030141+00:00 $WIMWV,343.69,R,1.09,N,A*20
20220704 030143+00:00 $IIMDA,29.9,I,1.011,B,13.3,C,,C,92.8,,,C,,T,,M,,N,,M*2B
20220704 030143+00:00 $HCHDT,6.1,T*2E
20220704 030143+00:00 $GPRMC,030138,A,4938.9400,N,12605.5296,W,1.11,347,040722,12.2,E,A,V*64
20220704 030143+00:00 $WIMWV,336.89,R,0.99,N,A*24
20220704 030145+00:00 $IIMDA,29.9,I,1.011,B,13.3,C,,C,92.8,,,C,,T,,M,,N,,M*2B
20220704 030145+00:00 $HCHDT,4.7,T*2A
20220704 030145+00:00 $GPRMC,030140,A,4938.9400,N,12605.5296,W,0.99,345,040722,12.2,E,A,V*68
20220704 030145+00:00 $WIMWV,333.89,R,0.99,N,A*21
20220704 030147+00:00 $IIMDA,29.9,I,1.011,B,13.3,C,,C,92.8,,,C,,T,,M,,N,,M*2B
20220704 030147+00:00 $HCHDT,3.6,T*2C
20220704 030147+00:00 $GPRMC,030142,A,4938.9400,N,12605.5296,W,0.89,344,040722,12.2,E,A,V*6A
20220704 030147+00:00 $WIMWV,337.59,R,0.99,N,A*28
20220704 030149+00:00 $IIMDA,29.9,I,1.011,B,13.3,C,,C,92.8,,,C,,T,,M,,N,,M*2B
20220704 030149+00:00 $HCHDT,2.4,T*2F
20220704 030149+00:00 $GPRMC,030144,A,4938.9400,N,12605.5296,W,0.8,342,040722,12.2,E,A,V*53
20220704 030149+00:00 $WIMWV,342.29,R,0.7,N,A*1A
20220704 030151+00:00 $IIMDA,29.9,I,1.011,B,13.3,C,,C,92.8,,,C,,T,,M,,N,,M*2B
20220704 030151+00:00 $HCHDT,1,T*36
20220704 030151+00:00 $GPRMC,030146,A,4938.9400,N,12605.5296,W,0.8,341,040722,12.2,E,A,V*52
20220704 030151+00:00 $WIMWV,336.69,R,0.49,N,A*27
20220704 030153+00:00 $IIMDA,29.9,I,1.011,B,13.3,C,,C,92.8,,,C,,T,,M,,N,,M*2B
20220704 030153+00:00 $HCHDT,0.1,T*28
20220704 030153+00:00 $GPRMC,030148,A,4938.9400,N,12605.5296,W,0.7,340,040722,12.2,E,A,V*52
20220704 030153+00:00 $WIMWV,32.1,R,0.39,N,A*29
20220704 030155+00:00 $IIMDA,29.9,I,1.011,B,13.3,C,,C,92.8,,,C,,T,,M,,N,,M*2B
20220704 030155+00:00 $HCHDT,358.9,T*2E
20220704 030155+00:00 $GPRMC,030150,A,4938.9400,N,12605.5296,W,0.6,339,040722,12.2,E,A,V*54
20220704 030155+00:00 $WIMWV,0.19,R,0.58,N,A*26
20220704 030157+00:00 $IIMDA,29.9,I,1.011,B,13.3,C,,C,92.8,,,C,,T,,M,,N,,M*2B
20220704 030157+00:00 $HCHDT,358,T*39
20220704 030157+00:00 $GPRMC,030152,A,4938.9400,N,12605.5296,W,0.6,338,040722,12.2,E,A,V*57
20220704 030157+00:00 $WIMWV,0.19,R,1.19,N,A*22
20220704 030159+00:00 $IIMDA,29.9,I,1.011,B,13.3,C,,C,92.8,,,C,,T,,M,,N,,M*2B
20220704 030159+00:00 $HCHDT,357.2,T*2A
20220704 030159+00:00 $GPRMC,030154,A,4938.9400,N,12605.5296,W,0.51,338,040722,12.2,E,A,V*63
20220704 030159+00:00 $WIMWV,20.8,R,1.69,N,A*27
20220704 030201+00:00 $IIMDA,29.9,I,1.011,B,13.3,C,,C,92.8,,,C,,T,,M,,N,,M*2B
20220704 030201+00:00 $HCHDT,356.7,T*2E
20220704 030201+00:00 $GPRMC,030156,A,4938.9400,N,12605.5296,W,0.51,340,040722,12.2,E,A,V*6E
20220704 030201+00:00 $WIMWV,5.8,R,1.5,N,A*2A
20220704 030203+00:00 $IIMDA,29.9,I,1.011,B,13.3,C,,C,92.8,,,C,,T,,M,,N,,M*2B
20220704 030203+00:00 $HCHDT,356.2,T*2B
20220704 030203+00:00 $GPRMC,030158,A,4938.9496,N,12605.5296,W,0.51,344,040722,12.2,E,A,V*6B
20220704 030203+00:00 $WIMWV,13.6,R,1.4,N,A*12
20220704 030205+00:00 $IIMDA,29.9,I,1.011,B,13.3,C,,C,92.8,,,C,,T,,M,,N,,M*2B
20220704 030205+00:00 $HCHDT,355.6,T*2C
20220704 030205+00:00 $GPRMC,030200,A,4938.9496,N,12605.5296,W,0.51,347,040722,12.2,E,A,V*66
20220704 030205+00:00 $WIMWV,9.1,R,1.5,N,A*2F
20220704 030207+00:00 $IIMDA,29.9,I,1.011,B,13.3,C,,C,92.8,,,C,,T,,M,,N,,M*2B
20220704 030207+00:00 $HCHDT,355.2,T*28
20220704 030207+00:00 $GPRMC,030202,A,4938.9496,N,12605.5296,W,0.6,349,040722,12.2,E,A,V*58
20220704 030207+00:00 $WIMWV,10,R,1.69,N,A*32
20220704 030209+00:00 $IIMDA,29.9,I,1.011,B,13.3,C,,C,92.8,,,C,,T,,M,,N,,M*2B
20220704 030209+00:00 $HCHDT,354.8,T*23
20220704 030209+00:00 $GPRMC,030204,A,4938.9496,N,12605.5296,W,0.6,352,040722,12.2,E,A,V*54
20220704 030209+00:00 $WIMWV,8.2,R,1.69,N,A*17
20220704 030211+00:00 $IIMDA,29.9,I,1.011,B,13.3,C,,C,92.8,,,C,,T,,M,,N,,M*2B
20220704 030211+00:00 $HCHDT,354.6,T*2D
20220704 030211+00:00 $GPRMC,030206,A,4938.9496,N,12605.5296,W,0.7,353,040722,12.2,E,A,V*56
20220704 030211+00:00 $WIMWV,16.29,R,1.69,N,A*11
20220704 030213+00:00 $IIMDA,29.9,I,1.011,B,13.3,C,,C,92.8,,,C,,T,,M,,N,,M*2B
20220704 030213+00:00 $HCHDT,354.5,T*2E
20220704 030213+00:00 $GPRMC,030208,A,4938.9496,N,12605.5296,W,0.8,354,040722,12.2,E,A,V*50
20220704 030213+00:00 $WIMWV,20.8,R,1.79,N,A*26
20220704 030215+00:00 $IIMDA,29.9,I,1.011,B,13.3,C,,C,92.8,,,C,,T,,M,,N,,M*2B
20220704 030215+00:00 $HCHDT,354.5,T*2E
20220704 030215+00:00 $GPRMC,030210,A,4938.9496,N,12605.5296,W,0.8,355,040722,12.2,E,A,V*58
20220704 030215+00:00 $WIMWV,25.7,R,2.29,N,A*2A
20220704 030217+00:00 $IIMDA,29.9,I,1.011,B,13.3,C,,C,92.8,,,C,,T,,M,,N,,M*2B
20220704 030217+00:00 $HCHDT,354.6,T*2D
20220704 030217+00:00 $GPRMC,030212,A,4938.9496,N,12605.5296,W,0.89,356,040722,12.2,E,A,V*60
20220704 030217+00:00 $WIMWV,27.4,R,2.59,N,A*2C
20220704 030219+00:00 $IIMDA,29.9,I,1.011,B,13.3,C,,C,92.8,,,C,,T,,M,,N,,M*2B
20220704 030219+00:00 $HCHDT,354.9,T*22
20220704 030219+00:00 $GPRMC,030214,A,4938.9496,N,12605.5296,W,1.11,357,040722,12.2,E,A,V*67
20220704 030219+00:00 $WIMWV,27.6,R,2.2,N,A*10
20220704 030221+00:00 $IIMDA,29.9,I,1.011,B,13.3,C,,C,92.8,,,C,,T,,M,,N,,M*2B
20220704 030221+00:00 $HCHDT,355.4,T*2E
20220704 030221+00:00 $GPRMC,030216,A,4938.9496,N,12605.5296,W,1.21,358,040722,12.2,E,A,V*69
20220704 030221+00:00 $WIMWV,29.9,R,2.2,N,A*11
20220704 030223+00:00 $IIMDA,29.9,I,1.011,B,13.3,C,,C,92.8,,,C,,T,,M,,N,,M*2B
20220704 030223+00:00 $HCHDT,355.7,T*2D
20220704 030223+00:00 $GPRMC,030218,A,4938.9496,N,12605.5296,W,1.3,358,040722,12.2,E,A,V*57
20220704 030223+00:00 $WIMWV,31.6,R,2.49,N,A*28
20220704 030225+00:00 $IIMDA,29.9,I,1.011,B,13.3,C,,C,92.8,,,C,,T,,M,,N,,M*2B
20220704 030225+00:00 $HCHDT,356.2,T*2B
20220704 030225+00:00 $GPRMC,030220,A,4938.9496,N,12605.5296,W,1.5,359,040722,12.2,E,A,V*5B
20220704 030225+00:00 $WIMWV,29.5,R,2.49,N,A*22
20220704 030227+00:00 $IIMDA,29.9,I,1.011,B,13.3,C,,C,92.8,,,C,,T,,M,,N,,M*2B
20220704 030227+00:00 $HCHDT,356.7,T*2E
20220704 030227+00:00 $GPRMC,030222,A,4938.9496,N,12605.5296,W,1.59,359,040722,12.2,E,A,V*60
20220704 030227+00:00 $WIMWV,31,R,1.98,N,A*3F
20220704 030229+00:00 $IIMDA,29.9,I,1.011,B,13.3,C,,C,92.8,,,C,,T,,M,,N,,M*2B
20220704 030229+00:00 $HCHDT,357.4,T*2C
20220704 030229+00:00 $GPRMC,030224,A,4938.9496,N,12605.5296,W,1.69,359,040722,12.2,E,A,V*65
20220704 030229+00:00 $WIMWV,12.5,R,1.5,N,A*11
20220704 030231+00:00 $IIMDA,29.9,I,1.011,B,13.3,C,,C,92.8,,,C,,T,,M,,N,,M*2B
20220704 030231+00:00 $HCHDT,358.4,T*23
20220704 030231+00:00 $GPRMC,030226,A,4938.9598,N,12605.5296,W,1.81,358,040722,12.2,E,A,V*6F
20220704 030231+00:00 $WIMWV,15.6,R,1.79,N,A*2E
20220704 030233+00:00 $IIMDA,29.9,I,1.011,B,13.3,C,,C,92.8,,,C,,T,,M,,N,,M*2B
20220704 030233+00:00 $HCHDT,0.3,T*2A
20220704 030233+00:00 $GPRMC,030228,A,4938.9598,N,12605.5296,W,1.69,356,040722,12.2,E,A,V*69
20220704 030233+00:00 $WIMWV,26.5,R,2.29,N,A*2B
20220704 030235+00:00 $IIMDA,29.9,I,1.011,B,13.3,C,,C,92.8,,,C,,T,,M,,N,,M*2B
20220704 030235+00:00 $HCHDT,2,T*35
20220704 030235+00:00 $GPRMC,030230,A,4938.9598,N,12605.5296,W,1.59,358,040722,12.2,E,A,V*6D
20220704 030235+00:00 $WIMWV,19,R,2.1,N,A*06
20220704 030237+00:00 $IIMDA,29.9,I,1.011,B,13.3,C,,C,92.8,,,C,,T,,M,,N,,M*2B
20220704 030237+00:00 $HCHDT,3.7,T*2D
20220704 030237+00:00 $GPRMC,030232,A,4938.9598,N,12605.5296,W,1.5,3,040722,12.2,E,A,V*5B
20220704 030237+00:00 $WIMWV,353.99,R,2.2,N,A*16
20220704 030239+00:00 $IIMDA,29.9,I,1.011,B,13.3,C,,C,92.8,,,C,,T,,M,,N,,M*2B
20220704 030239+00:00 $HCHDT,5.1,T*2D
20220704 030239+00:00 $GPRMC,030234,A,4938.9598,N,12605.5296,W,1.4,5,040722,12.2,E,A,V*5A
20220704 030239+00:00 $WIMWV,354.29,R,2.49,N,A*25
20220704 030241+00:00 $IIMDA,29.9,I,1.011,B,13.3,C,,C,92.8,,,C,,T,,M,,N,,M*2B
20220704 030241+00:00 $HCHDT,6.3,T*2C
20220704 030241+00:00 $GPRMC,030236,A,4938.9598,N,12605.5296,W,1.3,3,040722,12.2,E,A,V*59
20220704 030241+00:00 $WIMWV,25.7,R,2.8,N,A*19
20220704 030243+00:00 $IIMDA,29.9,I,1.011,B,13.3,C,,C,92.8,,,C,,T,,M,,N,,M*2B
20220704 030243+00:00 $HCHDT,6.9,T*26
20220704 030243+00:00 $GPRMC,030238,A,4938.9598,N,12605.5296,W,1.3,2,040722,12.2,E,A,V*56
20220704 030243+00:00 $WIMWV,26.3,R,2.68,N,A*28
20220704 030245+00:00 $IIMDA,29.9,I,1.011,B,13.3,C,,C,92.8,,,C,,T,,M,,N,,M*2B
20220704 030245+00:00 $HCHDT,7.3,T*2D
20220704 030245+00:00 $GPRMC,030240,A,4938.9598,N,12605.5296,W,1.3,4,040722,12.2,E,A,V*5F
20220704 030245+00:00 $WIMWV,356.49,R,2.29,N,A*27
20220704 030247+00:00 $IIMDA,29.9,I,1.011,B,13.3,C,,C,92.8,,,C,,T,,M,,N,,M*2B
20220704 030247+00:00 $HCHDT,7.5,T*2B
20220704 030247+00:00 $GPRMC,030242,A,4938.9598,N,12605.5296,W,1.3,6,040722,12.2,E,A,V*5F
20220704 030247+00:00 $WIMWV,350.29,R,2.29,N,A*27
20220704 030249+00:00 $IIMDA,29.9,I,1.011,B,13.3,C,,C,92.8,,,C,,T,,M,,N,,M*2B
20220704 030249+00:00 $HCHDT,7.7,T*29
20220704 030249+00:00 $GPRMC,030244,A,4938.9598,N,12605.5296,W,1.4,5,040722,12.2,E,A,V*5D
20220704 030249+00:00 $WIMWV,23.7,R,2.2,N,A*15
20220704 030251+00:00 $IIMDA,29.9,I,1.011,B,13.3,C,,C,92.7,,,C,,T,,M,,N,,M*24
20220704 030251+00:00 $HCHDT,7.6,T*28
20220704 030251+00:00 $GPRMC,030246,A,4938.9598,N,12605.5296,W,1.5,5,040722,12.2,E,A,V*5E
20220704 030251+00:00 $WIMWV,24.2,R,1.98,N,A*27
20220704 030253+00:00 $IIMDA,29.9,I,1.011,B,13.3,C,,C,92.8,,,C,,T,,M,,N,,M*2B
20220704 030253+00:00 $HCHDT,7.8,T*26
20220704 030253+00:00 $GPRMC,030248,A,4938.9598,N,12605.5296,W,1.5,7,040722,12.2,E,A,V*52
20220704 030253+00:00 $WIMWV,353.09,R,1.89,N,A*2F
20220704 030255+00:00 $IIMDA,29.9,I,1.011,B,13.3,C,,C,92.8,,,C,,T,,M,,N,,M*2B
20220704 030255+00:00 $HCHDT,8.2,T*23
20220704 030255+00:00 $GPRMC,030250,A,4938.9598,N,12605.5296,W,1.5,8,040722,12.2,E,A,V*54
20220704 030255+00:00 $WIMWV,348.79,R,1.59,N,A*2F
20220704 030257+00:00 $IIMDA,29.9,I,1.011,B,13.3,C,,C,92.8,,,C,,T,,M,,N,,M*2B
20220704 030257+00:00 $HCHDT,8.6,T*27
20220704 030257+00:00 $GPRMC,030252,A,4938.9700,N,12605.5296,W,1.5,7,040722,12.2,E,A,V*5A
20220704 030257+00:00 $WIMWV,12,R,1.69,N,A*30
20220704 030259+00:00 $IIMDA,29.9,I,1.011,B,13.3,C,,C,92.8,,,C,,T,,M,,N,,M*2B
20220704 030259+00:00 $HCHDT,8.8,T*29
20220704 030259+00:00 $GPRMC,030254,A,4938.9700,N,12605.5296,W,1.4,7,040722,12.2,E,A,V*5D
20220704 030259+00:00 $WIMWV,24,R,1.89,N,A*3B
20220704 030301+00:00 $IIMDA,29.9,I,1.011,B,13.3,C,,C,92.8,,,C,,T,,M,,N,,M*2B
20220704 030301+00:00 $HCHDT,8.7,T*26
20220704 030301+00:00 $GPRMC,030256,A,4938.9700,N,12605.5296,W,1.3,10,040722,12.2,E,A,V*6E
20220704 030301+00:00 $WIMWV,9,R,1.59,N,A*09
20220704 030303+00:00 $IIMDA,29.9,I,1.011,B,13.3,C,,C,92.8,,,C,,T,,M,,N,,M*2B
20220704 030303+00:00 $HCHDT,8.7,T*26
20220704 030303+00:00 $GPRMC,030258,A,4938.9700,N,12605.5296,W,1.21,12,040722,12.2,E,A,V*52
20220704 030303+00:00 $WIMWV,0.19,R,1.4,N,A*1E
20220704 030305+00:00 $IIMDA,29.9,I,1.011,B,13.3,C,,C,92.8,,,C,,T,,M,,N,,M*2B
20220704 030305+00:00 $HCHDT,8.3,T*22
20220704 030305+00:00 $GPRMC,030300,A,4938.9700,N,12605.5296,W,1.21,10,040722,12.2,E,A,V*5C
20220704 030305+00:00 $WIMWV,18.6,R,1.89,N,A*2C
20220704 030307+00:00 $IIMDA,29.9,I,1.011,B,13.3,C,,C,92.8,,,C,,T,,M,,N,,M*2B
20220704 030307+00:00 $HCHDT,7.4,T*2A
20220704 030307+00:00 $GPRMC,030302,A,4938.9700,N,12605.5296,W,1.21,9,040722,12.2,E,A,V*66
20220704 030307+00:00 $WIMWV,22.4,R,2.2,N,A*17
20220704 030309+00:00 $IIMDA,29.9,I,1.011,B,13.3,C,,C,92.8,,,C,,T,,M,,N,,M*2B
20220704 030309+00:00 $HCHDT,7.2,T*2C
20220704 030309+00:00 $GPRMC,030304,A,4938.9700,N,12605.5296,W,1.3,9,040722,12.2,E,A,V*50
20220704 030309+00:00 $WIMWV,8.9,R,1.89,N,A*12
20220704 030311+00:00 $IIMDA,29.9,I,1.011,B,13.3,C,,C,92.8,,,C,,T,,M,,N,,M*2B
20220704 030311+00:00 $HCHDT,6.5,T*2A
20220704 030311+00:00 $GPRMC,030306,A,4938.9700,N,12605.5296,W,1.3,10,040722,12.2,E,A,V*6A
20220704 030311+00:00 $WIMWV,7.1,R,1.89,N,A*15
20220704 030313+00:00 $IIMDA,29.9,I,1.011,B,13.3,C,,C,92.8,,,C,,T,,M,,N,,M*2B
20220704 030313+00:00 $HCHDT,6,T*31
20220704 030313+00:00 $GPRMC,030308,A,4938.9700,N,12605.5296,W,1.4,8,040722,12.2,E,A,V*5A
20220704 030313+00:00 $WIMWV,15.8,R,1.79,N,A*20
20220704 030315+00:00 $IIMDA,29.9,I,1.011,B,13.3,C,,C,92.8,,,C,,T,,M,,N,,M*2B
20220704 030315+00:00 $HCHDT,5.4,T*28
20220704 030315+00:00 $GPRMC,030310,A,4938.9700,N,12605.5296,W,1.4,7,040722,12.2,E,A,V*5C
20220704 030315+00:00 $WIMWV,13.4,R,1.89,N,A*25
20220704 030317+00:00 $IIMDA,29.9,I,1.011,B,13.3,C,,C,92.8,,,C,,T,,M,,N,,M*2B
20220704 030317+00:00 $HCHDT,4.9,T*24
20220704 030317+00:00 $GPRMC,030312,A,4938.9700,N,12605.5296,W,1.4,7,040722,12.2,E,A,V*5E
20220704 030317+00:00 $WIMWV,8.79,R,1.69,N,A*2B
20220704 030319+00:00 $IIMDA,29.9,I,1.011,B,13.3,C,,C,92.8,,,C,,T,,M,,N,,M*2B
20220704 030319+00:00 $HCHDT,4.7,T*2A
20220704 030319+00:00 $GPRMC,030314,A,4938.9700,N,12605.5296,W,1.4,7,040722,12.2,E,A,V*58
20220704 030319+00:00 $WIMWV,8.4,R,1.4,N,A*2A
20220704 030321+00:00 $IIMDA,29.9,I,1.011,B,13.3,C,,C,92.8,,,C,,T,,M,,N,,M*2B
20220704 030321+00:00 $HCHDT,4.6,T*2B
20220704 030321+00:00 $GPRMC,030316,A,4938.9700,N,12605.5296,W,1.3,7,040722,12.2,E,A,V*5D
20220704 030321+00:00 $WIMWV,8.1,R,1.4,N,A*2F
20220704 030323+00:00 $IIMDA,29.9,I,1.011,B,13.3,C,,C,92.8,,,C,,T,,M,,N,,M*2B
20220704 030323+00:00 $HCHDT,4.1,T*2C
20220704 030323+00:00 $GPRMC,030318,A,4938.9700,N,12605.5296,W,1.3,5,040722,12.2,E,A,V*51
20220704 030323+00:00 $WIMWV,11.3,R,1.89,N,A*20
20220704 030325+00:00 $IIMDA,29.9,I,1.011,B,13.3,C,,C,92.8,,,C,,T,,M,,N,,M*2B
20220704 030325+00:00 $HCHDT,3.7,T*2D
20220704 030325+00:00 $GPRMC,030320,A,4938.9700,N,12605.5296,W,1.21,5,040722,12.2,E,A,V*6A
20220704 030325+00:00 $WIMWV,10,R,1.79,N,A*33
20220704 030327+00:00 $IIMDA,29.9,I,1.011,B,13.3,C,,C,92.8,,,C,,T,,M,,N,,M*2B
20220704 030327+00:00 $HCHDT,3.2,T*28
20220704 030327+00:00 $GPRMC,030322,A,4938.9796,N,12605.5296,W,1.21,6,040722,12.2,E,A,V*64
20220704 030327+00:00 $WIMWV,19.5,R,1.59,N,A*23
20220704 030329+00:00 $IIMDA,29.9,I,1.011,B,13.3,C,,C,92.8,,,C,,T,,M,,N,,M*2B
20220704 030329+00:00 $HCHDT,2.5,T*2E
20220704 030329+00:00 $GPRMC,030324,A,4938.9796,N,12605.5296,W,1.21,6,040722,12.2,E,A,V*62
20220704 030329+00:00 $WIMWV,8.5,R,1.69,N,A*10
20220704 030331+00:00 $IIMDA,29.9,I,1.011,B,13.3,C,,C,92.8,,,C,,T,,M,,N,,M*2B
20220704 030331+00:00 $HCHDT,1.9,T*21
20220704 030331+00:00 $GPRMC,030326,A,4938.9796,N,12605.5296,W,1.21,4,040722,12.2,E,A,V*62
20220704 030331+00:00 $WIMWV,353.39,R,2.8,N,A*16
20220704 030333+00:00 $IIMDA,29.9,I,1.011,B,13.3,C,,C,92.8,,,C,,T,,M,,N,,M*2B
20220704 030333+00:00 $HCHDT,1.3,T*2B
20220704 030333+00:00 $GPRMC,030328,A,4938.9796,N,12605.5296,W,1.21,3,040722,12.2,E,A,V*6B
20220704 030333+00:00 $WIMWV,356.09,R,1.79,N,A*25
20220704 030335+00:00 $IIMDA,29.9,I,1.011,B,13.3,C,,C,92.8,,,C,,T,,M,,N,,M*2B
20220704 030335+00:00 $HCHDT,0.8,T*21
20220704 030335+00:00 $GPRMC,030330,A,4938.9796,N,12605.5296,W,1.3,3,040722,12.2,E,A,V*52
20220704 030335+00:00 $WIMWV,323.69,R,1.09,N,A*26
20220704 030337+00:00 $IIMDA,29.9,I,1.011,B,13.3,C,,C,92.8,,,C,,T,,M,,N,,M*2B
20220704 030337+00:00 $HCHDT,0.4,T*2D
20220704 030337+00:00 $GPRMC,030332,A,4938.9796,N,12605.5296,W,1.3,2,040722,12.2,E,A,V*51
20220704 030337+00:00 $WIMWV,17.3,R,0.7,N,A*11
20220704 030339+00:00 $IIMDA,29.9,I,1.011,B,13.3,C,,C,92.8,,,C,,T,,M,,N,,M*2B
20220704 030339+00:00 $HCHDT,359.8,T*2E
20220704 030339+00:00 $GPRMC,030334,A,4938.9796,N,12605.5296,W,1.3,1,040722,12.2,E,A,V*54
20220704 030339+00:00 $WIMWV,342.59,R,1.4,N,A*1F
20220704 030341+00:00 $IIMDA,29.9,I,1.011,B,13.3,C,,C,92.8,,,C,,T,,M,,N,,M*2B
20220704 030341+00:00 $HCHDT,359.1,T*27
20220704 030341+00:00 $GPRMC,030336,A,4938.9796,N,12605.5296,W,1.4,0,040722,12.2,E,A,V*50
20220704 030341+00:00 $WIMWV,325.89,R,2.9,N,A*1D
20220704 030343+00:00 $IIMDA,29.9,I,1.011,B,13.3,C,,C,92.8,,,C,,T,,M,,N,,M*2B
20220704 030343+00:00 $HCHDT,358.8,T*2F
20220704 030343+00:00 $GPRMC,030338,A,4938.9796,N,12605.5296,W,1.4,359,040722,12.2,E,A,V*51
20220704 030343+00:00 $WIMWV,298.19,R,0.58,N,A*25
20220704 030345+00:00 $IIMDA,29.9,I,1.011,B,13.3,C,,C,92.8,,,C,,T,,M,,N,,M*2B
20220704 030345+00:00 $HCHDT,358.3,T*24
20220704 030345+00:00 $GPRMC,030340,A,4938.9796,N,12605.5296,W,1.4,359,040722,12.2,E,A,V*5E
20220704 030345+00:00 $WIMWV,9.8,R,1.4,N,A*27
20220704 030347+00:00 $IIMDA,29.9,I,1.011,B,13.3,C,,C,92.8,,,C,,T,,M,,N,,M*2B
20220704 030347+00:00 $HCHDT,357.8,T*20
20220704 030347+00:00 $GPRMC,030342,A,4938.9796,N,12605.5296,W,1.4,357,040722,12.2,E,A,V*52
20220704 030347+00:00 $WIMWV,10.4,R,2.39,N,A*2E
20220704 030349+00:00 $IIMDA,29.9,I,1.011,B,13.3,C,,C,92.8,,,C,,T,,M,,N,,M*2B
20220704 030349+00:00 $HCHDT,357.3,T*2B
20220704 030349+00:00 $GPRMC,030344,A,4938.9796,N,12605.5296,W,1.3,356,040722,12.2,E,A,V*52
20220704 030349+00:00 $WIMWV,0.19,R,1.59,N,A*26
20220704 030351+00:00 $IIMDA,29.9,I,1.011,B,13.3,C,,C,92.8,,,C,,T,,M,,N,,M*2B
20220704 030351+00:00 $HCHDT,357,T*36
20220704 030351+00:00 $GPRMC,030346,A,4938.9796,N,12605.5296,W,1.3,355,040722,12.2,E,A,V*53
20220704 030351+00:00 $WIMWV,27,R,2.59,N,A*36
20220704 030353+00:00 $IIMDA,29.9,I,1.011,B,13.3,C,,C,92.8,,,C,,T,,M,,N,,M*2B
20220704 030353+00:00 $HCHDT,356.6,T*2F
20220704 030353+00:00 $GPRMC,030348,A,4938.9898,N,12605.5296,W,1.3,355,040722,12.2,E,A,V*5C
20220704 030353+00:00 $WIMWV,24.4,R,1.89,N,A*21
20220704 030355+00:00 $IIMDA,29.9,I,1.011,B,13.3,C,,C,92.8,,,C,,T,,M,,N,,M*2B
20220704 030355+00:00 $HCHDT,356.1,T*28
20220704 030355+00:00 $GPRMC,030350,A,4938.9898,N,12605.5296,W,1.4,354,040722,12.2,E,A,V*53
20220704 030355+00:00 $WIMWV,19.6,R,2.1,N,A*1E
20220704 030357+00:00 $IIMDA,29.9,I,1.011,B,13.3,C,,C,92.8,,,C,,T,,M,,N,,M*2B
20220704 030357+00:00 $HCHDT,355.5,T*2F
20220704 030357+00:00 $GPRMC,030352,A,4938.9898,N,12605.5296,W,1.4,352,040722,12.2,E,A,V*57
20220704 030357+00:00 $WIMWV,26.1,R,2.39,N,A*2E
20220704 030359+00:00 $IIMDA,29.9,I,1.011,B,13.3,C,,C,92.8,,,C,,T,,M,,N,,M*2B
20220704 030359+00:00 $HCHDT,355,T*34
20220704 030359+00:00 $GPRMC,030354,A,4938.9898,N,12605.5296,W,1.4,352,040722,12.2,E,A,V*51
20220704 030359+00:00 $WIMWV,23.5,R,1.98,N,A*27
20220704 030401+00:00 $IIMDA,29.9,I,1.011,B,13.3,C,,C,92.8,,,C,,T,,M,,N,,M*2B
20220704 030401+00:00 $HCHDT,354.6,T*2D
20220704 030401+00:00 $GPRMC,030356,A,4938.9898,N,12605.5296,W,1.5,351,040722,12.2,E,A,V*51
20220704 030401+00:00 $WIMWV,7.1,R,2.59,N,A*1B
20220704 030403+00:00 $IIMDA,29.9,I,1.011,B,13.3,C,,C,92.8,,,C,,T,,M,,N,,M*2B
20220704 030403+00:00 $HCHDT,354.4,T*2F
20220704 030403+00:00 $GPRMC,030358,A,4938.9898,N,12605.5296,W,1.5,350,040722,12.2,E,A,V*5E
20220704 030403+00:00 $WIMWV,0.19,R,1.19,N,A*22
20220704 030405+00:00 $IIMDA,29.9,I,1.011,B,13.3,C,,C,92.8,,,C,,T,,M,,N,,M*2B
20220704 030405+00:00 $HCHDT,354.3,T*28
20220704 030405+00:00 $GPRMC,030400,A,4938.9898,N,12605.5296,W,1.59,349,040722,12.2,E,A,V*65
20220704 030405+00:00 $WIMWV,19.5,R,2.8,N,A*14
20220704 030407+00:00 $IIMDA,29.9,I,1.011,B,13.3,C,,C,92.8,,,C,,T,,M,,N,,M*2B
20220704 030407+00:00 $HCHDT,354.4,T*2F
20220704 030407+00:00 $GPRMC,030402,A,4938.9898,N,12605.5296,W,1.59,349,040722,12.2,E,A,V*67
20220704 030407+00:00 $WIMWV,22.9,R,2.99,N,A*28
20220704 030409+00:00 $IIMDA,29.9,I,1.011,B,13.3,C,,C,92.8,,,C,,T,,M,,N,,M*2B
20220704 030409+00:00 $HCHDT,354.5,T*2E
20220704 030409+00:00 $GPRMC,030404,A,4938.9898,N,12605.5296,W,1.59,349,040722,12.2,E,A,V*61
20220704 030409+00:00 $WIMWV,30.7,R,2.9,N,A*1C
20220704 030411+00:00 $IIMDA,29.9,I,1.011,B,13.3,C,,C,92.8,,,C,,T,,M,,N,,M*2B
20220704 030411+00:00 $HCHDT,354.6,T*2D
20220704 030411+00:00 $GPRMC,030406,A,4938.9898,N,12605.5296,W,1.59,349,040722,12.2,E,A,V*63
20220704 030411+00:00 $WIMWV,6.2,R,3.29,N,A*1F
20220704 030413+00:00 $IIMDA,29.9,I,1.011,B,13.3,C,,C,92.8,,,C,,T,,M,,N,,M*2B
20220704 030413+00:00 $HCHDT,354.6,T*2D
20220704 030413+00:00 $GPRMC,030408,A,4938.9898,N,12605.5296,W,1.59,349,040722,12.2,E,A,V*6D
20220704 030413+00:00 $WIMWV,29.09,R,3.19,N,A*1A
20220704 030415+00:00 $IIMDA,29.9,I,1.011,B,13.3,C,,C,92.8,,,C,,T,,M,,N,,M*2B
20220704 030415+00:00 $HCHDT,354.6,T*2D
20220704 030415+00:00 $GPRMC,030410,A,4938.9898,N,12605.5296,W,1.59,349,040722,12.2,E,A,V*64
20220704 030415+00:00 $WIMWV,12.1,R,2.9,N,A*1A
20220704 030417+00:00 $IIMDA,29.9,I,1.011,B,13.3,C,,C,92.8,,,C,,T,,M,,N,,M*2B
20220704 030417+00:00 $HCHDT,354.5,T*2E
20220704 030417+00:00 $GPRMC,030412,A,4939.0000,N,12605.5296,W,1.59,349,040722,12.2,E,A,V*67
20220704 030417+00:00 $WIMWV,340.09,R,1.98,N,A*2D
20220704 030419+00:00 $IIMDA,29.9,I,1.011,B,13.3,C,,C,92.8,,,C,,T,,M,,N,,M*2B
20220704 030419+00:00 $HCHDT,354.5,T*2E
20220704 030419+00:00 $GPRMC,030414,A,4939.0000,N,12605.5296,W,1.59,349,040722,12.2,E,A,V*61
20220704 030419+00:00 $WIMWV,354.09,R,2.39,N,A*20
20220704 030421+00:00 $IIMDA,29.9,I,1.011,B,13.3,C,,C,92.7,,,C,,T,,M,,N,,M*24
20220704 030421+00:00 $HCHDT,354.5,T*2E
20220704 030421+00:00 $GPRMC,030416,A,4939.0000,N,12605.5296,W,1.59,348,040722,12.2,E,A,V*62
20220704 030421+00:00 $WIMWV,355.09,R,3.29,N,A*21
20220704 030423+00:00 $IIMDA,29.9,I,1.011,B,13.3,C,,C,92.7,,,C,,T,,M,,N,,M*24
20220704 030423+00:00 $HCHDT,354.4,T*2F
20220704 030423+00:00 $GPRMC,030418,A,4939.0000,N,12605.5296,W,1.69,348,040722,12.2,E,A,V*6F
20220704 030423+00:00 $WIMWV,17.1,R,2.29,N,A*2D
20220704 030425+00:00 $IIMDA,29.9,I,1.011,B,13.3,C,,C,92.7,,,C,,T,,M,,N,,M*24
20220704 030425+00:00 $HCHDT,354.5,T*2E
20220704 030425+00:00 $GPRMC,030420,A,4939.0000,N,12605.5296,W,1.69,348,040722,12.2,E,A,V*64
20220704 030425+00:00 $WIMWV,354.19,R,2.29,N,A*20
20220704 030427+00:00 $IIMDA,29.9,I,1.011,B,13.3,C,,C,92.7,,,C,,T,,M,,N,,M*24
20220704 030427+00:00 $HCHDT,354.6,T*2D
20220704 030427+00:00 $GPRMC,030422,A,4939.0000,N,12605.5296,W,1.69,348,040722,12.2,E,A,V*66
20220704 030427+00:00 $WIMWV,348.49,R,2.39,N,A*29
20220704 030429+00:00 $IIMDA,29.9,I,1.011,B,13.3,C,,C,92.7,,,C,,T,,M,,N,,M*24
20220704 030429+00:00 $HCHDT,354.7,T*2C
20220704 030429+00:00 $GPRMC,030424,A,4939.0000,N,12605.5296,W,1.69,348,040722,12.2,E,A,V*60
20220704 030429+00:00 $WIMWV,338.09,R,3.29,N,A*2A
20220704 030431+00:00 $IIMDA,29.9,I,1.011,B,13.3,C,,C,92.8,,,C,,T,,M,,N,,M*2B
20220704 030431+00:00 $HCHDT,354.8,T*23
20220704 030431+00:00 $GPRMC,030426,A,4939.0000,N,12605.5296,W,1.59,348,040722,12.2,E,A,V*61
20220704 030431+00:00 $WIMWV,321.59,R,1.98,N,A*2F
20220704 030433+00:00 $IIMDA,29.9,I,1.011,B,13.3,C,,C,92.8,,,C,,T,,M,,N,,M*2B
20220704 030433+00:00 $HCHDT,355,T*34
20220704 030433+00:00 $GPRMC,030428,A,4939.0000,N,12605.5398,W,1.59,348,040722,12.2,E,A,V*60
20220704 030433+00:00 $WIMWV,356.99,R,3.29,N,A*2B
20220704 030435+00:00 $IIMDA,29.9,I,1.011,B,13.3,C,,C,92.8,,,C,,T,,M,,N,,M*2B
20220704 030435+00:00 $HCHDT,355,T*34
20220704 030435+00:00 $GPRMC,030430,A,4939.0000,N,12605.5398,W,1.59,349,040722,12.2,E,A,V*68
20220704 030435+00:00 $WIMWV,2.4,R,3.6,N,A*20
20220704 030437+00:00 $IIMDA,29.9,I,1.011,B,13.3,C,,C,92.8,,,C,,T,,M,,N,,M*2B
20220704 030437+00:00 $HCHDT,355.1,T*2B
20220704 030437+00:00 $GPRMC,030432,A,4939.0000,N,12605.5398,W,1.59,349,040722,12.2,E,A,V*6A
20220704 030437+00:00 $WIMWV,355.89,R,3.38,N,A*29
20220704 030439+00:00 $IIMDA,29.9,I,1.011,B,13.3,C,,C,92.7,,,C,,T,,M,,N,,M*24
20220704 030439+00:00 $HCHDT,355.2,T*28
20220704 030439+00:00 $GPRMC,030434,A,4939.0096,N,12605.5398,W,1.59,349,040722,12.2,E,A,V*63
20220704 030439+00:00 $WIMWV,354.59,R,3.69,N,A*21
20220704 030441+00:00 $IIMDA,29.9,I,1.011,B,13.3,C,,C,92.8,,,C,,T,,M,,N,,M*2B
20220704 030441+00:00 $HCHDT,355.3,T*29
20220704 030441+00:00 $GPRMC,030436,A,4939.0096,N,12605.5398,W,1.69,350,040722,12.2,E,A,V*6A
20220704 030441+00:00 $WIMWV,332.99,R,2.39,N,A*29
20220704 030443+00:00 $IIMDA,29.9,I,1.011,B,13.3,C,,C,92.7,,,C,,T,,M,,N,,M*24
20220704 030443+00:00 $HCHDT,355.4,T*2E
20220704 030443+00:00 $GPRMC,030438,A,4939.0096,N,12605.5398,W,1.69,350,040722,12.2,E,A,V*64
20220704 030443+00:00 $WIMWV,42.3,R,2.1,N,A*15
20220704 030445+00:00 $IIMDA,29.9,I,1.011,B,13.3,C,,C,92.7,,,C,,T,,M,,N,,M*24
20220704 030445+00:00 $HCHDT,355.4,T*2E
20220704 030445+00:00 $GPRMC,030440,A,4939.0096,N,12605.5398,W,1.69,350,040722,12.2,E,A,V*6B
20220704 030445+00:00 $WIMWV,3.9,R,2.9,N,A*22
20220704 030447+00:00 $IIMDA,29.9,I,1.011,B,13.3,C,,C,92.7,,,C,,T,,M,,N,,M*24
20220704 030447+00:00 $HCHDT,355.4,T*2E
20220704 030447+00:00 $GPRMC,030442,A,4939.0096,N,12605.5398,W,1.69,350,040722,12.2,E,A,V*69
20220704 030447+00:00 $WIMWV,6.8,R,1.98,N,A*1D
20220704 030449+00:00 $IIMDA,29.9,I,1.011,B,13.3,C,,C,92.8,,,C,,T,,M,,N,,M*2B
20220704 030449+00:00 $HCHDT,355.3,T*29
20220704 030449+00:00 $GPRMC,030444,A,4939.0096,N,12605.5398,W,1.69,350,040722,12.2,E,A,V*6F
20220704 030449+00:00 $WIMWV,0.19,R,3.38,N,A*23
20220704 030451+00:00 $IIMDA,29.9,I,1.011,B,13.3,C,,C,92.8,,,C,,T,,M,,N,,M*2B
20220704 030451+00:00 $HCHDT,355.1,T*2B
20220704 030451+00:00 $GPRMC,030446,A,4939.0096,N,12605.5398,W,1.59,350,040722,12.2,E,A,V*6E
20220704 030451+00:00 $WIMWV,348.49,R,1.98,N,A*21
20220704 030453+00:00 $IIMDA,29.9,I,1.011,B,13.3,C,,C,92.7,,,C,,T,,M,,N,,M*24
20220704 030453+00:00 $HCHDT,354.8,T*23
20220704 030453+00:00 $GPRMC,030448,A,4939.0096,N,12605.5398,W,1.59,350,040722,12.2,E,A,V*60
20220704 030453+00:00 $WIMWV,355.79,R,3.89,N,A*2C
20220704 030455+00:00 $IIMDA,29.9,I,1.011,B,13.3,C,,C,92.7,,,C,,T,,M,,N,,M*24
20220704 030455+00:00 $HCHDT,354.5,T*2E
20220704 030455+00:00 $GPRMC,030450,A,4939.0096,N,12605.5398,W,1.59,349,040722,12.2,E,A,V*61
20220704 030455+00:00 $WIMWV,357.39,R,3.09,N,A*22
20220704 030457+00:00 $IIMDA,29.9,I,1.011,B,13.3,C,,C,92.7,,,C,,T,,M,,N,,M*24
20220704 030457+00:00 $HCHDT,354,T*35
20220704 030457+00:00 $GPRMC,030452,A,4939.0096,N,12605.5398,W,1.59,349,040722,12.2,E,A,V*63
20220704 030457+00:00 $WIMWV,9.4,R,2.9,N,A*25
20220704 030459+00:00 $IIMDA,29.9,I,1.011,B,13.3,C,,C,92.8,,,C,,T,,M,,N,,M*2B
20220704 030459+00:00 $HCHDT,353.4,T*28
20220704 030459+00:00 $GPRMC,030454,A,4939.0096,N,12605.5398,W,1.59,349,040722,12.2,E,A,V*65
20220704 030459+00:00 $WIMWV,5,R,3.5,N,A*3E
20220704 030501+00:00 $IIMDA,29.9,I,1.011,B,13.3,C,,C,92.7,,,C,,T,,M,,N,,M*24
20220704 030501+00:00 $HCHDT,352.4,T*29
20220704 030501+00:00 $GPRMC,030456,A,4939.0198,N,12605.5398,W,1.69,349,040722,12.2,E,A,V*6B
20220704 030501+00:00 $WIMWV,0.19,R,3.89,N,A*29
20220704 030503+00:00 $IIMDA,29.9,I,1.011,B,13.3,C,,C,92.8,,,C,,T,,M,,N,,M*2B
20220704 030503+00:00 $HCHDT,351.5,T*2B
20220704 030503+00:00 $GPRMC,030458,A,4939.0198,N,12605.5398,W,1.69,349,040722,12.2,E,A,V*65
20220704 030503+00:00 $WIMWV,0.19,R,3.89,N,A*29
20220704 030505+00:00 $IIMDA,29.9,I,1.011,B,13.3,C,,C,92.7,,,C,,T,,M,,N,,M*24
20220704 030505+00:00 $HCHDT,350.7,T*28
20220704 030505+00:00 $GPRMC,030500,A,4939.0198,N,12605.5398,W,1.81,349,040722,12.2,E,A,V*6F
20220704 030505+00:00 $WIMWV,8.79,R,1.5,N,A*11
20220704 030507+00:00 $IIMDA,29.9,I,1.011,B,13.3,C,,C,92.7,,,C,,T,,M,,N,,M*24
20220704 030507+00:00 $HCHDT,350,T*31
20220704 030507+00:00 $GPRMC,030502,A,4939.0198,N,12605.5398,W,1.9,349,040722,12.2,E,A,V*5D
20220704 030507+00:00 $WIMWV,33.09,R,2.68,N,A*16
20220704 030509+00:00 $IIMDA,29.9,I,1.011,B,13.3,C,,C,92.8,,,C,,T,,M,,N,,M*2B
20220704 030509+00:00 $HCHDT,349.1,T*26
20220704 030509+00:00 $GPRMC,030504,A,4939.0198,N,12605.5398,W,2.1,349,040722,12.2,E,A,V*50
20220704 030509+00:00 $WIMWV,3.1,R,4.49,N,A*18
20220704 030511+00:00 $IIMDA,29.9,I,1.011,B,13.3,C,,C,92.7,,,C,,T,,M,,N,,M*24
20220704 030511+00:00 $HCHDT,348.2,T*24
20220704 030511+00:00 $GPRMC,030506,A,4939.0198,N,12605.5398,W,2.29,349,040722,12.2,E,A,V*68
20220704 030511+00:00 $WIMWV,358.99,R,5.29,N,A*23
20220704 030513+00:00 $IIMDA,29.9,I,1.011,B,13.3,C,,C,92.7,,,C,,T,,M,,N,,M*24
20220704 030513+00:00 $HCHDT,347.4,T*2D
20220704 030513+00:00 $GPRMC,030508,A,4939.0198,N,12605.5398,W,2.51,349,040722,12.2,E,A,V*69
20220704 030513+00:00 $WIMWV,3.6,R,5.6,N,A*25
20220704 030515+00:00 $IIMDA,29.9,I,1.011,B,13.3,C,,C,92.8,,,C,,T,,M,,N,,M*2B
20220704 030515+00:00 $HCHDT,346.7,T*2F
20220704 030515+00:00 $GPRMC,030510,A,4939.0300,N,12605.5398,W,2.8,349,040722,12.2,E,A,V*5F
20220704 030515+00:00 $WIMWV,27,R,3.19,N,A*33
20220704 030517+00:00 $IIMDA,29.9,I,1.011,B,13.3,C,,C,92.7,,,C,,T,,M,,N,,M*24
20220704 030517+00:00 $HCHDT,346.2,T*2A
20220704 030517+00:00 $GPRMC,030512,A,4939.0300,N,12605.5398,W,3.09,349,040722,12.2,E,A,V*6D
20220704 030517+00:00 $WIMWV,359.79,R,5.99,N,A*27
20220704 030519+00:00 $IIMDA,29.9,I,1.011,B,13.3,C,,C,92.8,,,C,,T,,M,,N,,M*2B
20220704 030519+00:00 $HCHDT,345.8,T*23
20220704 030519+00:00 $GPRMC,030514,A,4939.0300,N,12605.5398,W,3.4,348,040722,12.2,E,A,V*57
20220704 030519+00:00 $WIMWV,7.49,R,6.78,N,A*20
20220704 030521+00:00 $IIMDA,29.9,I,1.011,B,13.3,C,,C,92.8,,,C,,T,,M,,N,,M*2B
20220704 030521+00:00 $HCHDT,345.5,T*2E
20220704 030521+00:00 $GPRMC,030516,A,4939.0300,N,12605.5398,W,3.69,348,040722,12.2,E,A,V*6E
20220704 030521+00:00 $WIMWV,1.4,R,6.3,N,A*23
20220704 030523+00:00 $IIMDA,29.9,I,1.011,B,13.3,C,,C,92.8,,,C,,T,,M,,N,,M*2B
20220704 030523+00:00 $HCHDT,345.4,T*2F
20220704 030523+00:00 $GPRMC,030518,A,4939.0300,N,12605.5398,W,4,348,040722,12.2,E,A,V*46
20220704 030523+00:00 $WIMWV,14.4,R,5.48,N,A*2B
20220704 030525+00:00 $IIMDA,29.9,I,1.011,B,13.3,C,,C,92.8,,,C,,T,,M,,N,,M*2B
20220704 030525+00:00 $HCHDT,345.5,T*2E
20220704 030525+00:00 $GPRMC,030520,A,4939.0396,N,12605.5500,W,4.3,347,040722,12.2,E,A,V*57
20220704 030525+00:00 $WIMWV,356.69,R,3.79,N,A*21
20220704 030527+00:00 $IIMDA,29.9,I,1.011,B,13.3,C,,C,92.7,,,C,,T,,M,,N,,M*24
20220704 030527+00:00 $HCHDT,345.6,T*2D
20220704 030527+00:00 $GPRMC,030522,A,4939.0396,N,12605.5500,W,4.51,347,040722,12.2,E,A,V*62
20220704 030527+00:00 $WIMWV,357.79,R,6.18,N,A*23
20220704 030529+00:00 $IIMDA,29.9,I,1.011,B,13.3,C,,C,92.7,,,C,,T,,M,,N,,M*24
20220704 030529+00:00 $HCHDT,345.7,T*2C
20220704 030529+00:00 $GPRMC,030524,A,4939.0396,N,12605.5500,W,4.8,347,040722,12.2,E,A,V*58
20220704 030529+00:00 $WIMWV,0.1,R,7.39,N,A*1F
20220704 030531+00:00 $IIMDA,29.9,I,1.011,B,13.3,C,,C,92.7,,,C,,T,,M,,N,,M*24
20220704 030531+00:00 $HCHDT,345.7,T*2C
20220704 030531+00:00 $GPRMC,030526,A,4939.0498,N,12605.5500,W,5,347,040722,12.2,E,A,V*44
20220704 030531+00:00 $WIMWV,359.79,R,6.59,N,A*28
20220704 030533+00:00 $IIMDA,29.9,I,1.011,B,13.3,C,,C,92.7,,,C,,T,,M,,N,,M*24
20220704 030533+00:00 $HCHDT,345.7,T*2C
20220704 030533+00:00 $GPRMC,030528,A,4939.0498,N,12605.5500,W,5.21,347,040722,12.2,E,A,V*67
20220704 030533+00:00 $WIMWV,352.29,R,5.19,N,A*21
20220704 030535+00:00 $IIMDA,29.9,I,1.011,B,13.3,C,,C,92.7,,,C,,T,,M,,N,,M*24
20220704 030535+00:00 $HCHDT,345.7,T*2C
20220704 030535+00:00 $GPRMC,030530,A,4939.0498,N,12605.5500,W,5.4,347,040722,12.2,E,A,V*59
20220704 030535+00:00 $WIMWV,343.59,R,3.98,N,A*29
20220704 030537+00:00 $IIMDA,29.9,I,1.011,B,13.3,C,,C,92.7,,,C,,T,,M,,N,,M*24
20220704 030537+00:00 $HCHDT,345.6,T*2D
20220704 030537+00:00 $GPRMC,030532,A,4939.0600,N,12605.5500,W,5.5,346,040722,12.2,E,A,V*58
20220704 030537+00:00 $WIMWV,343.19,R,4.3,N,A*18
20220704 030539+00:00 $IIMDA,29.9,I,1.011,B,13.3,C,,C,92.7,,,C,,T,,M,,N,,M*24
20220704 030539+00:00 $HCHDT,345.5,T*2E
20220704 030539+00:00 $GPRMC,030534,A,4939.0600,N,12605.5500,W,5.6,346,040722,12.2,E,A,V*5D
20220704 030539+00:00 $WIMWV,7.2,R,3.98,N,A*14
20220704 030541+00:00 $IIMDA,29.9,I,1.011,B,13.3,C,,C,92.7,,,C,,T,,M,,N,,M*24
20220704 030541+00:00 $HCHDT,345.4,T*2F
20220704 030541+00:00 $GPRMC,030536,A,4939.0600,N,12605.5500,W,5.7,346,040722,12.2,E,A,V*5E
20220704 030541+00:00 $WIMWV,344.19,R,4.39,N,A*26
20220704 030543+00:00 $IIMDA,29.9,I,1.011,B,13.3,C,,C,92.7,,,C,,T,,M,,N,,M*24
20220704 030543+00:00 $HCHDT,345.4,T*2F
20220704 030543+00:00 $GPRMC,030538,A,4939.0600,N,12605.5596,W,5.7,346,040722,12.2,E,A,V*5F
20220704 030543+00:00 $WIMWV,350.09,R,5.29,N,A*22
20220704 030545+00:00 $IIMDA,29.9,I,1.011,B,13.3,C,,C,92.7,,,C,,T,,M,,N,,M*24
20220704 030545+00:00 $HCHDT,345.6,T*2D
20220704 030545+00:00 $GPRMC,030540,A,4939.0696,N,12605.5596,W,5.7,346,040722,12.2,E,A,V*5F
20220704 030545+00:00 $WIMWV,341.49,R,4.08,N,A*24
20220704 030547+00:00 $IIMDA,29.9,I,1.011,B,13.3,C,,C,92.7,,,C,,T,,M,,N,,M*24
20220704 030547+00:00 $HCHDT,345.9,T*22
20220704 030547+00:00 $GPRMC,030542,A,4939.0696,N,12605.5596,W,5.7,346,040722,12.2,E,A,V*5D
20220704 030547+00:00 $WIMWV,7.8,R,4.3,N,A*2B
20220704 030549+00:00 $IIMDA,29.9,I,1.011,B,13.3,C,,C,92.7,,,C,,T,,M,,N,,M*24
20220704 030549+00:00 $HCHDT,346.2,T*2A
20220704 030549+00:00 $GPRMC,030544,A,4939.0696,N,12605.5596,W,5.7,346,040722,12.2,E,A,V*5B
20220704 030549+00:00 $WIMWV,348.99,R,5.79,N,A*27
20220704 030551+00:00 $IIMDA,29.9,I,1.011,B,13.3,C,,C,92.7,,,C,,T,,M,,N,,M*24
20220704 030551+00:00 $HCHDT,346.6,T*2E
20220704 030551+00:00 $GPRMC,030546,A,4939.0798,N,12605.5596,W,5.6,346,040722,12.2,E,A,V*57
20220704 030551+00:00 $WIMWV,359.09,R,6.08,N,A*2B
20220704 030553+00:00 $IIMDA,29.9,I,1.011,B,13.3,C,,C,92.7,,,C,,T,,M,,N,,M*24
20220704 030553+00:00 $HCHDT,347,T*37
20220704 030553+00:00 $GPRMC,030548,A,4939.0798,N,12605.5596,W,5.6,346,040722,12.2,E,A,V*59
20220704 030553+00:00 $WIMWV,0,R,6.3,N,A*38
20220704 030555+00:00 $IIMDA,29.9,I,1.011,B,13.3,C,,C,92.7,,,C,,T,,M,,N,,M*24
20220704 030555+00:00 $HCHDT,347.3,T*2A
20220704 030555+00:00 $GPRMC,030550,A,4939.0798,N,12605.5596,W,5.5,346,040722,12.2,E,A,V*53
20220704 030555+00:00 $WIMWV,342.49,R,4.08,N,A*27
20220704 030557+00:00 $IIMDA,29.9,I,1.011,B,13.3,C,,C,92.7,,,C,,T,,M,,N,,M*24
20220704 030557+00:00 $HCHDT,347.6,T*2F
20220704 030557+00:00 $GPRMC,030552,A,4939.0900,N,12605.5596,W,5.5,347,040722,12.2,E,A,V*5F
20220704 030557+00:00 $WIMWV,354.99,R,2.2,N,A*11
20220704 030559+00:00 $IIMDA,29.9,I,1.011,B,13.3,C,,C,92.7,,,C,,T,,M,,N,,M*24
20220704 030559+00:00 $HCHDT,348,T*38
20220704 030559+00:00 $GPRMC,030554,A,4939.0900,N,12605.5596,W,5.4,347,040722,12.2,E,A,V*58
20220704 030559+00:00 $WIMWV,357.29,R,3.89,N,A*2B
20220704 030601+00:00 $IIMDA,29.9,I,1.011,B,13.3,C,,C,92.7,,,C,,T,,M,,N,,M*24
20220704 030601+00:00 $HCHDT,348.2,T*24
20220704 030601+00:00 $GPRMC,030556,A,4939.0900,N,12605.5698,W,5.31,347,040722,12.2,E,A,V*61
20220704 030601+00:00 $WIMWV,0.19,R,3.19,N,A*20
20220704 030603+00:00 $IIMDA,29.9,I,1.011,B,13.3,C,,C,92.7,,,C,,T,,M,,N,,M*24
20220704 030603+00:00 $HCHDT,348.4,T*22
20220704 030603+00:00 $GPRMC,030558,A,4939.0900,N,12605.5698,W,5.21,348,040722,12.2,E,A,V*61
20220704 030603+00:00 $WIMWV,354.79,R,5.19,N,A*22
20220704 030605+00:00 $IIMDA,29.9,I,1.011,B,13.3,C,,C,92.7,,,C,,T,,M,,N,,M*24
20220704 030605+00:00 $HCHDT,348.6,T*20
20220704 030605+00:00 $GPRMC,030600,A,4939.0996,N,12605.5698,W,5.09,348,040722,12.2,E,A,V*6A
20220704 030605+00:00 $WIMWV,2.3,R,3.38,N,A*1A
20220704 030607+00:00 $IIMDA,29.9,I,1.011,B,13.3,C,,C,92.8,,,C,,T,,M,,N,,M*2B
20220704 030607+00:00 $HCHDT,348.7,T*21
20220704 030607+00:00 $GPRMC,030602,A,4939.0996,N,12605.5698,W,5,348,040722,12.2,E,A,V*4F
20220704 030607+00:00 $WIMWV,342.79,R,2.8,N,A*12
20220704 030609+00:00 $IIMDA,29.9,I,1.011,B,13.3,C,,C,92.7,,,C,,T,,M,,N,,M*24
20220704 030609+00:00 $HCHDT,348.8,T*2E
20220704 030609+00:00 $GPRMC,030604,A,4939.0996,N,12605.5698,W,4.9,348,040722,12.2,E,A,V*5F
20220704 030609+00:00 $WIMWV,355.09,R,2.1,N,A*1A
20220704 030611+00:00 $IIMDA,29.9,I,1.011,B,13.3,C,,C,92.7,,,C,,T,,M,,N,,M*24
20220704 030611+00:00 $HCHDT,348.7,T*21
20220704 030611+00:00 $GPRMC,030606,A,4939.0996,N,12605.5698,W,4.8,348,040722,12.2,E,A,V*5C
20220704 030611+00:00 $WIMWV,67.8,R,1.28,N,A*21
20220704 030613+00:00 $IIMDA,29.9,I,1.011,B,13.3,C,,C,92.7,,,C,,T,,M,,N,,M*24
20220704 030613+00:00 $HCHDT,348.4,T*22
20220704 030613+00:00 $GPRMC,030608,A,4939.1098,N,12605.5698,W,4.8,348,040722,12.2,E,A,V*54
20220704 030613+00:00 $WIMWV,346.99,R,4.68,N,A*28
20220704 030615+00:00 $IIMDA,29.9,I,1.011,B,13.3,C,,C,92.7,,,C,,T,,M,,N,,M*24
20220704 030615+00:00 $HCHDT,347.9,T*20
20220704 030615+00:00 $GPRMC,030610,A,4939.1098,N,12605.5698,W,4.7,348,040722,12.2,E,A,V*52
20220704 030615+00:00 $WIMWV,352.99,R,5.99,N,A*22
20220704 030617+00:00 $IIMDA,29.9,I,1.011,B,13.3,C,,C,92.8,,,C,,T,,M,,N,,M*2B
20220704 030617+00:00 $HCHDT,347.3,T*2A
20220704 030617+00:00 $GPRMC,030612,A,4939.1098,N,12605.5698,W,4.61,348,040722,12.2,E,A,V*60
20220704 030617+00:00 $WIMWV,353.09,R,4.3,N,A*18
20220704 030619+00:00 $IIMDA,29.9,I,1.011,B,13.3,C,,C,92.7,,,C,,T,,M,,N,,M*24
20220704 030619+00:00 $HCHDT,346.6,T*2E
20220704 030619+00:00 $GPRMC,030614,A,4939.1098,N,12605.5698,W,4.61,348,040722,12.2,E,A,V*66
20220704 030619+00:00 $WIMWV,342.59,R,4.39,N,A*24
20220704 030621+00:00 $IIMDA,29.9,I,1.011,B,13.3,C,,C,92.8,,,C,,T,,M,,N,,M*2B
20220704 030621+00:00 $HCHDT,345.9,T*22
20220704 030621+00:00 $GPRMC,030616,A,4939.1200,N,12605.5698,W,4.51,347,040722,12.2,E,A,V*6B
20220704 030621+00:00 $WIMWV,356.29,R,3.79,N,A*25
20220704 030623+00:00 $IIMDA,29.9,I,1.011,B,13.3,C,,C,92.7,,,C,,T,,M,,N,,M*24
20220704 030623+00:00 $HCHDT,345.3,T*28
20220704 030623+00:00 $GPRMC,030618,A,4939.1200,N,12605.5698,W,4.39,347,040722,12.2,E,A,V*6B
20220704 030623+00:00 $WIMWV,345.49,R,4.68,N,A*26
20220704 030625+00:00 $IIMDA,29.9,I,1.011,B,13.3,C,,C,92.8,,,C,,T,,M,,N,,M*2B
20220704 030625+00:00 $HCHDT,344.5,T*2F
20220704 030625+00:00 $GPRMC,030620,A,4939.1200,N,12605.5800,W,4.3,346,040722,12.2,E,A,V*57
20220704 030625+00:00 $WIMWV,349.59,R,3.38,N,A*29
20220704 030627+00:00 $IIMDA,29.9,I,1.011,B,13.3,C,,C,92.8,,,C,,T,,M,,N,,M*2B
20220704 030627+00:00 $HCHDT,343.6,T*2B
20220704 030627+00:00 $GPRMC,030622,A,4939.1200,N,12605.5800,W,4.2,345,040722,12.2,E,A,V*57
20220704 030627+00:00 $WIMWV,340.59,R,3.19,N,A*23
20220704 030629+00:00 $IIMDA,29.9,I,1.011,B,13.3,C,,C,92.8,,,C,,T,,M,,N,,M*2B
20220704 030629+00:00 $HCHDT,342.8,T*24
20220704 030629+00:00 $GPRMC,030624,A,4939.1200,N,12605.5800,W,4.1,345,040722,12.2,E,A,V*52
20220704 030629+00:00 $WIMWV,0.19,R,0.7,N,A*1C
20220704 030631+00:00 $IIMDA,29.9,I,1.011,B,13.3,C,,C,92.8,,,C,,T,,M,,N,,M*2B
20220704 030631+00:00 $HCHDT,342.1,T*2D
20220704 030631+00:00 $GPRMC,030626,A,4939.1296,N,12605.5800,W,4,344,040722,12.2,E,A,V*41
20220704 030631+00:00 $WIMWV,286.19,R,0.99,N,A*27
20220704 030633+00:00 $IIMDA,29.9,I,1.011,B,13.3,C,,C,92.8,,,C,,T,,M,,N,,M*2B
20220704 030633+00:00 $HCHDT,341.7,T*28
20220704 030633+00:00 $GPRMC,030628,A,4939.1296,N,12605.5800,W,3.79,343,040722,12.2,E,A,V*6F
20220704 030633+00:00 $WIMWV,125.49,R,1.79,N,A*27
20220704 030635+00:00 $IIMDA,29.9,I,1.011,B,13.3,C,,C,92.8,,,C,,T,,M,,N,,M*2B
20220704 030635+00:00 $HCHDT,341.7,T*28
20220704 030635+00:00 $GPRMC,030630,A,4939.1296,N,12605.5800,W,3.6,343,040722,12.2,E,A,V*5E
20220704 030635+00:00 $WIMWV,200.79,R,2.1,N,A*1C
20220704 030637+00:00 $IIMDA,29.9,I,1.011,B,13.3,C,,C,92.8,,,C,,T,,M,,N,,M*2B
20220704 030637+00:00 $HCHDT,341.9,T*26
20220704 030637+00:00 $GPRMC,030632,A,4939.1296,N,12605.5800,W,3.3,343,040722,12.2,E,A,V*59
20220704 030637+00:00 $WIMWV,189.2,R,1.89,N,A*11
20220704 030639+00:00 $IIMDA,29.9,I,1.011,B,13.3,C,,C,92.9,,,C,,T,,M,,N,,M*2A
20220704 030639+00:00 $HCHDT,342.2,T*2E
20220704 030639+00:00 $GPRMC,030634,A,4939.1296,N,12605.5800,W,2.99,343,040722,12.2,E,A,V*6D
20220704 030639+00:00 $WIMWV,203.89,R,1.09,N,A*2B
20220704 030641+00:00 $IIMDA,29.9,I,1.011,B,13.3,C,,C,92.9,,,C,,T,,M,,N,,M*2A
20220704 030641+00:00 $HCHDT,342.8,T*24
20220704 030641+00:00 $GPRMC,030636,A,4939.1296,N,12605.5800,W,2.7,343,040722,12.2,E,A,V*58
20220704 030641+00:00 $WIMWV,326.99,R,1.09,N,A*2C
20220704 030643+00:00 $IIMDA,29.9,I,1.011,B,13.3,C,,C,92.9,,,C,,T,,M,,N,,M*2A
20220704 030643+00:00 $HCHDT,343.5,T*28
20220704 030643+00:00 $GPRMC,030638,A,4939.1296,N,12605.5800,W,2.51,343,040722,12.2,E,A,V*65
20220704 030643+00:00 $WIMWV,300.89,R,2.49,N,A*2E
20220704 030645+00:00 $IIMDA,29.9,I,1.011,B,13.3,C,,C,92.9,,,C,,T,,M,,N,,M*2A
20220704 030645+00:00 $HCHDT,344.5,T*2F
20220704 030645+00:00 $GPRMC,030640,A,4939.1296,N,12605.5800,W,2.2,343,040722,12.2,E,A,V*5C
20220704 030645+00:00 $WIMWV,269.99,R,2.8,N,A*14
20220704 030647+00:00 $IIMDA,29.9,I,1.011,B,13.3,C,,C,92.9,,,C,,T,,M,,N,,M*2A
20220704 030647+00:00 $HCHDT,345.7,T*2C
20220704 030647+00:00 $GPRMC,030642,A,4939.1398,N,12605.5800,W,1.9,343,040722,12.2,E,A,V*59
20220704 030647+00:00 $WIMWV,251.49,R,2.29,N,A*21
20220704 030649+00:00 $IIMDA,29.9,I,1.011,B,13.3,C,,C,92.9,,,C,,T,,M,,N,,M*2A
20220704 030649+00:00 $HCHDT,347,T*37
20220704 030649+00:00 $GPRMC,030644,A,4939.1398,N,12605.5800,W,1.59,344,040722,12.2,E,A,V*6D
20220704 030649+00:00 $WIMWV,206.39,R,1.5,N,A*19
20220704 030651+00:00 $IIMDA,29.9,I,1.011,B,13.3,C,,C,92.9,,,C,,T,,M,,N,,M*2A
20220704 030651+00:00 $HCHDT,348.2,T*24
20220704 030651+00:00 $GPRMC,030646,A,4939.1398,N,12605.5800,W,1.5,345,040722,12.2,E,A,V*57
20220704 030651+00:00 $WIMWV,248.29,R,1.59,N,A*2B
20220704 030653+00:00 $IIMDA,29.9,I,1.011,B,13.3,C,,C,92.9,,,C,,T,,M,,N,,M*2A
20220704 030653+00:00 $HCHDT,349.2,T*25
20220704 030653+00:00 $GPRMC,030648,A,4939.1398,N,12605.5800,W,1.3,346,040722,12.2,E,A,V*5C
20220704 030653+00:00 $WIMWV,336.29,R,0.39,N,A*24
20220704 030655+00:00 $IIMDA,29.9,I,1.011,B,13.3,C,,C,92.9,,,C,,T,,M,,N,,M*2A
20220704 030655+00:00 $HCHDT,350.2,T*2D
20220704 030655+00:00 $GPRMC,030650,A,4939.1398,N,12605.5800,W,1.3,348,040722,12.2,E,A,V*5B
20220704 030655+00:00 $WIMWV,301.59,R,1.28,N,A*26
20220704 030657+00:00 $IIMDA,29.9,I,1.011,B,13.3,C,,C,93,,,C,,T,,M,,N,,M*3C
20220704 030657+00:00 $HCHDT,351.2,T*2C
20220704 030657+00:00 $GPRMC,030652,A,4939.1398,N,12605.5800,W,1.3,349,040722,12.2,E,A,V*58
20220704 030657+00:00 $WIMWV,334.19,R,2.49,N,A*20
20220704 030659+00:00 $IIMDA,29.9,I,1.011,B,13.3,C,,C,92.9,,,C,,T,,M,,N,,M*2A
20220704 030659+00:00 $HCHDT,352.2,T*2F
20220704 030659+00:00 $GPRMC,030654,A,4939.1398,N,12605.5800,W,1.3,350,040722,12.2,E,A,V*56
20220704 030659+00:00 $WIMWV,335.89,R,2.39,N,A*2F
20220704 030701+00:00 $IIMDA,29.9,I,1.011,B,13.3,C,,C,93,,,C,,T,,M,,N,,M*3C
20220704 030701+00:00 $HCHDT,353.1,T*2D
20220704 030701+00:00 $GPRMC,030656,A,4939.1398,N,12605.5800,W,1.3,350,040722,12.2,E,A,V*54
20220704 030701+00:00 $WIMWV,338.49,R,2.99,N,A*24
20220704 030703+00:00 $IIMDA,29.9,I,1.011,B,13.3,C,,C,93,,,C,,T,,M,,N,,M*3C
20220704 030703+00:00 $HCHDT,353.8,T*24
20220704 030703+00:00 $GPRMC,030658,A,4939.1398,N,12605.5800,W,1.4,351,040722,12.2,E,A,V*5C
20220704 030703+00:00 $WIMWV,350.39,R,2.99,N,A*2D
20220704 030705+00:00 $IIMDA,29.9,I,1.011,B,13.3,C,,C,93,,,C,,T,,M,,N,,M*3C
20220704 030705+00:00 $HCHDT,354.6,T*2D
20220704 030705+00:00 $GPRMC,030700,A,4939.1398,N,12605.5800,W,1.5,352,040722,12.2,E,A,V*52
20220704 030705+00:00 $WIMWV,346.99,R,2.49,N,A*2D
20220704 030707+00:00 $IIMDA,29.9,I,1.011,B,13.3,C,,C,93,,,C,,T,,M,,N,,M*3C
20220704 030707+00:00 $HCHDT,355.3,T*29
20220704 030707+00:00 $GPRMC,030702,A,4939.1398,N,12605.5800,W,1.5,353,040722,12.2,E,A,V*51
20220704 030707+00:00 $WIMWV,354.19,R,2.9,N,A*12
20220704 030709+00:00 $IIMDA,29.9,I,1.011,B,13.3,C,,C,93,,,C,,T,,M,,N,,M*3C
20220704 030709+00:00 $HCHDT,355.9,T*23
20220704 030709+00:00 $GPRMC,030704,A,4939.1398,N,12605.5800,W,1.59,354,040722,12.2,E,A,V*69
20220704 030709+00:00 $WIMWV,342.99,R,3.19,N,A*2D
20220704 030711+00:00 $IIMDA,29.9,I,1.011,B,13.3,C,,C,93,,,C,,T,,M,,N,,M*3C
20220704 030711+00:00 $HCHDT,356.4,T*2D
20220704 030711+00:00 $GPRMC,030706,A,4939.1500,N,12605.5800,W,1.69,355,040722,12.2,E,A,V*6E
20220704 030711+00:00 $WIMWV,351.89,R,3.5,N,A*13
20220704 030713+00:00 $IIMDA,29.9,I,1.011,B,13.3,C,,C,93,,,C,,T,,M,,N,,M*3C
20220704 030713+00:00 $HCHDT,356.9,T*20
20220704 030713+00:00 $GPRMC,030708,A,4939.1500,N,12605.5800,W,1.81,356,040722,12.2,E,A,V*65
20220704 030713+00:00 $WIMWV,349.69,R,3.5,N,A*14
20220704 030715+00:00 $IIMDA,29.9,I,1.011,B,13.3,C,,C,93,,,C,,T,,M,,N,,M*3C
20220704 030715+00:00 $HCHDT,357.2,T*2A
20220704 030715+00:00 $GPRMC,030710,A,4939.1500,N,12605.5896,W,1.81,357,040722,12.2,E,A,V*62
20220704 030715+00:00 $WIMWV,347.09,R,3.38,N,A*22
20220704 030717+00:00 $IIMDA,29.9,I,1.011,B,13.3,C,,C,93.1,,,C,,T,,M,,N,,M*23
20220704 030717+00:00 $HCHDT,357.4,T*2C
20220704 030717+00:00 $GPRMC,030712,A,4939.1500,N,12605.5896,W,1.9,358,040722,12.2,E,A,V*5F
20220704 030717+00:00 $WIMWV,341.19,R,3.5,N,A*1B
20220704 030719+00:00 $IIMDA,29.9,I,1.011,B,13.3,C,,C,93.1,,,C,,T,,M,,N,,M*23
20220704 030719+00:00 $HCHDT,357.6,T*2E
20220704 030719+00:00 $GPRMC,030714,A,4939.1500,N,12605.5896,W,2,359,040722,12.2,E,A,V*4C
20220704 030719+00:00 $WIMWV,344.39,R,3.79,N,A*27
20220704 030721+00:00 $IIMDA,29.9,I,1.011,B,13.3,C,,C,93.1,,,C,,T,,M,,N,,M*23
20220704 030721+00:00 $HCHDT,357.7,T*2F
20220704 030721+00:00 $GPRMC,030716,A,4939.1500,N,12605.5800,W,2,0,040722,12.2,E,A,V*4E
20220704 030721+00:00 $WIMWV,343.29,R,3.79,N,A*21
20220704 030723+00:00 $IIMDA,29.9,I,1.011,B,13.3,C,,C,93.1,,,C,,T,,M,,N,,M*23
20220704 030723+00:00 $HCHDT,357.9,T*21
20220704 030723+00:00 $GPRMC,030718,A,4939.1500,N,12605.5800,W,2,0,040722,12.2,E,A,V*40
20220704 030723+00:00 $WIMWV,339.19,R,3.38,N,A*2A
20220704 030725+00:00 $IIMDA,29.9,I,1.011,B,13.3,C,,C,93.1,,,C,,T,,M,,N,,M*23
20220704 030725+00:00 $HCHDT,358.1,T*26
20220704 030725+00:00 $GPRMC,030720,A,4939.1500,N,12605.5800,W,2,1,040722,12.2,E,A,V*4A
20220704 030725+00:00 $WIMWV,338.49,R,3.38,N,A*2E
20220704 030727+00:00 $IIMDA,29.9,I,1.011,B,13.3,C,,C,93.1,,,C,,T,,M,,N,,M*23
20220704 030727+00:00 $HCHDT,358.1,T*26
20220704 030727+00:00 $GPRMC,030722,A,4939.1500,N,12605.5800,W,1.9,2,040722,12.2,E,A,V*5F
20220704 030727+00:00 $WIMWV,338.39,R,3.5,N,A*17
20220704 030729+00:00 $IIMDA,29.9,I,1.011,B,13.3,C,,C,93.2,,,C,,T,,M,,N,,M*20
20220704 030729+00:00 $HCHDT,358.2,T*25
20220704 030729+00:00 $GPRMC,030724,A,4939.1500,N,12605.5800,W,1.81,3,040722,12.2,E,A,V*68
20220704 030729+00:00 $WIMWV,342.39,R,3.38,N,A*24
20220704 030731+00:00 $IIMDA,29.9,I,1.011,B,13.3,C,,C,93.1,,,C,,T,,M,,N,,M*23
20220704 030731+00:00 $HCHDT,358.2,T*25
20220704 030731+00:00 $GPRMC,030726,A,4939.1596,N,12605.5800,W,1.81,4,040722,12.2,E,A,V*62
20220704 030731+00:00 $WIMWV,342.09,R,3.09,N,A*25
20220704 030733+00:00 $IIMDA,29.9,I,1.011,B,13.3,C,,C,93.2,,,C,,T,,M,,N,,M*20
20220704 030733+00:00 $HCHDT,358.1,T*26
20220704 030733+00:00 $GPRMC,030728,A,4939.1596,N,12605.5800,W,1.69,4,040722,12.2,E,A,V*6A
20220704 030733+00:00 $WIMWV,350.99,R,3.38,N,A*2D
20220704 030735+00:00 $IIMDA,29.9,I,1.011,B,13.3,C,,C,93.2,,,C,,T,,M,,N,,M*20
20220704 030735+00:00 $HCHDT,358,T*39
20220704 030735+00:00 $GPRMC,030730,A,4939.1596,N,12605.5800,W,1.69,5,040722,12.2,E,A,V*62
20220704 030735+00:00 $WIMWV,341.89,R,3.38,N,A*2C
20220704 030737+00:00 $IIMDA,29.9,I,1.011,B,13.3,C,,C,93.2,,,C,,T,,M,,N,,M*20
20220704 030737+00:00 $HCHDT,357.8,T*20
20220704 030737+00:00 $GPRMC,030732,A,4939.1596,N,12605.5800,W,1.69,5,040722,12.2,E,A,V*60
20220704 030737+00:00 $WIMWV,349.59,R,3.38,N,A*29
20220704 030739+00:00 $IIMDA,29.9,I,1.011,B,13.3,C,,C,93.2,,,C,,T,,M,,N,,M*20
20220704 030739+00:00 $HCHDT,357.7,T*2F
20220704 030739+00:00 $GPRMC,030734,A,4939.1596,N,12605.5800,W,1.81,4,040722,12.2,E,A,V*61
20220704 030739+00:00 $WIMWV,348.79,R,3.79,N,A*2F
20220704 030741+00:00 $IIMDA,29.9,I,1.011,B,13.3,C,,C,93.2,,,C,,T,,M,,N,,M*20
20220704 030741+00:00 $HCHDT,357.5,T*2D
20220704 030741+00:00 $GPRMC,030736,A,4939.1596,N,12605.5800,W,1.81,4,040722,12.2,E,A,V*63
20220704 030741+00:00 $WIMWV,342.49,R,3.89,N,A*29
20220704 030743+00:00 $IIMDA,29.9,I,1.011,B,13.3,C,,C,93.2,,,C,,T,,M,,N,,M*20
20220704 030743+00:00 $HCHDT,357.2,T*2A
20220704 030743+00:00 $GPRMC,030738,A,4939.1596,N,12605.5800,W,1.9,3,040722,12.2,E,A,V*5A
20220704 030743+00:00 $WIMWV,344.49,R,3.89,N,A*2F
20220704 030745+00:00 $IIMDA,29.9,I,1.011,B,13.3,C,,C,93.2,,,C,,T,,M,,N,,M*20
20220704 030745+00:00 $HCHDT,356.8,T*21
