20220705 050000+00:00 $IIMDA,29.9,I,1.013,B,12.4,C,,C,87.8,,,C,,T,,M,,N,,M*2B
20220705 050000+00:00 $HCHDT,51.1,T*1C
20220705 050001+00:00 $GPRMC,045956,A,4846.2996,N,12301.8300,W,9.19,50,050722,11.7,E,A,V*57
20220705 050001+00:00 $WIMWV,311.69,R,5,N,A*04
20220705 050002+00:00 $IIMDA,29.9,I,1.013,B,12.4,C,,C,87.9,,,C,,T,,M,,N,,M*2A
20220705 050002+00:00 $HCHDT,51.1,T*1C
20220705 050003+00:00 $GPRMC,045958,A,4846.3098,N,12301.8198,W,9.19,50,050722,11.7,E,A,V*5C
20220705 050003+00:00 $WIMWV,310.19,R,5.19,N,A*24
20220705 050004+00:00 $IIMDA,29.9,I,1.013,B,12.4,C,,C,87.9,,,C,,T,,M,,N,,M*2A
20220705 050004+00:00 $HCHDT,51.1,T*1C
20220705 050004+00:00 $GPRMC,050000,A,4846.3098,N,12301.8096,W,9.19,50,050722,11.7,E,A,V*53
20220705 050005+00:00 $WIMWV,311.29,R,5.09,N,A*27
20220705 050006+00:00 $IIMDA,29.9,I,1.013,B,12.4,C,,C,87.9,,,C,,T,,M,,N,,M*2A
20220705 050006+00:00 $HCHDT,51.1,T*1C
20220705 050006+00:00 $GPRMC,050002,A,4846.3098,N,12301.8096,W,9.19,50,050722,11.7,E,A,V*51
20220705 050007+00:00 $WIMWV,312.19,R,4.9,N,A*16
20220705 050008+00:00 $IIMDA,29.9,I,1.013,B,12.4,C,,C,87.9,,,C,,T,,M,,N,,M*2A
20220705 050008+00:00 $HCHDT,51.1,T*1C
20220705 050008+00:00 $GPRMC,050004,A,4846.3200,N,12301.8000,W,9.19,50,050722,11.7,E,A,V*5B
20220705 050009+00:00 $WIMWV,312.79,R,4.78,N,A*26
20220705 050010+00:00 $IIMDA,29.9,I,1.013,B,12.4,C,,C,87.9,,,C,,T,,M,,N,,M*2A
20220705 050010+00:00 $HCHDT,51,T*03
20220705 050010+00:00 $GPRMC,050006,A,4846.3200,N,12301.8000,W,9.19,50,050722,11.7,E,A,V*59
20220705 050011+00:00 $WIMWV,312.49,R,4.78,N,A*25
20220705 050012+00:00 $IIMDA,29.9,I,1.013,B,12.4,C,,C,87.8,,,C,,T,,M,,N,,M*2B
20220705 050012+00:00 $HCHDT,51,T*03
20220705 050012+00:00 $GPRMC,050008,A,4846.3200,N,12301.7898,W,9.19,50,050722,11.7,E,A,V*51
20220705 050013+00:00 $WIMWV,311.29,R,5,N,A*00
20220705 050014+00:00 $IIMDA,29.9,I,1.013,B,12.4,C,,C,87.9,,,C,,T,,M,,N,,M*2A
20220705 050014+00:00 $HCHDT,51,T*03
20220705 050014+00:00 $GPRMC,050010,A,4846.3200,N,12301.7796,W,9.19,50,050722,11.7,E,A,V*59
20220705 050015+00:00 $WIMWV,312.19,R,4.9,N,A*16
20220705 050016+00:00 $IIMDA,29.9,I,1.013,B,12.4,C,,C,87.8,,,C,,T,,M,,N,,M*2B
20220705 050016+00:00 $HCHDT,50.8,T*14
20220705 050016+00:00 $GPRMC,050012,A,4846.3296,N,12301.7796,W,9.19,50,050722,11.7,E,A,V*54
20220705 050017+00:00 $WIMWV,311.69,R,5,N,A*04
20220705 050018+00:00 $IIMDA,29.9,I,1.013,B,12.4,C,,C,87.8,,,C,,T,,M,,N,,M*2B
20220705 050018+00:00 $HCHDT,50,T*02
20220705 050018+00:00 $GPRMC,050014,A,4846.3296,N,12301.7700,W,9.19,50,050722,11.7,E,A,V*5D
20220705 050019+00:00 $WIMWV,312.69,R,4.9,N,A*11
20220705 050020+00:00 $IIMDA,29.9,I,1.013,B,12.4,C,,C,87.8,,,C,,T,,M,,N,,M*2B
20220705 050020+00:00 $HCHDT,48.9,T*1C
20220705 050020+00:00 $GPRMC,050016,A,4846.3296,N,12301.7700,W,9.19,50,050722,11.7,E,A,V*5F
20220705 050021+00:00 $WIMWV,311.79,R,5,N,A*05
20220705 050022+00:00 $IIMDA,29.9,I,1.013,B,12.4,C,,C,87.9,,,C,,T,,M,,N,,M*2A
20220705 050022+00:00 $HCHDT,47.8,T*12
20220705 050022+00:00 $GPRMC,050018,A,4846.3398,N,12301.7598,W,9.19,50,050722,11.7,E,A,V*5D
20220705 050023+00:00 $WIMWV,313.19,R,5.09,N,A*26
20220705 050024+00:00 $IIMDA,29.9,I,1.013,B,12.4,C,,C,87.9,,,C,,T,,M,,N,,M*2A
20220705 050024+00:00 $HCHDT,46.7,T*1C
20220705 050024+00:00 $GPRMC,050020,A,4846.3398,N,12301.7598,W,9.19,49,050722,11.7,E,A,V*5E
20220705 050025+00:00 $WIMWV,312.89,R,5.38,N,A*2C
20220705 050026+00:00 $IIMDA,29.9,I,1.013,B,12.4,C,,C,87.8,,,C,,T,,M,,N,,M*2B
20220705 050026+00:00 $HCHDT,45.9,T*11
20220705 050026+00:00 $GPRMC,050022,A,4846.3500,N,12301.7496,W,9.19,49,050722,11.7,E,A,V*54
20220705 050027+00:00 $WIMWV,312.49,R,5.48,N,A*27
20220705 050028+00:00 $IIMDA,29.9,I,1.013,B,12.4,C,,C,87.9,,,C,,T,,M,,N,,M*2A
20220705 050028+00:00 $HCHDT,45.3,T*1B
20220705 050028+00:00 $GPRMC,050024,A,4846.3500,N,12301.7400,W,9.19,48,050722,11.7,E,A,V*5C
20220705 050029+00:00 $WIMWV,312.99,R,5.48,N,A*2A
20220705 050030+00:00 $IIMDA,29.9,I,1.013,B,12.4,C,,C,87.9,,,C,,T,,M,,N,,M*2A
20220705 050030+00:00 $HCHDT,45.1,T*19
20220705 050030+00:00 $GPRMC,050026,A,4846.3500,N,12301.7400,W,9.19,47,050722,11.7,E,A,V*51
20220705 050031+00:00 $WIMWV,312.79,R,5.48,N,A*24
20220705 050032+00:00 $IIMDA,29.9,I,1.013,B,12.4,C,,C,87.8,,,C,,T,,M,,N,,M*2B
20220705 050032+00:00 $HCHDT,45.1,T*19
20220705 050032+00:00 $GPRMC,050028,A,4846.3596,N,12301.7298,W,9.19,47,050722,11.7,E,A,V*57
20220705 050033+00:00 $WIMWV,312.79,R,5.6,N,A*1E
20220705 050034+00:00 $IIMDA,29.9,I,1.013,B,12.4,C,,C,87.9,,,C,,T,,M,,N,,M*2A
20220705 050034+00:00 $HCHDT,45.3,T*1B
20220705 050034+00:00 $GPRMC,050030,A,4846.3596,N,12301.7298,W,9.19,46,050722,11.7,E,A,V*5F
20220705 050035+00:00 $WIMWV,312.79,R,5.6,N,A*1E
20220705 050036+00:00 $IIMDA,29.9,I,1.013,B,12.4,C,,C,87.9,,,C,,T,,M,,N,,M*2A
20220705 050036+00:00 $HCHDT,45.4,T*1C
20220705 050036+00:00 $GPRMC,050032,A,4846.3596,N,12301.7196,W,9.19,46,050722,11.7,E,A,V*50
20220705 050037+00:00 $WIMWV,312.49,R,5.48,N,A*27
20220705 050038+00:00 $IIMDA,29.9,I,1.013,B,12.4,C,,C,87.9,,,C,,T,,M,,N,,M*2A
20220705 050038+00:00 $HCHDT,45.5,T*1D
20220705 050038+00:00 $GPRMC,050034,A,4846.3698,N,12301.7196,W,9.19,46,050722,11.7,E,A,V*5B
20220705 050039+00:00 $WIMWV,313.19,R,5.48,N,A*23
20220705 050040+00:00 $IIMDA,29.9,I,1.013,B,12.4,C,,C,87.9,,,C,,T,,M,,N,,M*2A
20220705 050040+00:00 $HCHDT,45.6,T*1E
20220705 050040+00:00 $GPRMC,050036,A,4846.3698,N,12301.7100,W,9.19,46,050722,11.7,E,A,V*56
20220705 050041+00:00 $WIMWV,312.19,R,5.7,N,A*19
20220705 050042+00:00 $IIMDA,29.9,I,1.013,B,12.4,C,,C,87.8,,,C,,T,,M,,N,,M*2B
20220705 050042+00:00 $HCHDT,45.6,T*1E
20220705 050042+00:00 $GPRMC,050038,A,4846.3698,N,12301.7100,W,9.29,46,050722,11.7,E,A,V*5B
20220705 050043+00:00 $WIMWV,312.69,R,5.6,N,A*1F
20220705 050044+00:00 $IIMDA,29.9,I,1.013,B,12.4,C,,C,87.9,,,C,,T,,M,,N,,M*2A
20220705 050044+00:00 $HCHDT,45.7,T*1F
20220705 050044+00:00 $GPRMC,050040,A,4846.3800,N,12301.6998,W,9.29,46,050722,11.7,E,A,V*53
20220705 050045+00:00 $WIMWV,312.39,R,5.7,N,A*1B
20220705 050046+00:00 $IIMDA,29.9,I,1.013,B,12.4,C,,C,87.8,,,C,,T,,M,,N,,M*2B
20220705 050046+00:00 $HCHDT,45.7,T*1F
20220705 050046+00:00 $GPRMC,050042,A,4846.3800,N,12301.6896,W,9.29,46,050722,11.7,E,A,V*5E
20220705 050047+00:00 $WIMWV,313.49,R,5.48,N,A*26
20220705 050048+00:00 $IIMDA,29.9,I,1.013,B,12.4,C,,C,87.9,,,C,,T,,M,,N,,M*2A
20220705 050048+00:00 $HCHDT,45.8,T*10
20220705 050048+00:00 $GPRMC,050044,A,4846.3800,N,12301.6896,W,9.29,46,050722,11.7,E,A,V*58
20220705 050049+00:00 $WIMWV,312.29,R,5.6,N,A*1B
20220705 050050+00:00 $IIMDA,29.9,I,1.013,B,12.4,C,,C,87.8,,,C,,T,,M,,N,,M*2B
20220705 050050+00:00 $HCHDT,45.8,T*10
20220705 050050+00:00 $GPRMC,050046,A,4846.3896,N,12301.6800,W,9.29,46,050722,11.7,E,A,V*5A
20220705 050051+00:00 $WIMWV,312.09,R,5.6,N,A*19
20220705 050052+00:00 $IIMDA,29.9,I,1.013,B,12.4,C,,C,87.9,,,C,,T,,M,,N,,M*2A
20220705 050052+00:00 $HCHDT,45.8,T*10
20220705 050052+00:00 $GPRMC,050048,A,4846.3896,N,12301.6800,W,9.29,46,050722,11.7,E,A,V*54
20220705 050053+00:00 $WIMWV,311.19,R,5.6,N,A*1B
20220705 050054+00:00 $IIMDA,29.9,I,1.013,B,12.4,C,,C,87.9,,,C,,T,,M,,N,,M*2A
20220705 050054+00:00 $HCHDT,45.8,T*10
20220705 050054+00:00 $GPRMC,050050,A,4846.3998,N,12301.6698,W,9.29,46,050722,11.7,E,A,V*5D
20220705 050055+00:00 $WIMWV,311.49,R,5.48,N,A*24
20220705 050056+00:00 $IIMDA,29.9,I,1.013,B,12.4,C,,C,87.9,,,C,,T,,M,,N,,M*2A
20220705 050056+00:00 $HCHDT,45.8,T*10
20220705 050056+00:00 $GPRMC,050052,A,4846.3998,N,12301.6698,W,9.19,46,050722,11.7,E,A,V*5C
20220705 050057+00:00 $WIMWV,310.69,R,5.6,N,A*1D
20220705 050058+00:00 $IIMDA,29.9,I,1.013,B,12.4,C,,C,87.9,,,C,,T,,M,,N,,M*2A
20220705 050058+00:00 $HCHDT,45.6,T*1E
20220705 050058+00:00 $GPRMC,050054,A,4846.3998,N,12301.6596,W,9.19,46,050722,11.7,E,A,V*57
20220705 050059+00:00 $WIMWV,310.39,R,5.7,N,A*19
20220705 050100+00:00 $IIMDA,29.9,I,1.013,B,12.4,C,,C,87.8,,,C,,T,,M,,N,,M*2B
20220705 050100+00:00 $HCHDT,45.6,T*1E
20220705 050101+00:00 $GPRMC,050056,A,4846.4100,N,12301.6596,W,9.19,46,050722,11.7,E,A,V*5B
20220705 050101+00:00 $WIMWV,310.79,R,5.6,N,A*1C
20220705 050102+00:00 $IIMDA,29.9,I,1.013,B,12.4,C,,C,87.9,,,C,,T,,M,,N,,M*2A
20220705 050102+00:00 $HCHDT,45.4,T*1C
20220705 050102+00:00 $GPRMC,050058,A,4846.4100,N,12301.6500,W,9.19,46,050722,11.7,E,A,V*5A
20220705 050103+00:00 $WIMWV,310.69,R,5.6,N,A*1D
20220705 050104+00:00 $IIMDA,29.9,I,1.013,B,12.4,C,,C,87.9,,,C,,T,,M,,N,,M*2A
20220705 050104+00:00 $HCHDT,45.2,T*1A
20220705 050104+00:00 $GPRMC,050100,A,4846.4100,N,12301.6398,W,9.19,46,050722,11.7,E,A,V*51
20220705 050105+00:00 $WIMWV,310.39,R,5.7,N,A*19
20220705 050106+00:00 $IIMDA,29.9,I,1.013,B,12.4,C,,C,87.9,,,C,,T,,M,,N,,M*2A
20220705 050106+00:00 $HCHDT,45.1,T*19
20220705 050106+00:00 $GPRMC,050102,A,4846.4196,N,12301.6398,W,9.19,46,050722,11.7,E,A,V*5C
20220705 050107+00:00 $WIMWV,311.59,R,5.48,N,A*25
20220705 050108+00:00 $IIMDA,29.9,I,1.013,B,12.4,C,,C,87.9,,,C,,T,,M,,N,,M*2A
20220705 050108+00:00 $HCHDT,45,T*06
20220705 050108+00:00 $GPRMC,050104,A,4846.4196,N,12301.6296,W,9.19,46,050722,11.7,E,A,V*55
20220705 050109+00:00 $WIMWV,311.19,R,5.48,N,A*21
20220705 050110+00:00 $IIMDA,29.9,I,1.013,B,12.4,C,,C,87.9,,,C,,T,,M,,N,,M*2A
20220705 050110+00:00 $HCHDT,45,T*06
20220705 050110+00:00 $GPRMC,050106,A,4846.4196,N,12301.6296,W,9.19,46,050722,11.7,E,A,V*57
20220705 050111+00:00 $WIMWV,311.79,R,5.48,N,A*27
20220705 050112+00:00 $IIMDA,29.9,I,1.013,B,12.4,C,,C,87.9,,,C,,T,,M,,N,,M*2A
20220705 050112+00:00 $HCHDT,45,T*06
20220705 050112+00:00 $GPRMC,050108,A,4846.4298,N,12301.6200,W,9.19,46,050722,11.7,E,A,V*5B
20220705 050113+00:00 $WIMWV,311.79,R,5.48,N,A*27
20220705 050114+00:00 $IIMDA,29.9,I,1.013,B,12.4,C,,C,87.9,,,C,,T,,M,,N,,M*2A
20220705 050114+00:00 $HCHDT,45.1,T*19
20220705 050114+00:00 $GPRMC,050110,A,4846.4298,N,12301.6200,W,9.1,46,050722,11.7,E,A,V*6B
20220705 050115+00:00 $WIMWV,313.39,R,5.19,N,A*25
20220705 050116+00:00 $IIMDA,29.9,I,1.013,B,12.4,C,,C,87.9,,,C,,T,,M,,N,,M*2A
20220705 050116+00:00 $HCHDT,45.3,T*1B
20220705 050116+00:00 $GPRMC,050112,A,4846.4298,N,12301.6098,W,9.1,46,050722,11.7,E,A,V*6A
20220705 050117+00:00 $WIMWV,312.49,R,5.19,N,A*23
20220705 050118+00:00 $IIMDA,29.9,I,1.013,B,12.4,C,,C,87.9,,,C,,T,,M,,N,,M*2A
20220705 050118+00:00 $HCHDT,45.5,T*1D
20220705 050118+00:00 $GPRMC,050114,A,4846.4400,N,12301.6098,W,9.1,46,050722,11.7,E,A,V*6B
20220705 050119+00:00 $WIMWV,312.49,R,5,N,A*05
20220705 050120+00:00 $IIMDA,29.9,I,1.013,B,12.4,C,,C,87.9,,,C,,T,,M,,N,,M*2A
20220705 050120+00:00 $HCHDT,46,T*05
20220705 050120+00:00 $GPRMC,050116,A,4846.4400,N,12301.5996,W,9.1,46,050722,11.7,E,A,V*6D
20220705 050121+00:00 $WIMWV,312.39,R,4.78,N,A*22
20220705 050122+00:00 $IIMDA,29.9,I,1.013,B,12.4,C,,C,87.9,,,C,,T,,M,,N,,M*2A
20220705 050122+00:00 $HCHDT,46.6,T*1D
20220705 050122+00:00 $GPRMC,050118,A,4846.4400,N,12301.5900,W,9.1,47,050722,11.7,E,A,V*6D
20220705 050123+00:00 $WIMWV,311.79,R,4.68,N,A*24
20220705 050124+00:00 $IIMDA,29.9,I,1.013,B,12.4,C,,C,87.9,,,C,,T,,M,,N,,M*2A
20220705 050124+00:00 $HCHDT,47.2,T*18
20220705 050124+00:00 $GPRMC,050120,A,4846.4496,N,12301.5900,W,9.1,47,050722,11.7,E,A,V*69
20220705 050125+00:00 $WIMWV,311.19,R,4.3,N,A*1F
20220705 050126+00:00 $IIMDA,29.9,I,1.013,B,12.4,C,,C,87.9,,,C,,T,,M,,N,,M*2A
20220705 050126+00:00 $HCHDT,47.5,T*1F
20220705 050126+00:00 $GPRMC,050122,A,4846.4496,N,12301.5798,W,9.1,48,050722,11.7,E,A,V*6B
20220705 050127+00:00 $WIMWV,313.49,R,3.89,N,A*2D
20220705 050128+00:00 $IIMDA,29.9,I,1.013,B,12.4,C,,C,87.9,,,C,,T,,M,,N,,M*2A
20220705 050128+00:00 $HCHDT,47.5,T*1F
20220705 050128+00:00 $GPRMC,050124,A,4846.4496,N,12301.5798,W,9.1,49,050722,11.7,E,A,V*6C
20220705 050129+00:00 $WIMWV,311.79,R,4.08,N,A*22
20220705 050130+00:00 $IIMDA,29.9,I,1.013,B,12.4,C,,C,87.9,,,C,,T,,M,,N,,M*2A
20220705 050130+00:00 $HCHDT,47.4,T*1E
20220705 050130+00:00 $GPRMC,050126,A,4846.4598,N,12301.5696,W,9.1,49,050722,11.7,E,A,V*6E
20220705 050131+00:00 $WIMWV,312.29,R,3.98,N,A*2A
20220705 050132+00:00 $IIMDA,29.9,I,1.013,B,12.4,C,,C,87.9,,,C,,T,,M,,N,,M*2A
20220705 050132+00:00 $HCHDT,47.3,T*19
20220705 050132+00:00 $GPRMC,050128,A,4846.4598,N,12301.5600,W,9.1,50,050722,11.7,E,A,V*67
20220705 050133+00:00 $WIMWV,315.19,R,3.79,N,A*21
20220705 050134+00:00 $IIMDA,29.9,I,1.013,B,12.4,C,,C,87.9,,,C,,T,,M,,N,,M*2A
20220705 050134+00:00 $HCHDT,47.1,T*1B
20220705 050134+00:00 $GPRMC,050130,A,4846.4598,N,12301.5600,W,9.19,50,050722,11.7,E,A,V*57
20220705 050135+00:00 $WIMWV,316.19,R,3.79,N,A*22
20220705 050136+00:00 $IIMDA,29.9,I,1.013,B,12.5,C,,C,87.9,,,C,,T,,M,,N,,M*2B
20220705 050136+00:00 $HCHDT,46.7,T*1C
20220705 050136+00:00 $GPRMC,050132,A,4846.4700,N,12301.5498,W,9.19,50,050722,11.7,E,A,V*55
20220705 050137+00:00 $WIMWV,315.19,R,3.79,N,A*21
20220705 050138+00:00 $IIMDA,29.9,I,1.013,B,12.5,C,,C,87.9,,,C,,T,,M,,N,,M*2B
20220705 050138+00:00 $HCHDT,46,T*05
20220705 050138+00:00 $GPRMC,050134,A,4846.4700,N,12301.5498,W,9.19,50,050722,11.7,E,A,V*53
20220705 050139+00:00 $WIMWV,314.99,R,3.79,N,A*28
20220705 050140+00:00 $IIMDA,29.9,I,1.013,B,12.5,C,,C,87.9,,,C,,T,,M,,N,,M*2B
20220705 050140+00:00 $HCHDT,45.5,T*1D
20220705 050140+00:00 $GPRMC,050136,A,4846.4700,N,12301.5396,W,9.19,50,050722,11.7,E,A,V*58
20220705 050141+00:00 $WIMWV,316.29,R,3.89,N,A*2E
20220705 050142+00:00 $IIMDA,29.9,I,1.013,B,12.5,C,,C,87.9,,,C,,T,,M,,N,,M*2B
20220705 050142+00:00 $HCHDT,45.2,T*1A
20220705 050142+00:00 $GPRMC,050138,A,4846.4796,N,12301.5396,W,9.19,50,050722,11.7,E,A,V*59
20220705 050143+00:00 $WIMWV,316.89,R,3.89,N,A*24
20220705 050144+00:00 $IIMDA,29.9,I,1.013,B,12.5,C,,C,87.9,,,C,,T,,M,,N,,M*2B
20220705 050144+00:00 $HCHDT,44.8,T*11
20220705 050144+00:00 $GPRMC,050140,A,4846.4796,N,12301.5300,W,9.19,50,050722,11.7,E,A,V*59
20220705 050145+00:00 $WIMWV,317.89,R,3.98,N,A*25
20220705 050146+00:00 $IIMDA,29.9,I,1.013,B,12.5,C,,C,87.9,,,C,,T,,M,,N,,M*2B
20220705 050146+00:00 $HCHDT,44.5,T*1C
20220705 050146+00:00 $GPRMC,050142,A,4846.4796,N,12301.5198,W,9.19,50,050722,11.7,E,A,V*58
20220705 050147+00:00 $WIMWV,316.69,R,3.98,N,A*2A
20220705 050148+00:00 $IIMDA,29.9,I,1.013,B,12.5,C,,C,87.9,,,C,,T,,M,,N,,M*2B
20220705 050148+00:00 $HCHDT,44.3,T*1A
20220705 050148+00:00 $GPRMC,050144,A,4846.4898,N,12301.5198,W,9.19,50,050722,11.7,E,A,V*5F
20220705 050149+00:00 $WIMWV,315.59,R,3.98,N,A*2A
20220705 050150+00:00 $IIMDA,29.9,I,1.013,B,12.5,C,,C,87.9,,,C,,T,,M,,N,,M*2B
20220705 050150+00:00 $HCHDT,44.2,T*1B
20220705 050150+00:00 $GPRMC,050146,A,4846.4898,N,12301.5096,W,9.19,49,050722,11.7,E,A,V*5A
20220705 050151+00:00 $WIMWV,319.09,R,4.08,N,A*2D
20220705 050152+00:00 $IIMDA,29.9,I,1.013,B,12.5,C,,C,88,,,C,,T,,M,,N,,M*33
20220705 050152+00:00 $HCHDT,44.4,T*1D
20220705 050152+00:00 $GPRMC,050148,A,4846.4898,N,12301.5096,W,9.19,49,050722,11.7,E,A,V*54
20220705 050153+00:00 $WIMWV,320.69,R,4.08,N,A*21
20220705 050154+00:00 $IIMDA,29.9,I,1.013,B,12.5,C,,C,87.9,,,C,,T,,M,,N,,M*2B
20220705 050154+00:00 $HCHDT,44.7,T*1E
20220705 050154+00:00 $GPRMC,050150,A,4846.5000,N,12301.5000,W,9.19,49,050722,11.7,E,A,V*5A
20220705 050155+00:00 $WIMWV,321.09,R,4.2,N,A*1C
20220705 050156+00:00 $IIMDA,29.9,I,1.013,B,12.5,C,,C,87.9,,,C,,T,,M,,N,,M*2B
20220705 050156+00:00 $HCHDT,45,T*06
20220705 050156+00:00 $GPRMC,050152,A,4846.5000,N,12301.4898,W,9.19,49,050722,11.7,E,A,V*50
20220705 050157+00:00 $WIMWV,322.29,R,4.3,N,A*1C
20220705 050158+00:00 $IIMDA,29.9,I,1.013,B,12.5,C,,C,87.9,,,C,,T,,M,,N,,M*2B
20220705 050158+00:00 $HCHDT,45.2,T*1A
20220705 050158+00:00 $GPRMC,050154,A,4846.5000,N,12301.4898,W,9.19,49,050722,11.7,E,A,V*56
20220705 050159+00:00 $WIMWV,324.19,R,4.39,N,A*20
20220705 050200+00:00 $IIMDA,29.9,I,1.013,B,12.5,C,,C,88,,,C,,T,,M,,N,,M*33
20220705 050201+00:00 $HCHDT,45.4,T*1C
20220705 050201+00:00 $GPRMC,050156,A,4846.5096,N,12301.4796,W,9.19,50,050722,11.7,E,A,V*52
20220705 050201+00:00 $WIMWV,328.49,R,4.49,N,A*2E
20220705 050202+00:00 $IIMDA,29.9,I,1.013,B,12.5,C,,C,87.9,,,C,,T,,M,,N,,M*2B
20220705 050202+00:00 $HCHDT,45.5,T*1D
20220705 050202+00:00 $GPRMC,050158,A,4846.5096,N,12301.4796,W,9.19,50,050722,11.7,E,A,V*5C
20220705 050203+00:00 $WIMWV,328.79,R,4.39,N,A*2A
20220705 050204+00:00 $IIMDA,29.9,I,1.013,B,12.5,C,,C,87.9,,,C,,T,,M,,N,,M*2B
20220705 050204+00:00 $HCHDT,45.6,T*1E
20220705 050204+00:00 $GPRMC,050200,A,4846.5096,N,12301.4700,W,9.19,50,050722,11.7,E,A,V*5D
20220705 050205+00:00 $WIMWV,328.89,R,4.49,N,A*22
20220705 050206+00:00 $IIMDA,29.9,I,1.013,B,12.5,C,,C,87.9,,,C,,T,,M,,N,,M*2B
20220705 050206+00:00 $HCHDT,45.7,T*1F
20220705 050206+00:00 $GPRMC,050202,A,4846.5198,N,12301.4598,W,9.19,50,050722,11.7,E,A,V*53
20220705 050207+00:00 $WIMWV,328.79,R,4.39,N,A*2A
20220705 050208+00:00 $IIMDA,29.9,I,1.013,B,12.5,C,,C,87.9,,,C,,T,,M,,N,,M*2B
20220705 050208+00:00 $HCHDT,45.6,T*1E
20220705 050208+00:00 $GPRMC,050204,A,4846.5198,N,12301.4598,W,9.19,50,050722,11.7,E,A,V*55
20220705 050209+00:00 $WIMWV,330.99,R,4.3,N,A*14
20220705 050210+00:00 $IIMDA,29.9,I,1.013,B,12.5,C,,C,87.9,,,C,,T,,M,,N,,M*2B
20220705 050210+00:00 $HCHDT,45.6,T*1E
20220705 050210+00:00 $GPRMC,050206,A,4846.5198,N,12301.4496,W,9.19,51,050722,11.7,E,A,V*59
20220705 050211+00:00 $WIMWV,330.99,R,4.3,N,A*14
20220705 050212+00:00 $IIMDA,29.9,I,1.013,B,12.5,C,,C,87.9,,,C,,T,,M,,N,,M*2B
20220705 050212+00:00 $HCHDT,45.6,T*1E
20220705 050212+00:00 $GPRMC,050208,A,4846.5300,N,12301.4496,W,9.19,51,050722,11.7,E,A,V*54
20220705 050213+00:00 $WIMWV,330.39,R,4.3,N,A*1E
20220705 050214+00:00 $IIMDA,29.9,I,1.013,B,12.5,C,,C,88,,,C,,T,,M,,N,,M*33
20220705 050214+00:00 $HCHDT,45.5,T*1D
20220705 050214+00:00 $GPRMC,050210,A,4846.5300,N,12301.4400,W,9.19,51,050722,11.7,E,A,V*52
20220705 050215+00:00 $WIMWV,330.29,R,4.39,N,A*26
20220705 050216+00:00 $IIMDA,29.9,I,1.013,B,12.5,C,,C,87.9,,,C,,T,,M,,N,,M*2B
20220705 050216+00:00 $HCHDT,45.4,T*1C
20220705 050216+00:00 $GPRMC,050212,A,4846.5300,N,12301.4298,W,9.19,51,050722,11.7,E,A,V*57
20220705 050217+00:00 $WIMWV,333.09,R,4.39,N,A*27
20220705 050218+00:00 $IIMDA,29.9,I,1.013,B,12.5,C,,C,88,,,C,,T,,M,,N,,M*33
20220705 050218+00:00 $HCHDT,45.3,T*1B
20220705 050218+00:00 $GPRMC,050214,A,4846.5396,N,12301.4298,W,9.29,51,050722,11.7,E,A,V*5D
20220705 050219+00:00 $WIMWV,333.59,R,4.2,N,A*1A
20220705 050220+00:00 $IIMDA,29.9,I,1.013,B,12.5,C,,C,87.9,,,C,,T,,M,,N,,M*2B
20220705 050220+00:00 $HCHDT,45.3,T*1B
20220705 050220+00:00 $GPRMC,050216,A,4846.5396,N,12301.4196,W,9.29,51,050722,11.7,E,A,V*52
20220705 050221+00:00 $WIMWV,333.09,R,4.3,N,A*1E
20220705 050222+00:00 $IIMDA,29.9,I,1.013,B,12.5,C,,C,87.9,,,C,,T,,M,,N,,M*2B
20220705 050222+00:00 $HCHDT,45.3,T*1B
20220705 050222+00:00 $GPRMC,050218,A,4846.5396,N,12301.4196,W,9.29,51,050722,11.7,E,A,V*5C
20220705 050223+00:00 $WIMWV,333.79,R,4.39,N,A*20
20220705 050224+00:00 $IIMDA,29.9,I,1.013,B,12.5,C,,C,88,,,C,,T,,M,,N,,M*33
20220705 050224+00:00 $HCHDT,45.3,T*1B
20220705 050224+00:00 $GPRMC,050220,A,4846.5498,N,12301.4100,W,9.29,51,050722,11.7,E,A,V*51
20220705 050225+00:00 $WIMWV,334.29,R,4.3,N,A*1B
20220705 050226+00:00 $IIMDA,29.9,I,1.013,B,12.5,C,,C,88,,,C,,T,,M,,N,,M*33
20220705 050226+00:00 $HCHDT,45.3,T*1B
20220705 050226+00:00 $GPRMC,050222,A,4846.5498,N,12301.3998,W,9.29,51,050722,11.7,E,A,V*5D
20220705 050227+00:00 $WIMWV,335.29,R,4.3,N,A*1A
20220705 050228+00:00 $IIMDA,29.9,I,1.013,B,12.5,C,,C,88,,,C,,T,,M,,N,,M*33
20220705 050228+00:00 $HCHDT,45.4,T*1C
20220705 050228+00:00 $GPRMC,050224,A,4846.5498,N,12301.3998,W,9.29,51,050722,11.7,E,A,V*5B
20220705 050229+00:00 $WIMWV,336.09,R,4.2,N,A*1A
20220705 050230+00:00 $IIMDA,29.9,I,1.013,B,12.5,C,,C,87.9,,,C,,T,,M,,N,,M*2B
20220705 050230+00:00 $HCHDT,45.3,T*1B
20220705 050230+00:00 $GPRMC,050226,A,4846.5600,N,12301.3896,W,9.29,51,050722,11.7,E,A,V*55
20220705 050231+00:00 $WIMWV,336.29,R,4.3,N,A*19
20220705 050232+00:00 $IIMDA,29.9,I,1.013,B,12.5,C,,C,87.9,,,C,,T,,M,,N,,M*2B
20220705 050232+00:00 $HCHDT,45.3,T*1B
20220705 050232+00:00 $GPRMC,050228,A,4846.5600,N,12301.3896,W,9.29,51,050722,11.7,E,A,V*5B
20220705 050233+00:00 $WIMWV,336.89,R,4.3,N,A*13
20220705 050234+00:00 $IIMDA,29.9,I,1.013,B,12.5,C,,C,87.9,,,C,,T,,M,,N,,M*2B
20220705 050234+00:00 $HCHDT,45.2,T*1A
20220705 050234+00:00 $GPRMC,050230,A,4846.5600,N,12301.3800,W,9.29,51,050722,11.7,E,A,V*5D
20220705 050235+00:00 $WIMWV,337.99,R,4.3,N,A*13
20220705 050236+00:00 $IIMDA,29.9,I,1.013,B,12.5,C,,C,88,,,C,,T,,M,,N,,M*33
20220705 050236+00:00 $HCHDT,45,T*06
20220705 050236+00:00 $GPRMC,050232,A,4846.5696,N,12301.3698,W,9.29,51,050722,11.7,E,A,V*5F
20220705 050237+00:00 $WIMWV,338.49,R,4.3,N,A*11
20220705 050238+00:00 $IIMDA,29.9,I,1.013,B,12.5,C,,C,87.9,,,C,,T,,M,,N,,M*2B
20220705 050238+00:00 $HCHDT,44.9,T*10
20220705 050238+00:00 $GPRMC,050234,A,4846.5696,N,12301.3698,W,9.29,51,050722,11.7,E,A,V*59
20220705 050239+00:00 $WIMWV,337.59,R,4.39,N,A*26
20220705 050240+00:00 $IIMDA,29.9,I,1.013,B,12.5,C,,C,87.9,,,C,,T,,M,,N,,M*2B
20220705 050240+00:00 $HCHDT,44.9,T*10
20220705 050240+00:00 $GPRMC,050236,A,4846.5696,N,12301.3596,W,9.29,51,050722,11.7,E,A,V*56
20220705 050241+00:00 $WIMWV,339.69,R,4.3,N,A*12
20220705 050242+00:00 $IIMDA,29.9,I,1.013,B,12.5,C,,C,87.9,,,C,,T,,M,,N,,M*2B
20220705 050242+00:00 $HCHDT,44.8,T*11
20220705 050242+00:00 $GPRMC,050238,A,4846.5798,N,12301.3596,W,9.29,51,050722,11.7,E,A,V*57
20220705 050243+00:00 $WIMWV,339.49,R,4.39,N,A*29
20220705 050244+00:00 $IIMDA,29.9,I,1.013,B,12.5,C,,C,87.9,,,C,,T,,M,,N,,M*2B
20220705 050244+00:00 $HCHDT,44.8,T*11
20220705 050244+00:00 $GPRMC,050240,A,4846.5798,N,12301.3500,W,9.29,51,050722,11.7,E,A,V*57
20220705 050245+00:00 $WIMWV,340.29,R,4.3,N,A*18
20220705 050246+00:00 $IIMDA,29.9,I,1.013,B,12.5,C,,C,87.9,,,C,,T,,M,,N,,M*2B
20220705 050246+00:00 $HCHDT,44.9,T*10
20220705 050246+00:00 $GPRMC,050242,A,4846.5798,N,12301.3398,W,9.29,51,050722,11.7,E,A,V*52
20220705 050247+00:00 $WIMWV,341.99,R,4.39,N,A*2B
20220705 050248+00:00 $IIMDA,29.9,I,1.013,B,12.5,C,,C,87.9,,,C,,T,,M,,N,,M*2B
20220705 050248+00:00 $HCHDT,44.9,T*10
20220705 050248+00:00 $GPRMC,050244,A,4846.5798,N,12301.3398,W,9.29,51,050722,11.7,E,A,V*54
20220705 050249+00:00 $WIMWV,340.99,R,4.39,N,A*2A
20220705 050250+00:00 $IIMDA,29.9,I,1.013,B,12.5,C,,C,87.9,,,C,,T,,M,,N,,M*2B
20220705 050250+00:00 $HCHDT,44.9,T*10
20220705 050250+00:00 $GPRMC,050246,A,4846.5900,N,12301.3296,W,9.29,51,050722,11.7,E,A,V*56
20220705 050251+00:00 $WIMWV,342.39,R,4.39,N,A*22
20220705 050252+00:00 $IIMDA,29.9,I,1.013,B,12.5,C,,C,87.9,,,C,,T,,M,,N,,M*2B
20220705 050252+00:00 $HCHDT,44.9,T*10
20220705 050252+00:00 $GPRMC,050248,A,4846.5900,N,12301.3200,W,9.29,51,050722,11.7,E,A,V*57
20220705 050253+00:00 $WIMWV,342.59,R,4.39,N,A*24
20220705 050254+00:00 $IIMDA,29.9,I,1.013,B,12.5,C,,C,87.9,,,C,,T,,M,,N,,M*2B
20220705 050254+00:00 $HCHDT,44.9,T*10
20220705 050254+00:00 $GPRMC,050250,A,4846.5900,N,12301.3200,W,9.29,52,050722,11.7,E,A,V*5D
20220705 050255+00:00 $WIMWV,342.59,R,4.39,N,A*24
20220705 050256+00:00 $IIMDA,29.9,I,1.013,B,12.5,C,,C,87.9,,,C,,T,,M,,N,,M*2B
20220705 050256+00:00 $HCHDT,44.8,T*11
20220705 050256+00:00 $GPRMC,050252,A,4846.5996,N,12301.3098,W,9.29,52,050722,11.7,E,A,V*53
20220705 050257+00:00 $WIMWV,341.99,R,4.39,N,A*2B
20220705 050258+00:00 $IIMDA,29.9,I,1.013,B,12.5,C,,C,88,,,C,,T,,M,,N,,M*33
20220705 050258+00:00 $HCHDT,44.9,T*10
20220705 050258+00:00 $GPRMC,050254,A,4846.5996,N,12301.3098,W,9.41,52,050722,11.7,E,A,V*5B
20220705 050259+00:00 $WIMWV,342.89,R,4.39,N,A*29
20220705 050300+00:00 $IIMDA,29.9,I,1.013,B,12.5,C,,C,88,,,C,,T,,M,,N,,M*33
20220705 050301+00:00 $HCHDT,44.9,T*10
20220705 050301+00:00 $GPRMC,050256,A,4846.5996,N,12301.2996,W,9.41,52,050722,11.7,E,A,V*5F
20220705 050301+00:00 $WIMWV,343.29,R,4.49,N,A*25
20220705 050302+00:00 $IIMDA,29.9,I,1.013,B,12.5,C,,C,87.9,,,C,,T,,M,,N,,M*2B
20220705 050302+00:00 $HCHDT,45,T*06
20220705 050303+00:00 $GPRMC,050258,A,4846.6098,N,12301.2900,W,9.41,52,050722,11.7,E,A,V*5A
20220705 050303+00:00 $WIMWV,343.29,R,4.49,N,A*25
20220705 050304+00:00 $IIMDA,29.9,I,1.013,B,12.5,C,,C,88,,,C,,T,,M,,N,,M*33
20220705 050304+00:00 $HCHDT,45.1,T*19
20220705 050304+00:00 $GPRMC,050300,A,4846.6098,N,12301.2900,W,9.41,52,050722,11.7,E,A,V*56
20220705 050305+00:00 $WIMWV,344.89,R,4.49,N,A*28
20220705 050306+00:00 $IIMDA,29.9,I,1.013,B,12.5,C,,C,88,,,C,,T,,M,,N,,M*33
20220705 050306+00:00 $HCHDT,45.1,T*19
20220705 050306+00:00 $GPRMC,050302,A,4846.6098,N,12301.2798,W,9.41,52,050722,11.7,E,A,V*5B
20220705 050307+00:00 $WIMWV,345.39,R,4.3,N,A*1C
20220705 050308+00:00 $IIMDA,29.9,I,1.013,B,12.5,C,,C,88,,,C,,T,,M,,N,,M*33
20220705 050308+00:00 $HCHDT,45.2,T*1A
20220705 050308+00:00 $GPRMC,050304,A,4846.6200,N,12301.2696,W,9.41,52,050722,11.7,E,A,V*51
20220705 050309+00:00 $WIMWV,345.79,R,4.59,N,A*27
20220705 050310+00:00 $IIMDA,29.9,I,1.013,B,12.5,C,,C,88,,,C,,T,,M,,N,,M*33
20220705 050310+00:00 $HCHDT,45.1,T*19
20220705 050310+00:00 $GPRMC,050306,A,4846.6200,N,12301.2696,W,9.41,52,050722,11.7,E,A,V*53
20220705 050311+00:00 $WIMWV,345.79,R,4.49,N,A*26
20220705 050312+00:00 $IIMDA,29.9,I,1.013,B,12.5,C,,C,88,,,C,,T,,M,,N,,M*33
20220705 050312+00:00 $HCHDT,45.2,T*1A
20220705 050312+00:00 $GPRMC,050308,A,4846.6200,N,12301.2600,W,9.41,52,050722,11.7,E,A,V*52
20220705 050313+00:00 $WIMWV,347.19,R,4.3,N,A*1C
20220705 050314+00:00 $IIMDA,29.9,I,1.013,B,12.5,C,,C,88,,,C,,T,,M,,N,,M*33
20220705 050314+00:00 $HCHDT,45.2,T*1A
20220705 050314+00:00 $GPRMC,050310,A,4846.6296,N,12301.2600,W,9.41,52,050722,11.7,E,A,V*54
20220705 050315+00:00 $WIMWV,344.49,R,4.49,N,A*24
20220705 050316+00:00 $IIMDA,29.9,I,1.013,B,12.5,C,,C,88,,,C,,T,,M,,N,,M*33
20220705 050316+00:00 $HCHDT,45.2,T*1A
20220705 050316+00:00 $GPRMC,050312,A,4846.6296,N,12301.2498,W,9.41,52,050722,11.7,E,A,V*55
20220705 050317+00:00 $WIMWV,344.39,R,4.39,N,A*24
20220705 050318+00:00 $IIMDA,29.9,I,1.013,B,12.5,C,,C,88,,,C,,T,,M,,N,,M*33
20220705 050318+00:00 $HCHDT,45.2,T*1A
20220705 050318+00:00 $GPRMC,050314,A,4846.6296,N,12301.2396,W,9.41,52,050722,11.7,E,A,V*5A
20220705 050319+00:00 $WIMWV,348.49,R,4.49,N,A*28
20220705 050320+00:00 $IIMDA,29.9,I,1.013,B,12.5,C,,C,88,,,C,,T,,M,,N,,M*33
20220705 050320+00:00 $HCHDT,45.1,T*19
20220705 050320+00:00 $GPRMC,050316,A,4846.6398,N,12301.2396,W,9.41,53,050722,11.7,E,A,V*56
20220705 050321+00:00 $WIMWV,346.19,R,4.59,N,A*22
20220705 050322+00:00 $IIMDA,29.9,I,1.013,B,12.5,C,,C,88,,,C,,T,,M,,N,,M*33
20220705 050322+00:00 $HCHDT,45.1,T*19
20220705 050322+00:00 $GPRMC,050318,A,4846.6398,N,12301.2300,W,9.41,53,050722,11.7,E,A,V*57
20220705 050323+00:00 $WIMWV,346.29,R,4.3,N,A*1E
20220705 050324+00:00 $IIMDA,29.9,I,1.013,B,12.5,C,,C,88,,,C,,T,,M,,N,,M*33
20220705 050324+00:00 $HCHDT,45,T*06
20220705 050324+00:00 $GPRMC,050320,A,4846.6398,N,12301.2198,W,9.41,53,050722,11.7,E,A,V*5F
20220705 050325+00:00 $WIMWV,348.89,R,4.78,N,A*26
20220705 050326+00:00 $IIMDA,29.9,I,1.013,B,12.5,C,,C,88,,,C,,T,,M,,N,,M*33
20220705 050326+00:00 $HCHDT,45,T*06
20220705 050326+00:00 $GPRMC,050322,A,4846.6500,N,12301.2198,W,9.41,53,050722,11.7,E,A,V*5A
20220705 050327+00:00 $WIMWV,353.19,R,4.39,N,A*20
20220705 050328+00:00 $IIMDA,29.9,I,1.013,B,12.5,C,,C,88,,,C,,T,,M,,N,,M*33
20220705 050328+00:00 $HCHDT,44.9,T*10
20220705 050328+00:00 $GPRMC,050324,A,4846.6500,N,12301.2096,W,9.41,53,050722,11.7,E,A,V*53
20220705 050329+00:00 $WIMWV,345.69,R,4.39,N,A*20
20220705 050330+00:00 $IIMDA,29.9,I,1.013,B,12.5,C,,C,88,,,C,,T,,M,,N,,M*33
20220705 050330+00:00 $HCHDT,45,T*06
20220705 050330+00:00 $GPRMC,050326,A,4846.6500,N,12301.2096,W,9.41,53,050722,11.7,E,A,V*51
20220705 050331+00:00 $WIMWV,351.79,R,4.3,N,A*1D
20220705 050332+00:00 $IIMDA,29.9,I,1.013,B,12.5,C,,C,88,,,C,,T,,M,,N,,M*33
20220705 050332+00:00 $HCHDT,45,T*06
20220705 050332+00:00 $GPRMC,050328,A,4846.6596,N,12301.2000,W,9.41,53,050722,11.7,E,A,V*5F
20220705 050333+00:00 $WIMWV,345.89,R,4.49,N,A*29
20220705 050334+00:00 $IIMDA,29.9,I,1.013,B,12.5,C,,C,87.9,,,C,,T,,M,,N,,M*2B
20220705 050334+00:00 $HCHDT,45,T*06
20220705 050334+00:00 $GPRMC,050330,A,4846.6596,N,12301.1898,W,9.41,53,050722,11.7,E,A,V*5C
20220705 050335+00:00 $WIMWV,348.79,R,4.49,N,A*2B
20220705 050336+00:00 $IIMDA,29.9,I,1.013,B,12.5,C,,C,87.9,,,C,,T,,M,,N,,M*2B
20220705 050336+00:00 $HCHDT,45,T*06
20220705 050336+00:00 $GPRMC,050332,A,4846.6596,N,12301.1898,W,9.41,53,050722,11.7,E,A,V*5E
20220705 050337+00:00 $WIMWV,349.19,R,4.68,N,A*2F
20220705 050338+00:00 $IIMDA,29.9,I,1.013,B,12.5,C,,C,88,,,C,,T,,M,,N,,M*33
20220705 050338+00:00 $HCHDT,45,T*06
20220705 050338+00:00 $GPRMC,050334,A,4846.6596,N,12301.1796,W,9.41,53,050722,11.7,E,A,V*59
20220705 050339+00:00 $WIMWV,346.79,R,4.59,N,A*24
20220705 050340+00:00 $IIMDA,29.9,I,1.013,B,12.5,C,,C,88,,,C,,T,,M,,N,,M*33
20220705 050340+00:00 $HCHDT,45,T*06
20220705 050340+00:00 $GPRMC,050336,A,4846.6698,N,12301.1700,W,9.41,53,050722,11.7,E,A,V*59
20220705 050341+00:00 $WIMWV,350.09,R,3.6,N,A*19
20220705 050342+00:00 $IIMDA,29.9,I,1.013,B,12.5,C,,C,87.9,,,C,,T,,M,,N,,M*2B
20220705 050342+00:00 $HCHDT,44.9,T*10
20220705 050342+00:00 $GPRMC,050338,A,4846.6698,N,12301.1700,W,9.41,53,050722,11.7,E,A,V*57
20220705 050343+00:00 $WIMWV,348.79,R,4.68,N,A*28
20220705 050344+00:00 $IIMDA,29.9,I,1.013,B,12.5,C,,C,87.9,,,C,,T,,M,,N,,M*2B
20220705 050344+00:00 $HCHDT,44.9,T*10
20220705 050344+00:00 $GPRMC,050340,A,4846.6698,N,12301.1598,W,9.41,53,050722,11.7,E,A,V*5B
20220705 050345+00:00 $WIMWV,355.79,R,4.59,N,A*26
20220705 050346+00:00 $IIMDA,29.9,I,1.013,B,12.5,C,,C,87.9,,,C,,T,,M,,N,,M*2B
20220705 050346+00:00 $HCHDT,44.9,T*10
20220705 050346+00:00 $GPRMC,050342,A,4846.6800,N,12301.1598,W,9.41,53,050722,11.7,E,A,V*56
20220705 050347+00:00 $WIMWV,345.09,R,3.89,N,A*2A
20220705 050348+00:00 $IIMDA,29.9,I,1.013,B,12.5,C,,C,87.9,,,C,,T,,M,,N,,M*2B
20220705 050348+00:00 $HCHDT,44.9,T*10
20220705 050348+00:00 $GPRMC,050344,A,4846.6800,N,12301.1496,W,9.41,53,050722,11.7,E,A,V*5F
20220705 050349+00:00 $WIMWV,353.59,R,3.98,N,A*28
20220705 050350+00:00 $IIMDA,29.9,I,1.013,B,12.5,C,,C,87.9,,,C,,T,,M,,N,,M*2B
20220705 050350+00:00 $HCHDT,45,T*06
20220705 050350+00:00 $GPRMC,050346,A,4846.6800,N,12301.1400,W,9.41,53,050722,11.7,E,A,V*52
20220705 050351+00:00 $WIMWV,349.49,R,4.2,N,A*16
20220705 050352+00:00 $IIMDA,29.9,I,1.013,B,12.5,C,,C,87.9,,,C,,T,,M,,N,,M*2B
20220705 050352+00:00 $HCHDT,45,T*06
20220705 050352+00:00 $GPRMC,050348,A,4846.6896,N,12301.1400,W,9.41,53,050722,11.7,E,A,V*53
20220705 050353+00:00 $WIMWV,9.4,R,2.59,N,A*10
20220705 050354+00:00 $IIMDA,29.9,I,1.013,B,12.5,C,,C,87.8,,,C,,T,,M,,N,,M*2A
20220705 050354+00:00 $HCHDT,45.1,T*19
20220705 050354+00:00 $GPRMC,050350,A,4846.6896,N,12301.1298,W,9.29,53,050722,11.7,E,A,V*53
20220705 050355+00:00 $WIMWV,344.19,R,4.2,N,A*1E
20220705 050356+00:00 $IIMDA,29.9,I,1.013,B,12.5,C,,C,87.8,,,C,,T,,M,,N,,M*2A
20220705 050356+00:00 $HCHDT,45.1,T*19
20220705 050356+00:00 $GPRMC,050352,A,4846.6896,N,12301.1196,W,9.29,53,050722,11.7,E,A,V*5C
20220705 050357+00:00 $WIMWV,351.39,R,4.68,N,A*24
20220705 050358+00:00 $IIMDA,29.9,I,1.013,B,12.5,C,,C,87.8,,,C,,T,,M,,N,,M*2A
20220705 050358+00:00 $HCHDT,45.2,T*1A
20220705 050358+00:00 $GPRMC,050354,A,4846.6998,N,12301.1196,W,9.29,53,050722,11.7,E,A,V*55
20220705 050359+00:00 $WIMWV,351.19,R,3.79,N,A*21
20220705 050400+00:00 $IIMDA,29.9,I,1.013,B,12.5,C,,C,87.7,,,C,,T,,M,,N,,M*25
20220705 050400+00:00 $HCHDT,45.3,T*1B
20220705 050400+00:00 $GPRMC,050356,A,4846.6998,N,12301.1100,W,9.29,53,050722,11.7,E,A,V*58
20220705 050401+00:00 $WIMWV,356.99,R,4.49,N,A*2A
20220705 050402+00:00 $IIMDA,29.9,I,1.013,B,12.5,C,,C,87.7,,,C,,T,,M,,N,,M*25
20220705 050402+00:00 $HCHDT,45.3,T*1B
20220705 050402+00:00 $GPRMC,050358,A,4846.6998,N,12301.1100,W,9.29,53,050722,11.7,E,A,V*56
20220705 050403+00:00 $WIMWV,353.39,R,3.6,N,A*19
20220705 050404+00:00 $IIMDA,29.9,I,1.013,B,12.5,C,,C,87.7,,,C,,T,,M,,N,,M*25
20220705 050404+00:00 $HCHDT,45.3,T*1B
20220705 050404+00:00 $GPRMC,050400,A,4846.6998,N,12301.0998,W,9.29,53,050722,11.7,E,A,V*54
20220705 050405+00:00 $WIMWV,355.59,R,3.98,N,A*2E
20220705 050406+00:00 $IIMDA,29.9,I,1.013,B,12.5,C,,C,87.6,,,C,,T,,M,,N,,M*24
20220705 050406+00:00 $HCHDT,45.2,T*1A
20220705 050406+00:00 $GPRMC,050402,A,4846.7100,N,12301.0896,W,9.29,53,050722,11.7,E,A,V*51
20220705 050407+00:00 $WIMWV,352.29,R,4.49,N,A*25
20220705 050408+00:00 $IIMDA,29.9,I,1.013,B,12.5,C,,C,87.6,,,C,,T,,M,,N,,M*24
20220705 050408+00:00 $HCHDT,45.2,T*1A
20220705 050408+00:00 $GPRMC,050404,A,4846.7100,N,12301.0896,W,9.29,53,050722,11.7,E,A,V*57
20220705 050409+00:00 $WIMWV,3,R,4.39,N,A*00
20220705 050410+00:00 $IIMDA,29.9,I,1.013,B,12.5,C,,C,87.6,,,C,,T,,M,,N,,M*24
20220705 050410+00:00 $HCHDT,45.1,T*19
20220705 050410+00:00 $GPRMC,050406,A,4846.7100,N,12301.0800,W,9.29,53,050722,11.7,E,A,V*5A
20220705 050411+00:00 $WIMWV,345.89,R,3.89,N,A*22
20220705 050412+00:00 $IIMDA,29.9,I,1.013,B,12.5,C,,C,87.5,,,C,,T,,M,,N,,M*27
20220705 050412+00:00 $HCHDT,45.1,T*19
20220705 050412+00:00 $GPRMC,050408,A,4846.7196,N,12301.0698,W,9.29,53,050722,11.7,E,A,V*54
20220705 050413+00:00 $WIMWV,345.49,R,3.98,N,A*2E
20220705 050414+00:00 $IIMDA,29.9,I,1.013,B,12.4,C,,C,87.5,,,C,,T,,M,,N,,M*26
20220705 050414+00:00 $HCHDT,45,T*06
20220705 050414+00:00 $GPRMC,050410,A,4846.7196,N,12301.0698,W,9.29,53,050722,11.7,E,A,V*5D
20220705 050415+00:00 $WIMWV,348.59,R,4.39,N,A*2E
20220705 050416+00:00 $IIMDA,29.9,I,1.013,B,12.4,C,,C,87.5,,,C,,T,,M,,N,,M*26
20220705 050416+00:00 $HCHDT,45,T*06
20220705 050416+00:00 $GPRMC,050412,A,4846.7196,N,12301.0596,W,9.29,53,050722,11.7,E,A,V*52
20220705 050417+00:00 $WIMWV,350.99,R,4.2,N,A*13
20220705 050418+00:00 $IIMDA,29.9,I,1.013,B,12.4,C,,C,87.4,,,C,,T,,M,,N,,M*27
20220705 050418+00:00 $HCHDT,45.1,T*19
20220705 050418+00:00 $GPRMC,050414,A,4846.7298,N,12301.0500,W,9.29,53,050722,11.7,E,A,V*56
20220705 050419+00:00 $WIMWV,342.29,R,4.2,N,A*1B
20220705 050420+00:00 $IIMDA,29.9,I,1.013,B,12.4,C,,C,87.4,,,C,,T,,M,,N,,M*27
20220705 050420+00:00 $HCHDT,45,T*06
20220705 050420+00:00 $GPRMC,050416,A,4846.7298,N,12301.0500,W,9.29,53,050722,11.7,E,A,V*54
20220705 050421+00:00 $WIMWV,356.29,R,3.89,N,A*2A
20220705 050422+00:00 $IIMDA,29.9,I,1.013,B,12.4,C,,C,87.3,,,C,,T,,M,,N,,M*20
20220705 050422+00:00 $HCHDT,45,T*06
20220705 050422+00:00 $GPRMC,050418,A,4846.7298,N,12301.0398,W,9.29,53,050722,11.7,E,A,V*5D
20220705 050423+00:00 $WIMWV,354.79,R,5,N,A*04
20220705 050424+00:00 $IIMDA,29.9,I,1.013,B,12.4,C,,C,87.2,,,C,,T,,M,,N,,M*21
20220705 050424+00:00 $HCHDT,45,T*06
20220705 050424+00:00 $GPRMC,050420,A,4846.7400,N,12301.0398,W,9.29,53,050722,11.7,E,A,V*51
20220705 050425+00:00 $WIMWV,4.1,R,4.39,N,A*18
20220705 050426+00:00 $IIMDA,29.9,I,1.013,B,12.4,C,,C,87.2,,,C,,T,,M,,N,,M*21
20220705 050426+00:00 $HCHDT,45,T*06
20220705 050426+00:00 $GPRMC,050422,A,4846.7400,N,12301.0296,W,9.29,53,050722,11.7,E,A,V*5C
20220705 050427+00:00 $WIMWV,353.49,R,4.59,N,A*23
20220705 050428+00:00 $IIMDA,29.9,I,1.013,B,12.4,C,,C,87.1,,,C,,T,,M,,N,,M*22
20220705 050428+00:00 $HCHDT,45,T*06
20220705 050428+00:00 $GPRMC,050424,A,4846.7400,N,12301.0200,W,9.29,53,050722,11.7,E,A,V*55
20220705 050429+00:00 $WIMWV,0.19,R,3.19,N,A*20
20220705 050430+00:00 $IIMDA,29.9,I,1.013,B,12.4,C,,C,87,,,C,,T,,M,,N,,M*3D
20220705 050430+00:00 $HCHDT,45.1,T*19
20220705 050430+00:00 $GPRMC,050426,A,4846.7496,N,12301.0200,W,9.29,53,050722,11.7,E,A,V*58
20220705 050431+00:00 $WIMWV,357.99,R,5.09,N,A*2E
20220705 050432+00:00 $IIMDA,29.9,I,1.013,B,12.4,C,,C,87,,,C,,T,,M,,N,,M*3D
20220705 050432+00:00 $HCHDT,45,T*06
20220705 050432+00:00 $GPRMC,050428,A,4846.7496,N,12301.0098,W,9.29,53,050722,11.7,E,A,V*55
20220705 050433+00:00 $WIMWV,359.19,R,3.79,N,A*29
20220705 050434+00:00 $IIMDA,29.9,I,1.013,B,12.3,C,,C,86.9,,,C,,T,,M,,N,,M*2C
20220705 050434+00:00 $HCHDT,45,T*06
20220705 050434+00:00 $GPRMC,050430,A,4846.7496,N,12301.0098,W,9.29,52,050722,11.7,E,A,V*5D
20220705 050435+00:00 $WIMWV,353.89,R,4.39,N,A*29
20220705 050436+00:00 $IIMDA,29.9,I,1.013,B,12.3,C,,C,86.8,,,C,,T,,M,,N,,M*2D
20220705 050436+00:00 $HCHDT,44.9,T*10
20220705 050436+00:00 $GPRMC,050432,A,4846.7496,N,12300.9996,W,9.29,52,050722,11.7,E,A,V*50
20220705 050437+00:00 $WIMWV,5.8,R,4.3,N,A*29
20220705 050438+00:00 $IIMDA,29.9,I,1.013,B,12.3,C,,C,86.7,,,C,,T,,M,,N,,M*22
20220705 050438+00:00 $HCHDT,44.7,T*1E
20220705 050438+00:00 $GPRMC,050434,A,4846.7598,N,12300.9900,W,9.29,52,050722,11.7,E,A,V*56
20220705 050439+00:00 $WIMWV,11.4,R,3.09,N,A*2D
20220705 050440+00:00 $IIMDA,29.9,I,1.013,B,12.3,C,,C,86.6,,,C,,T,,M,,N,,M*23
20220705 050440+00:00 $HCHDT,44.7,T*1E
20220705 050440+00:00 $GPRMC,050436,A,4846.7598,N,12300.9900,W,9.29,52,050722,11.7,E,A,V*54
20220705 050441+00:00 $WIMWV,0.19,R,5.19,N,A*26
20220705 050442+00:00 $IIMDA,29.9,I,1.013,B,12.2,C,,C,86.5,,,C,,T,,M,,N,,M*21
20220705 050442+00:00 $HCHDT,44.4,T*1D
20220705 050442+00:00 $GPRMC,050438,A,4846.7598,N,12300.9798,W,9.29,52,050722,11.7,E,A,V*55
20220705 050443+00:00 $WIMWV,17.3,R,4.08,N,A*2A
20220705 050444+00:00 $IIMDA,29.9,I,1.013,B,12.2,C,,C,86.4,,,C,,T,,M,,N,,M*20
20220705 050444+00:00 $HCHDT,43.6,T*18
20220705 050444+00:00 $GPRMC,050440,A,4846.7700,N,12300.9696,W,9.29,52,050722,11.7,E,A,V*56
20220705 050445+00:00 $WIMWV,3.29,R,4.3,N,A*1C
20220705 050446+00:00 $IIMDA,29.9,I,1.013,B,12.2,C,,C,86.3,,,C,,T,,M,,N,,M*27
20220705 050446+00:00 $HCHDT,42.7,T*18
20220705 050446+00:00 $GPRMC,050442,A,4846.7700,N,12300.9696,W,9.29,51,050722,11.7,E,A,V*57
20220705 050447+00:00 $WIMWV,5,R,3.09,N,A*02
20220705 050448+00:00 $IIMDA,29.9,I,1.013,B,12.2,C,,C,86.2,,,C,,T,,M,,N,,M*26
20220705 050448+00:00 $HCHDT,41.4,T*18
20220705 050448+00:00 $GPRMC,050444,A,4846.7700,N,12300.9600,W,9.29,51,050722,11.7,E,A,V*5E
20220705 050449+00:00 $WIMWV,358.19,R,5.29,N,A*2B
20220705 050450+00:00 $IIMDA,29.9,I,1.013,B,12.2,C,,C,86.1,,,C,,T,,M,,N,,M*25
20220705 050450+00:00 $HCHDT,40.2,T*1F
20220705 050450+00:00 $GPRMC,050446,A,4846.7796,N,12300.9600,W,9.29,50,050722,11.7,E,A,V*52
20220705 050451+00:00 $WIMWV,2,R,4.59,N,A*07
20220705 050452+00:00 $IIMDA,29.9,I,1.013,B,12.2,C,,C,86,,,C,,T,,M,,N,,M*3A
20220705 050452+00:00 $HCHDT,39.4,T*17
20220705 050452+00:00 $GPRMC,050448,A,4846.7796,N,12300.9498,W,9.29,49,050722,11.7,E,A,V*57
20220705 050453+00:00 $WIMWV,0.19,R,5.09,N,A*27
20220705 050454+00:00 $IIMDA,29.9,I,1.013,B,12.2,C,,C,85.9,,,C,,T,,M,,N,,M*2E
20220705 050454+00:00 $HCHDT,38.8,T*1A
20220705 050454+00:00 $GPRMC,050450,A,4846.7796,N,12300.9498,W,9.29,49,050722,11.7,E,A,V*5E
20220705 050455+00:00 $WIMWV,354.79,R,3.98,N,A*2D
20220705 050456+00:00 $IIMDA,29.9,I,1.013,B,12.1,C,,C,85.8,,,C,,T,,M,,N,,M*2C
20220705 050456+00:00 $HCHDT,38.7,T*15
20220705 050456+00:00 $GPRMC,050452,A,4846.7898,N,12300.9396,W,9.19,48,050722,11.7,E,A,V*56
20220705 050457+00:00 $WIMWV,356.89,R,4.68,N,A*28
20220705 050458+00:00 $IIMDA,29.9,I,1.013,B,12.1,C,,C,85.7,,,C,,T,,M,,N,,M*23
20220705 050458+00:00 $HCHDT,38.8,T*1A
20220705 050458+00:00 $GPRMC,050454,A,4846.7898,N,12300.9300,W,9.19,47,050722,11.7,E,A,V*50
20220705 050459+00:00 $WIMWV,352.59,R,4.49,N,A*22
20220705 050501+00:00 $IIMDA,29.9,I,1.013,B,12.1,C,,C,85.7,,,C,,T,,M,,N,,M*23
20220705 050501+00:00 $HCHDT,39.1,T*12
20220705 050501+00:00 $GPRMC,050456,A,4846.8000,N,12300.9300,W,9.19,46,050722,11.7,E,A,V*55
20220705 050501+00:00 $WIMWV,354.89,R,5,N,A*0B
20220705 050502+00:00 $IIMDA,29.9,I,1.013,B,12.1,C,,C,85.6,,,C,,T,,M,,N,,M*22
20220705 050502+00:00 $HCHDT,39.4,T*17
20220705 050503+00:00 $GPRMC,050458,A,4846.8000,N,12300.9198,W,9.19,46,050722,11.7,E,A,V*58
20220705 050503+00:00 $WIMWV,357.79,R,4.59,N,A*24
20220705 050504+00:00 $IIMDA,29.9,I,1.013,B,12.1,C,,C,85.6,,,C,,T,,M,,N,,M*22
20220705 050504+00:00 $HCHDT,39.6,T*15
20220705 050504+00:00 $GPRMC,050500,A,4846.8000,N,12300.9198,W,9.19,46,050722,11.7,E,A,V*54
20220705 050505+00:00 $WIMWV,349.69,R,4.2,N,A*14
20220705 050506+00:00 $IIMDA,29.9,I,1.013,B,12.1,C,,C,85.6,,,C,,T,,M,,N,,M*22
20220705 050506+00:00 $HCHDT,39.7,T*14
20220705 050506+00:00 $GPRMC,050502,A,4846.8096,N,12300.9096,W,9.19,46,050722,11.7,E,A,V*56
20220705 050507+00:00 $WIMWV,356.99,R,4.08,N,A*2F
20220705 050508+00:00 $IIMDA,29.9,I,1.013,B,12.1,C,,C,85.6,,,C,,T,,M,,N,,M*22
20220705 050508+00:00 $HCHDT,39.9,T*1A
20220705 050508+00:00 $GPRMC,050504,A,4846.8096,N,12300.9096,W,9.19,46,050722,11.7,E,A,V*50
20220705 050509+00:00 $WIMWV,350.19,R,3.98,N,A*2F
20220705 050510+00:00 $IIMDA,29.9,I,1.013,B,12.1,C,,C,85.6,,,C,,T,,M,,N,,M*22
20220705 050510+00:00 $HCHDT,40.2,T*1F
20220705 050510+00:00 $GPRMC,050506,A,4846.8096,N,12300.9000,W,9.19,46,050722,11.7,E,A,V*5D
20220705 050511+00:00 $WIMWV,354.29,R,4.3,N,A*1D
20220705 050512+00:00 $IIMDA,29.9,I,1.013,B,12.1,C,,C,85.6,,,C,,T,,M,,N,,M*22
20220705 050512+00:00 $HCHDT,40.4,T*19
20220705 050512+00:00 $GPRMC,050508,A,4846.8198,N,12300.9000,W,9.19,46,050722,11.7,E,A,V*5C
20220705 050513+00:00 $WIMWV,351.89,R,4.2,N,A*13
20220705 050514+00:00 $IIMDA,29.9,I,1.013,B,12.1,C,,C,85.7,,,C,,T,,M,,N,,M*23
20220705 050514+00:00 $HCHDT,40.6,T*1B
20220705 050514+00:00 $GPRMC,050510,A,4846.8198,N,12300.8898,W,9.19,46,050722,11.7,E,A,V*5D
20220705 050515+00:00 $WIMWV,350.19,R,3.79,N,A*20
20220705 050516+00:00 $IIMDA,29.9,I,1.013,B,12.1,C,,C,85.8,,,C,,T,,M,,N,,M*2C
20220705 050516+00:00 $HCHDT,40.7,T*1A
20220705 050516+00:00 $GPRMC,050512,A,4846.8198,N,12300.8796,W,9.19,46,050722,11.7,E,A,V*5E
20220705 050517+00:00 $WIMWV,348.19,R,4.3,N,A*13
20220705 050518+00:00 $IIMDA,29.9,I,1.013,B,12.1,C,,C,85.8,,,C,,T,,M,,N,,M*2C
20220705 050518+00:00 $HCHDT,41,T*02
20220705 050518+00:00 $GPRMC,050514,A,4846.8300,N,12300.8796,W,9.19,46,050722,11.7,E,A,V*5B
20220705 050519+00:00 $WIMWV,350.19,R,4.3,N,A*1A
20220705 050520+00:00 $IIMDA,29.9,I,1.013,B,12.1,C,,C,85.9,,,C,,T,,M,,N,,M*2D
20220705 050520+00:00 $HCHDT,41.2,T*1E
20220705 050520+00:00 $GPRMC,050516,A,4846.8300,N,12300.8700,W,9.19,46,050722,11.7,E,A,V*56
20220705 050521+00:00 $WIMWV,351.09,R,4.08,N,A*21
20220705 050522+00:00 $IIMDA,29.9,I,1.013,B,12.1,C,,C,85.9,,,C,,T,,M,,N,,M*2D
20220705 050522+00:00 $HCHDT,41.3,T*1F
20220705 050522+00:00 $GPRMC,050518,A,4846.8300,N,12300.8700,W,9.19,46,050722,11.7,E,A,V*58
20220705 050523+00:00 $WIMWV,344.59,R,3.89,N,A*2E
20220705 050524+00:00 $IIMDA,29.9,I,1.013,B,12.1,C,,C,86,,,C,,T,,M,,N,,M*39
20220705 050524+00:00 $HCHDT,41.2,T*1E
20220705 050524+00:00 $GPRMC,050520,A,4846.8396,N,12300.8598,W,9.19,47,050722,11.7,E,A,V*5E
20220705 050525+00:00 $WIMWV,353.59,R,4.08,N,A*26
20220705 050526+00:00 $IIMDA,29.9,I,1.013,B,12.1,C,,C,86.1,,,C,,T,,M,,N,,M*26
20220705 050526+00:00 $HCHDT,41,T*02
20220705 050526+00:00 $GPRMC,050522,A,4846.8396,N,12300.8598,W,9.19,47,050722,11.7,E,A,V*5C
20220705 050527+00:00 $WIMWV,349.79,R,4.2,N,A*15
20220705 050528+00:00 $IIMDA,29.9,I,1.013,B,12.1,C,,C,86.2,,,C,,T,,M,,N,,M*25
20220705 050528+00:00 $HCHDT,40.7,T*1A
20220705 050528+00:00 $GPRMC,050524,A,4846.8498,N,12300.8496,W,9.19,47,050722,11.7,E,A,V*5C
20220705 050529+00:00 $WIMWV,345.79,R,3.38,N,A*27
20220705 050530+00:00 $IIMDA,29.9,I,1.013,B,12.1,C,,C,86.2,,,C,,T,,M,,N,,M*25
20220705 050530+00:00 $HCHDT,40.4,T*19
20220705 050530+00:00 $GPRMC,050526,A,4846.8498,N,12300.8496,W,9.19,47,050722,11.7,E,A,V*5E
20220705 050531+00:00 $WIMWV,349.69,R,4.39,N,A*2C
20220705 050532+00:00 $IIMDA,29.9,I,1.013,B,12.1,C,,C,86.3,,,C,,T,,M,,N,,M*24
20220705 050532+00:00 $HCHDT,40.1,T*1C
20220705 050532+00:00 $GPRMC,050528,A,4846.8498,N,12300.8400,W,9.19,46,050722,11.7,E,A,V*5E
20220705 050533+00:00 $WIMWV,349.19,R,4.08,N,A*29
20220705 050534+00:00 $IIMDA,29.9,I,1.013,B,12.1,C,,C,86.4,,,C,,T,,M,,N,,M*23
20220705 050534+00:00 $HCHDT,39.7,T*14
20220705 050534+00:00 $GPRMC,050530,A,4846.8600,N,12300.8298,W,9.19,46,050722,11.7,E,A,V*53
20220705 050535+00:00 $WIMWV,349.89,R,4.2,N,A*1A
20220705 050536+00:00 $IIMDA,29.9,I,1.013,B,12.1,C,,C,86.4,,,C,,T,,M,,N,,M*23
20220705 050536+00:00 $HCHDT,39.4,T*17
20220705 050536+00:00 $GPRMC,050532,A,4846.8600,N,12300.8298,W,9.19,46,050722,11.7,E,A,V*51
20220705 050537+00:00 $WIMWV,350.49,R,4.08,N,A*24
20220705 050538+00:00 $IIMDA,29.9,I,1.013,B,12.1,C,,C,86.5,,,C,,T,,M,,N,,M*22
20220705 050538+00:00 $HCHDT,39.3,T*10
20220705 050538+00:00 $GPRMC,050534,A,4846.8600,N,12300.8196,W,9.19,46,050722,11.7,E,A,V*5A
20220705 050539+00:00 $WIMWV,350.39,R,3.69,N,A*23
20220705 050540+00:00 $IIMDA,29.9,I,1.013,B,12.1,C,,C,86.6,,,C,,T,,M,,N,,M*21
20220705 050540+00:00 $HCHDT,39.2,T*11
20220705 050540+00:00 $GPRMC,050536,A,4846.8696,N,12300.8196,W,9.19,46,050722,11.7,E,A,V*57
20220705 050541+00:00 $WIMWV,346.99,R,3.6,N,A*17
20220705 050542+00:00 $IIMDA,29.9,I,1.013,B,12.1,C,,C,86.7,,,C,,T,,M,,N,,M*20
20220705 050542+00:00 $HCHDT,39.2,T*11
20220705 050542+00:00 $GPRMC,050538,A,4846.8696,N,12300.8100,W,9.19,46,050722,11.7,E,A,V*56
20220705 050543+00:00 $WIMWV,351.39,R,3.69,N,A*22
20220705 050544+00:00 $IIMDA,29.9,I,1.013,B,12.1,C,,C,86.7,,,C,,T,,M,,N,,M*20
20220705 050544+00:00 $HCHDT,39.3,T*10
20220705 050544+00:00 $GPRMC,050540,A,4846.8696,N,12300.8100,W,9.19,45,050722,11.7,E,A,V*5A
20220705 050545+00:00 $WIMWV,348.89,R,3.98,N,A*2F
20220705 050546+00:00 $IIMDA,29.9,I,1.013,B,12.1,C,,C,86.8,,,C,,T,,M,,N,,M*2F
20220705 050546+00:00 $HCHDT,39.4,T*17
20220705 050546+00:00 $GPRMC,050542,A,4846.8798,N,12300.7998,W,9.19,45,050722,11.7,E,A,V*51
20220705 050547+00:00 $WIMWV,351.79,R,3.98,N,A*28
20220705 050548+00:00 $IIMDA,29.9,I,1.013,B,12.1,C,,C,86.8,,,C,,T,,M,,N,,M*2F
20220705 050548+00:00 $HCHDT,39.5,T*16
20220705 050548+00:00 $GPRMC,050544,A,4846.8798,N,12300.7998,W,9.19,45,050722,11.7,E,A,V*57
20220705 050549+00:00 $WIMWV,349.29,R,3.98,N,A*24
20220705 050550+00:00 $IIMDA,29.9,I,1.013,B,12.2,C,,C,86.9,,,C,,T,,M,,N,,M*2D
20220705 050550+00:00 $HCHDT,39.6,T*15
20220705 050550+00:00 $GPRMC,050546,A,4846.8798,N,12300.7896,W,9.19,45,050722,11.7,E,A,V*5A
20220705 050551+00:00 $WIMWV,349.99,R,4.2,N,A*1B
20220705 050552+00:00 $IIMDA,29.9,I,1.013,B,12.2,C,,C,87,,,C,,T,,M,,N,,M*3B
20220705 050552+00:00 $HCHDT,39.6,T*15
20220705 050552+00:00 $GPRMC,050548,A,4846.8900,N,12300.7800,W,9.19,45,050722,11.7,E,A,V*54
20220705 050553+00:00 $WIMWV,345.79,R,4.08,N,A*23
20220705 050554+00:00 $IIMDA,29.9,I,1.013,B,12.2,C,,C,87.1,,,C,,T,,M,,N,,M*24
20220705 050554+00:00 $HCHDT,39.5,T*16
20220705 050554+00:00 $GPRMC,050550,A,4846.8900,N,12300.7800,W,9.19,45,050722,11.7,E,A,V*5D
20220705 050555+00:00 $WIMWV,351.29,R,3.6,N,A*1A
20220705 050556+00:00 $IIMDA,29.9,I,1.013,B,12.2,C,,C,87.1,,,C,,T,,M,,N,,M*24
20220705 050556+00:00 $HCHDT,39.6,T*15
20220705 050556+00:00 $GPRMC,050552,A,4846.8996,N,12300.7698,W,9.19,45,050722,11.7,E,A,V*5F
20220705 050557+00:00 $WIMWV,346.69,R,3.29,N,A*25
20220705 050558+00:00 $IIMDA,29.9,I,1.013,B,12.2,C,,C,87.2,,,C,,T,,M,,N,,M*27
20220705 050558+00:00 $HCHDT,39.6,T*15
20220705 050558+00:00 $GPRMC,050554,A,4846.8996,N,12300.7698,W,9.19,45,050722,11.7,E,A,V*59
20220705 050559+00:00 $WIMWV,346.99,R,3.98,N,A*20
20220705 050600+00:00 $IIMDA,29.9,I,1.013,B,12.2,C,,C,87.2,,,C,,T,,M,,N,,M*27
20220705 050600+00:00 $HCHDT,39.6,T*15
20220705 050600+00:00 $GPRMC,050556,A,4846.8996,N,12300.7596,W,9.19,46,050722,11.7,E,A,V*55
20220705 050601+00:00 $WIMWV,351.99,R,4.08,N,A*28
20220705 050602+00:00 $IIMDA,29.9,I,1.013,B,12.2,C,,C,87.3,,,C,,T,,M,,N,,M*26
20220705 050602+00:00 $HCHDT,39.5,T*16
20220705 050603+00:00 $GPRMC,050558,A,4846.9098,N,12300.7596,W,9.19,46,050722,11.7,E,A,V*5D
20220705 050603+00:00 $WIMWV,348.19,R,4.39,N,A*2A
20220705 050604+00:00 $IIMDA,29.9,I,1.013,B,12.2,C,,C,87.3,,,C,,T,,M,,N,,M*26
20220705 050604+00:00 $HCHDT,39.4,T*17
20220705 050604+00:00 $GPRMC,050600,A,4846.9098,N,12300.7500,W,9.19,46,050722,11.7,E,A,V*5C
20220705 050605+00:00 $WIMWV,351.39,R,4.2,N,A*18
20220705 050606+00:00 $IIMDA,29.9,I,1.013,B,12.2,C,,C,87.3,,,C,,T,,M,,N,,M*26
20220705 050606+00:00 $HCHDT,39.3,T*10
20220705 050606+00:00 $GPRMC,050602,A,4846.9098,N,12300.7500,W,9.19,46,050722,11.7,E,A,V*5E
20220705 050607+00:00 $WIMWV,355.09,R,4.2,N,A*1F
20220705 050608+00:00 $IIMDA,29.9,I,1.013,B,12.2,C,,C,87.3,,,C,,T,,M,,N,,M*26
20220705 050608+00:00 $HCHDT,39.2,T*11
20220705 050608+00:00 $GPRMC,050604,A,4846.9200,N,12300.7398,W,9.19,46,050722,11.7,E,A,V*5C
20220705 050609+00:00 $WIMWV,351.69,R,3.98,N,A*29
20220705 050610+00:00 $IIMDA,29.9,I,1.013,B,12.2,C,,C,87.3,,,C,,T,,M,,N,,M*26
20220705 050610+00:00 $HCHDT,39.1,T*12
20220705 050610+00:00 $GPRMC,050606,A,4846.9200,N,12300.7296,W,9.19,46,050722,11.7,E,A,V*51
20220705 050611+00:00 $WIMWV,358.19,R,4.59,N,A*2D
20220705 050612+00:00 $IIMDA,29.9,I,1.013,B,12.2,C,,C,87.3,,,C,,T,,M,,N,,M*26
20220705 050612+00:00 $HCHDT,39,T*0D
20220705 050612+00:00 $GPRMC,050608,A,4846.9200,N,12300.7296,W,9.19,46,050722,11.7,E,A,V*5F
20220705 050613+00:00 $WIMWV,348.89,R,3.6,N,A*18
20220705 050614+00:00 $IIMDA,29.9,I,1.013,B,12.2,C,,C,87.3,,,C,,T,,M,,N,,M*26
20220705 050614+00:00 $HCHDT,39,T*0D
20220705 050614+00:00 $GPRMC,050610,A,4846.9296,N,12300.7200,W,9.19,46,050722,11.7,E,A,V*56
20220705 050615+00:00 $WIMWV,348.59,R,3.79,N,A*2D
20220705 050616+00:00 $IIMDA,29.9,I,1.013,B,12.2,C,,C,87.3,,,C,,T,,M,,N,,M*26
20220705 050616+00:00 $HCHDT,39,T*0D
20220705 050616+00:00 $GPRMC,050612,A,4846.9296,N,12300.7200,W,9.19,46,050722,11.7,E,A,V*54
20220705 050617+00:00 $WIMWV,348.19,R,3.98,N,A*26
20220705 050618+00:00 $IIMDA,29.9,I,1.013,B,12.2,C,,C,87.4,,,C,,T,,M,,N,,M*21
20220705 050618+00:00 $HCHDT,38.9,T*1B
20220705 050618+00:00 $GPRMC,050614,A,4846.9296,N,12300.7098,W,9.19,45,050722,11.7,E,A,V*52
20220705 050619+00:00 $WIMWV,351.19,R,3.69,N,A*20
20220705 050620+00:00 $IIMDA,29.9,I,1.013,B,12.2,C,,C,87.4,,,C,,T,,M,,N,,M*21
20220705 050620+00:00 $HCHDT,39,T*0D
20220705 050620+00:00 $GPRMC,050616,A,4846.9398,N,12300.7098,W,9.19,45,050722,11.7,E,A,V*5F
20220705 050621+00:00 $WIMWV,348.19,R,4.2,N,A*12
20220705 050622+00:00 $IIMDA,29.9,I,1.013,B,12.2,C,,C,87.5,,,C,,T,,M,,N,,M*20
20220705 050622+00:00 $HCHDT,39,T*0D
20220705 050622+00:00 $GPRMC,050618,A,4846.9398,N,12300.6996,W,9.19,45,050722,11.7,E,A,V*57
20220705 050623+00:00 $WIMWV,346.39,R,3.5,N,A*1E
20220705 050624+00:00 $IIMDA,29.9,I,1.013,B,12.2,C,,C,87.5,,,C,,T,,M,,N,,M*20
20220705 050624+00:00 $HCHDT,39.1,T*12
20220705 050624+00:00 $GPRMC,050620,A,4846.9500,N,12300.6996,W,9.19,45,050722,11.7,E,A,V*5B
20220705 050625+00:00 $WIMWV,350.79,R,4.08,N,A*27
20220705 050626+00:00 $IIMDA,29.9,I,1.013,B,12.2,C,,C,87.5,,,C,,T,,M,,N,,M*20
20220705 050626+00:00 $HCHDT,39.1,T*12
20220705 050626+00:00 $GPRMC,050622,A,4846.9500,N,12300.6900,W,9.19,45,050722,11.7,E,A,V*56
20220705 050627+00:00 $WIMWV,351.19,R,4.59,N,A*24
20220705 050628+00:00 $IIMDA,29.9,I,1.013,B,12.2,C,,C,87.5,,,C,,T,,M,,N,,M*20
20220705 050628+00:00 $HCHDT,39.1,T*12
20220705 050628+00:00 $GPRMC,050624,A,4846.9500,N,12300.6900,W,9.19,45,050722,11.7,E,A,V*50
20220705 050629+00:00 $WIMWV,351.99,R,4.3,N,A*13
20220705 050630+00:00 $IIMDA,29.9,I,1.013,B,12.2,C,,C,87.5,,,C,,T,,M,,N,,M*20
20220705 050630+00:00 $HCHDT,39.2,T*11
20220705 050630+00:00 $GPRMC,050626,A,4846.9596,N,12300.6798,W,9.19,45,050722,11.7,E,A,V*52
20220705 050631+00:00 $WIMWV,349.59,R,3.69,N,A*2D
20220705 050632+00:00 $IIMDA,29.9,I,1.013,B,12.2,C,,C,87.5,,,C,,T,,M,,N,,M*20
20220705 050632+00:00 $HCHDT,39.2,T*11
20220705 050632+00:00 $GPRMC,050628,A,4846.9596,N,12300.6696,W,9.19,45,050722,11.7,E,A,V*53
20220705 050633+00:00 $WIMWV,348.49,R,4.08,N,A*2D
20220705 050634+00:00 $IIMDA,29.9,I,1.013,B,12.2,C,,C,87.5,,,C,,T,,M,,N,,M*20
20220705 050634+00:00 $HCHDT,39.2,T*11
20220705 050634+00:00 $GPRMC,050630,A,4846.9596,N,12300.6696,W,9.19,45,050722,11.7,E,A,V*5A
20220705 050635+00:00 $WIMWV,354.69,R,3.79,N,A*23
20220705 050636+00:00 $IIMDA,29.9,I,1.013,B,12.2,C,,C,87.5,,,C,,T,,M,,N,,M*20
20220705 050636+00:00 $HCHDT,39.2,T*11
20220705 050636+00:00 $GPRMC,050632,A,4846.9698,N,12300.6600,W,9.19,45,050722,11.7,E,A,V*5A
20220705 050637+00:00 $WIMWV,349.29,R,3.89,N,A*24
20220705 050638+00:00 $IIMDA,29.9,I,1.013,B,12.2,C,,C,87.5,,,C,,T,,M,,N,,M*20
20220705 050638+00:00 $HCHDT,39.1,T*12
20220705 050638+00:00 $GPRMC,050634,A,4846.9698,N,12300.6600,W,9.19,45,050722,11.7,E,A,V*5C
20220705 050639+00:00 $WIMWV,350.69,R,4.08,N,A*26
20220705 050640+00:00 $IIMDA,29.9,I,1.013,B,12.2,C,,C,87.5,,,C,,T,,M,,N,,M*20
20220705 050640+00:00 $HCHDT,39.1,T*12
20220705 050640+00:00 $GPRMC,050636,A,4846.9698,N,12300.6498,W,9.19,45,050722,11.7,E,A,V*5D
20220705 050641+00:00 $WIMWV,348.39,R,4.08,N,A*2A
20220705 050642+00:00 $IIMDA,29.9,I,1.013,B,12.2,C,,C,87.5,,,C,,T,,M,,N,,M*20
20220705 050642+00:00 $HCHDT,39,T*0D
20220705 050642+00:00 $GPRMC,050638,A,4846.9800,N,12300.6498,W,9.19,45,050722,11.7,E,A,V*5C
20220705 050643+00:00 $WIMWV,350.89,R,3.89,N,A*26
20220705 050644+00:00 $IIMDA,29.9,I,1.013,B,12.2,C,,C,87.5,,,C,,T,,M,,N,,M*20
20220705 050644+00:00 $HCHDT,39,T*0D
20220705 050644+00:00 $GPRMC,050640,A,4846.9800,N,12300.6396,W,9.19,45,050722,11.7,E,A,V*5A
20220705 050645+00:00 $WIMWV,348.79,R,3.89,N,A*20
20220705 050646+00:00 $IIMDA,29.9,I,1.013,B,12.2,C,,C,87.6,,,C,,T,,M,,N,,M*23
20220705 050646+00:00 $HCHDT,39,T*0D
20220705 050646+00:00 $GPRMC,050642,A,4846.9896,N,12300.6396,W,9.19,45,050722,11.7,E,A,V*57
20220705 050647+00:00 $WIMWV,352.29,R,3.79,N,A*21
20220705 050648+00:00 $IIMDA,29.9,I,1.013,B,12.2,C,,C,87.6,,,C,,T,,M,,N,,M*23
20220705 050648+00:00 $HCHDT,38.9,T*1B
20220705 050648+00:00 $GPRMC,050644,A,4846.9896,N,12300.6300,W,9.19,44,050722,11.7,E,A,V*5F
20220705 050649+00:00 $WIMWV,349.69,R,3.79,N,A*2F
20220705 050650+00:00 $IIMDA,29.9,I,1.013,B,12.2,C,,C,87.6,,,C,,T,,M,,N,,M*23
20220705 050650+00:00 $HCHDT,38.8,T*1A
20220705 050650+00:00 $GPRMC,050646,A,4846.9896,N,12300.6300,W,9.19,44,050722,11.7,E,A,V*5D
20220705 050651+00:00 $WIMWV,348.39,R,3.98,N,A*24
20220705 050652+00:00 $IIMDA,29.9,I,1.013,B,12.2,C,,C,87.6,,,C,,T,,M,,N,,M*23
20220705 050652+00:00 $HCHDT,38.7,T*15
20220705 050652+00:00 $GPRMC,050648,A,4846.9998,N,12300.6198,W,9.19,44,050722,11.7,E,A,V*5F
20220705 050653+00:00 $WIMWV,347.59,R,3.98,N,A*2D
20220705 050654+00:00 $IIMDA,29.9,I,1.013,B,12.2,C,,C,87.6,,,C,,T,,M,,N,,M*23
20220705 050654+00:00 $HCHDT,38.6,T*14
20220705 050654+00:00 $GPRMC,050650,A,4846.9998,N,12300.6198,W,9.1,44,050722,11.7,E,A,V*6F
20220705 050655+00:00 $WIMWV,348.89,R,3.98,N,A*2F
20220705 050656+00:00 $IIMDA,29.9,I,1.013,B,12.2,C,,C,87.6,,,C,,T,,M,,N,,M*23
20220705 050656+00:00 $HCHDT,38.7,T*15
20220705 050656+00:00 $GPRMC,050652,A,4846.9998,N,12300.6096,W,9.1,44,050722,11.7,E,A,V*62
20220705 050657+00:00 $WIMWV,348.99,R,3.6,N,A*19
20220705 050658+00:00 $IIMDA,29.9,I,1.013,B,12.2,C,,C,87.6,,,C,,T,,M,,N,,M*23
20220705 050658+00:00 $HCHDT,38.8,T*1A
20220705 050658+00:00 $GPRMC,050654,A,4847.0100,N,12300.6000,W,9.1,44,050722,11.7,E,A,V*6A
20220705 050659+00:00 $WIMWV,348.89,R,4.2,N,A*1B
20220705 050700+00:00 $IIMDA,29.9,I,1.013,B,12.2,C,,C,87.6,,,C,,T,,M,,N,,M*23
20220705 050700+00:00 $HCHDT,38.8,T*1A
20220705 050701+00:00 $GPRMC,050656,A,4847.0100,N,12300.6000,W,9.1,44,050722,11.7,E,A,V*68
20220705 050701+00:00 $WIMWV,349.79,R,3.6,N,A*16
20220705 050702+00:00 $IIMDA,29.9,I,1.013,B,12.2,C,,C,87.7,,,C,,T,,M,,N,,M*22
20220705 050702+00:00 $HCHDT,38.9,T*1B
20220705 050703+00:00 $GPRMC,050658,A,4847.0100,N,12300.5898,W,9.1,44,050722,11.7,E,A,V*6C
20220705 050703+00:00 $WIMWV,356.49,R,4.39,N,A*20
20220705 050704+00:00 $IIMDA,29.9,I,1.013,B,12.2,C,,C,87.7,,,C,,T,,M,,N,,M*22
20220705 050704+00:00 $HCHDT,39,T*0D
20220705 050704+00:00 $GPRMC,050700,A,4847.0196,N,12300.5898,W,9.1,44,050722,11.7,E,A,V*6F
20220705 050705+00:00 $WIMWV,348.49,R,3.79,N,A*2C
20220705 050706+00:00 $IIMDA,29.9,I,1.013,B,12.2,C,,C,87.6,,,C,,T,,M,,N,,M*23
20220705 050706+00:00 $HCHDT,39,T*0D
20220705 050706+00:00 $GPRMC,050702,A,4847.0196,N,12300.5796,W,9.1,43,050722,11.7,E,A,V*6B
20220705 050707+00:00 $WIMWV,349.69,R,4.49,N,A*2B
20220705 050708+00:00 $IIMDA,29.9,I,1.013,B,12.2,C,,C,87.7,,,C,,T,,M,,N,,M*22
20220705 050708+00:00 $HCHDT,39.1,T*12
20220705 050708+00:00 $GPRMC,050704,A,4847.0298,N,12300.5796,W,9.1,43,050722,11.7,E,A,V*60
20220705 050709+00:00 $WIMWV,352.39,R,3.89,N,A*2F
20220705 050710+00:00 $IIMDA,29.9,I,1.013,B,12.2,C,,C,87.7,,,C,,T,,M,,N,,M*22
20220705 050710+00:00 $HCHDT,39,T*0D
20220705 050710+00:00 $GPRMC,050706,A,4847.0298,N,12300.5700,W,9.1,43,050722,11.7,E,A,V*6D
20220705 050711+00:00 $WIMWV,349.79,R,3.89,N,A*21
20220705 050712+00:00 $IIMDA,29.9,I,1.013,B,12.3,C,,C,87.6,,,C,,T,,M,,N,,M*22
20220705 050712+00:00 $HCHDT,38.9,T*1B
20220705 050712+00:00 $GPRMC,050708,A,4847.0298,N,12300.5700,W,9.1,43,050722,11.7,E,A,V*63
20220705 050713+00:00 $WIMWV,348.89,R,4.3,N,A*1A
20220705 050714+00:00 $IIMDA,29.9,I,1.013,B,12.3,C,,C,87.7,,,C,,T,,M,,N,,M*23
20220705 050714+00:00 $HCHDT,38.8,T*1A
20220705 050714+00:00 $GPRMC,050710,A,4847.0400,N,12300.5598,W,9.1,43,050722,11.7,E,A,V*6E
20220705 050715+00:00 $WIMWV,348.09,R,4.3,N,A*12
20220705 050716+00:00 $IIMDA,29.9,I,1.013,B,12.3,C,,C,87.7,,,C,,T,,M,,N,,M*23
20220705 050716+00:00 $HCHDT,38.8,T*1A
20220705 050716+00:00 $GPRMC,050712,A,4847.0400,N,12300.5598,W,9.1,43,050722,11.7,E,A,V*6C
20220705 050717+00:00 $WIMWV,347.29,R,3.98,N,A*2A
20220705 050718+00:00 $IIMDA,29.9,I,1.013,B,12.3,C,,C,87.7,,,C,,T,,M,,N,,M*23
20220705 050718+00:00 $HCHDT,38.7,T*15
20220705 050718+00:00 $GPRMC,050714,A,4847.0400,N,12300.5496,W,9.1,43,050722,11.7,E,A,V*65
20220705 050719+00:00 $WIMWV,350.39,R,4.08,N,A*23
20220705 050720+00:00 $IIMDA,29.9,I,1.013,B,12.3,C,,C,87.7,,,C,,T,,M,,N,,M*23
20220705 050720+00:00 $HCHDT,38.7,T*15
20220705 050720+00:00 $GPRMC,050716,A,4847.0496,N,12300.5496,W,9.1,42,050722,11.7,E,A,V*69
20220705 050721+00:00 $WIMWV,348.19,R,4.2,N,A*12
20220705 050722+00:00 $IIMDA,29.9,I,1.013,B,12.3,C,,C,87.7,,,C,,T,,M,,N,,M*23
20220705 050722+00:00 $HCHDT,38.8,T*1A
20220705 050722+00:00 $GPRMC,050718,A,4847.0496,N,12300.5400,W,9,42,050722,11.7,E,A,V*77
20220705 050723+00:00 $WIMWV,347.89,R,4.2,N,A*14
20220705 050724+00:00 $IIMDA,29.9,I,1.013,B,12.3,C,,C,87.7,,,C,,T,,M,,N,,M*23
20220705 050724+00:00 $HCHDT,38.8,T*1A
20220705 050724+00:00 $GPRMC,050720,A,4847.0598,N,12300.5400,W,9,42,050722,11.7,E,A,V*73
20220705 050725+00:00 $WIMWV,345.69,R,4.2,N,A*18
20220705 050726+00:00 $IIMDA,29.9,I,1.013,B,12.3,C,,C,87.7,,,C,,T,,M,,N,,M*23
20220705 050726+00:00 $HCHDT,38.9,T*1B
20220705 050726+00:00 $GPRMC,050722,A,4847.0598,N,12300.5298,W,9,42,050722,11.7,E,A,V*76
20220705 050727+00:00 $WIMWV,350.09,R,4.3,N,A*1B
20220705 050728+00:00 $IIMDA,29.9,I,1.013,B,12.3,C,,C,87.7,,,C,,T,,M,,N,,M*23
20220705 050728+00:00 $HCHDT,38.9,T*1B
20220705 050728+00:00 $GPRMC,050724,A,4847.0598,N,12300.5298,W,9,42,050722,11.7,E,A,V*70
20220705 050729+00:00 $WIMWV,346.29,R,4.2,N,A*1F
20220705 050730+00:00 $IIMDA,29.9,I,1.013,B,12.3,C,,C,87.7,,,C,,T,,M,,N,,M*23
20220705 050730+00:00 $HCHDT,39,T*0D
20220705 050730+00:00 $GPRMC,050726,A,4847.0700,N,12300.5196,W,9,42,050722,11.7,E,A,V*7C
20220705 050731+00:00 $WIMWV,347.69,R,4.2,N,A*1A
20220705 050732+00:00 $IIMDA,29.9,I,1.013,B,12.3,C,,C,87.8,,,C,,T,,M,,N,,M*2C
20220705 050732+00:00 $HCHDT,39.1,T*12
20220705 050732+00:00 $GPRMC,050728,A,4847.0700,N,12300.5196,W,9,42,050722,11.7,E,A,V*72
20220705 050733+00:00 $WIMWV,344.19,R,4.2,N,A*1E
20220705 050734+00:00 $IIMDA,29.9,I,1.013,B,12.3,C,,C,87.7,,,C,,T,,M,,N,,M*23
20220705 050734+00:00 $HCHDT,39.2,T*11
20220705 050734+00:00 $GPRMC,050730,A,4847.0700,N,12300.5100,W,9,41,050722,11.7,E,A,V*77
20220705 050735+00:00 $WIMWV,348.19,R,3.69,N,A*28
20220705 050736+00:00 $IIMDA,29.9,I,1.013,B,12.3,C,,C,87.8,,,C,,T,,M,,N,,M*2C
20220705 050736+00:00 $HCHDT,39.3,T*10
20220705 050736+00:00 $GPRMC,050732,A,4847.0796,N,12300.5100,W,9,41,050722,11.7,E,A,V*7A
20220705 050737+00:00 $WIMWV,345.89,R,4.2,N,A*16
20220705 050738+00:00 $IIMDA,29.9,I,1.013,B,12.3,C,,C,87.7,,,C,,T,,M,,N,,M*23
20220705 050738+00:00 $HCHDT,39.5,T*16
20220705 050738+00:00 $GPRMC,050734,A,4847.0796,N,12300.4998,W,9,41,050722,11.7,E,A,V*74
20220705 050739+00:00 $WIMWV,348.99,R,4.2,N,A*1A
20220705 050740+00:00 $IIMDA,29.9,I,1.013,B,12.3,C,,C,87.7,,,C,,T,,M,,N,,M*23
20220705 050740+00:00 $HCHDT,39.5,T*16
20220705 050740+00:00 $GPRMC,050736,A,4847.0796,N,12300.4998,W,9,41,050722,11.7,E,A,V*76
20220705 050741+00:00 $WIMWV,349.59,R,4.08,N,A*2D
20220705 050742+00:00 $IIMDA,29.9,I,1.013,B,12.3,C,,C,87.8,,,C,,T,,M,,N,,M*2C
20220705 050742+00:00 $HCHDT,39.5,T*16
20220705 050742+00:00 $GPRMC,050738,A,4847.0898,N,12300.4896,W,8.9,42,050722,11.7,E,A,V*63
20220705 050743+00:00 $WIMWV,347.99,R,3.98,N,A*21
20220705 050744+00:00 $IIMDA,29.9,I,1.013,B,12.3,C,,C,87.8,,,C,,T,,M,,N,,M*2C
20220705 050744+00:00 $HCHDT,39.4,T*17
20220705 050744+00:00 $GPRMC,050740,A,4847.0898,N,12300.4896,W,8.9,42,050722,11.7,E,A,V*6C
