20220704 020001+00:00 $IIMDA,29.9,I,1.011,B,13.6,C,,C,91.4,,,C,,T,,M,,N,,M*21
20220704 020001+00:00 $HCHDT,146.9,T*23
20220704 020001+00:00 $GPRMC,015956,A,4938.8896,N,12605.6298,W,0,38,040722,12.2,E,A,V*78
20220704 020001+00:00 $WIMWV,279.59,R,4.2,N,A*15
20220704 020003+00:00 $IIMDA,29.9,I,1.011,B,13.6,C,,C,91.5,,,C,,T,,M,,N,,M*20
20220704 020003+00:00 $HCHDT,146.8,T*22
20220704 020003+00:00 $GPRMC,015958,A,4938.8896,N,12605.6298,W,0,37,040722,12.2,E,A,V*79
20220704 020003+00:00 $WIMWV,278.89,R,4.68,N,A*25
20220704 020005+00:00 $IIMDA,29.9,I,1.011,B,13.6,C,,C,91.5,,,C,,T,,M,,N,,M*20
20220704 020005+00:00 $HCHDT,146.8,T*22
20220704 020005+00:00 $GPRMC,020000,A,4938.8896,N,12605.6298,W,0,38,040722,12.2,E,A,V*74
20220704 020005+00:00 $WIMWV,279.7,R,5.19,N,A*15
20220704 020007+00:00 $IIMDA,29.9,I,1.011,B,13.6,C,,C,91.5,,,C,,T,,M,,N,,M*20
20220704 020007+00:00 $HCHDT,146.8,T*22
20220704 020007+00:00 $GPRMC,020002,A,4938.8896,N,12605.6298,W,0,38,040722,12.2,E,A,V*76
20220704 020007+00:00 $WIMWV,280.09,R,5.19,N,A*2D
20220704 020009+00:00 $IIMDA,29.9,I,1.011,B,13.6,C,,C,91.5,,,C,,T,,M,,N,,M*20
20220704 020009+00:00 $HCHDT,146.7,T*2D
20220704 020009+00:00 $GPRMC,020004,A,4938.8896,N,12605.6298,W,0,38,040722,12.2,E,A,V*70
20220704 020009+00:00 $WIMWV,280.39,R,5.19,N,A*2E
20220704 020011+00:00 $IIMDA,29.9,I,1.011,B,13.6,C,,C,91.5,,,C,,T,,M,,N,,M*20
20220704 020011+00:00 $HCHDT,146.5,T*2F
20220704 020011+00:00 $GPRMC,020006,A,4938.8896,N,12605.6298,W,0,38,040722,12.2,E,A,V*72
20220704 020011+00:00 $WIMWV,278.89,R,5.38,N,A*21
20220704 020013+00:00 $IIMDA,29.9,I,1.011,B,13.6,C,,C,91.5,,,C,,T,,M,,N,,M*20
20220704 020013+00:00 $HCHDT,146.4,T*2E
20220704 020013+00:00 $GPRMC,020008,A,4938.8896,N,12605.6298,W,0,37,040722,12.2,E,A,V*73
20220704 020013+00:00 $WIMWV,278.19,R,5.79,N,A*2D
20220704 020015+00:00 $IIMDA,29.9,I,1.011,B,13.6,C,,C,91.5,,,C,,T,,M,,N,,M*20
20220704 020015+00:00 $HCHDT,146.3,T*29
20220704 020015+00:00 $GPRMC,020010,A,4938.8896,N,12605.6298,W,0,37,040722,12.2,E,A,V*7A
20220704 020015+00:00 $WIMWV,278.89,R,5.99,N,A*2A
20220704 020017+00:00 $IIMDA,29.9,I,1.011,B,13.6,C,,C,91.6,,,C,,T,,M,,N,,M*23
20220704 020017+00:00 $HCHDT,146.1,T*2B
20220704 020017+00:00 $GPRMC,020012,A,4938.8896,N,12605.6298,W,0,37,040722,12.2,E,A,V*78
20220704 020017+00:00 $WIMWV,277.49,R,5.89,N,A*28
20220704 020019+00:00 $IIMDA,29.9,I,1.011,B,13.6,C,,C,91.6,,,C,,T,,M,,N,,M*23
20220704 020019+00:00 $HCHDT,145.9,T*20
20220704 020019+00:00 $GPRMC,020014,A,4938.8896,N,12605.6298,W,0.1,36,040722,12.2,E,A,V*60
20220704 020019+00:00 $WIMWV,277.49,R,6.18,N,A*23
20220704 020021+00:00 $IIMDA,29.9,I,1.011,B,13.6,C,,C,91.6,,,C,,T,,M,,N,,M*23
20220704 020021+00:00 $HCHDT,145.8,T*21
20220704 020021+00:00 $GPRMC,020016,A,4938.8896,N,12605.6298,W,0.1,34,040722,12.2,E,A,V*60
20220704 020021+00:00 $WIMWV,277.99,R,6.08,N,A*2F
20220704 020023+00:00 $IIMDA,29.9,I,1.011,B,13.6,C,,C,91.6,,,C,,T,,M,,N,,M*23
20220704 020023+00:00 $HCHDT,145.7,T*2E
20220704 020023+00:00 $GPRMC,020018,A,4938.8896,N,12605.6298,W,0.1,31,040722,12.2,E,A,V*6B
20220704 020023+00:00 $WIMWV,280.49,R,6.18,N,A*2B
20220704 020025+00:00 $IIMDA,29.9,I,1.011,B,13.6,C,,C,91.6,,,C,,T,,M,,N,,M*23
20220704 020025+00:00 $HCHDT,145.5,T*2C
20220704 020025+00:00 $GPRMC,020020,A,4938.8896,N,12605.6298,W,0.1,28,040722,12.2,E,A,V*68
20220704 020025+00:00 $WIMWV,280.29,R,6.18,N,A*2D
20220704 020027+00:00 $IIMDA,29.9,I,1.011,B,13.6,C,,C,91.6,,,C,,T,,M,,N,,M*23
20220704 020027+00:00 $HCHDT,145.5,T*2C
20220704 020027+00:00 $GPRMC,020022,A,4938.8896,N,12605.6298,W,0.1,26,040722,12.2,E,A,V*64
20220704 020027+00:00 $WIMWV,280.39,R,6.3,N,A*16
20220704 020029+00:00 $IIMDA,29.9,I,1.011,B,13.6,C,,C,91.6,,,C,,T,,M,,N,,M*23
20220704 020029+00:00 $HCHDT,145.4,T*2D
20220704 020029+00:00 $GPRMC,020024,A,4938.8896,N,12605.6298,W,0,20,040722,12.2,E,A,V*7B
20220704 020029+00:00 $WIMWV,280.19,R,6.08,N,A*2F
20220704 020031+00:00 $IIMDA,29.9,I,1.011,B,13.6,C,,C,91.6,,,C,,T,,M,,N,,M*23
20220704 020031+00:00 $HCHDT,145.3,T*2A
20220704 020031+00:00 $GPRMC,020026,A,4938.8896,N,12605.6298,W,0,19,040722,12.2,E,A,V*73
20220704 020031+00:00 $WIMWV,278.89,R,5.99,N,A*2A
20220704 020033+00:00 $IIMDA,29.9,I,1.011,B,13.6,C,,C,91.6,,,C,,T,,M,,N,,M*23
20220704 020033+00:00 $HCHDT,145.2,T*2B
20220704 020033+00:00 $GPRMC,020028,A,4938.8896,N,12605.6298,W,0,16,040722,12.2,E,A,V*72
20220704 020033+00:00 $WIMWV,278.6,R,5.99,N,A*1D
20220704 020035+00:00 $IIMDA,29.9,I,1.011,B,13.6,C,,C,91.6,,,C,,T,,M,,N,,M*23
20220704 020035+00:00 $HCHDT,145.1,T*28
20220704 020035+00:00 $GPRMC,020030,A,4938.8896,N,12605.6298,W,0,11,040722,12.2,E,A,V*7C
20220704 020035+00:00 $WIMWV,277.39,R,5.7,N,A*19
20220704 020037+00:00 $IIMDA,29.9,I,1.011,B,13.6,C,,C,91.6,,,C,,T,,M,,N,,M*23
20220704 020037+00:00 $HCHDT,145.1,T*28
20220704 020037+00:00 $GPRMC,020032,A,4938.8896,N,12605.6298,W,0,5,040722,12.2,E,A,V*4B
20220704 020037+00:00 $WIMWV,278.49,R,5.99,N,A*26
20220704 020039+00:00 $IIMDA,29.9,I,1.011,B,13.6,C,,C,91.6,,,C,,T,,M,,N,,M*23
20220704 020039+00:00 $HCHDT,145,T*37
20220704 020039+00:00 $GPRMC,020034,A,4938.8896,N,12605.6298,W,0,359,040722,12.2,E,A,V*47
20220704 020039+00:00 $WIMWV,278.6,R,5.89,N,A*1C
20220704 020041+00:00 $IIMDA,29.9,I,1.011,B,13.6,C,,C,91.6,,,C,,T,,M,,N,,M*23
20220704 020041+00:00 $HCHDT,144.8,T*20
20220704 020041+00:00 $GPRMC,020036,A,4938.8896,N,12605.6298,W,0,351,040722,12.2,E,A,V*4D
20220704 020041+00:00 $WIMWV,279.09,R,5.99,N,A*23
20220704 020043+00:00 $IIMDA,29.8,I,1.01,B,13.6,C,,C,91.6,,,C,,T,,M,,N,,M*13
20220704 020043+00:00 $HCHDT,144.9,T*21
20220704 020043+00:00 $GPRMC,020038,A,4938.8896,N,12605.6298,W,0,340,040722,12.2,E,A,V*43
20220704 020043+00:00 $WIMWV,279.89,R,5.79,N,A*25
20220704 020045+00:00 $IIMDA,29.8,I,1.01,B,13.6,C,,C,91.6,,,C,,T,,M,,N,,M*13
20220704 020045+00:00 $HCHDT,144.9,T*21
20220704 020045+00:00 $GPRMC,020040,A,4938.8896,N,12605.6298,W,0,338,040722,12.2,E,A,V*43
20220704 020045+00:00 $WIMWV,279.09,R,5.99,N,A*23
20220704 020047+00:00 $IIMDA,29.9,I,1.011,B,13.6,C,,C,91.6,,,C,,T,,M,,N,,M*23
20220704 020047+00:00 $HCHDT,144.9,T*21
20220704 020047+00:00 $GPRMC,020042,A,4938.8896,N,12605.6298,W,0,336,040722,12.2,E,A,V*4F
20220704 020047+00:00 $WIMWV,279.19,R,5.48,N,A*2E
20220704 020049+00:00 $IIMDA,29.8,I,1.01,B,13.6,C,,C,91.6,,,C,,T,,M,,N,,M*13
20220704 020049+00:00 $HCHDT,144.9,T*21
20220704 020049+00:00 $GPRMC,020044,A,4938.8896,N,12605.6298,W,0,333,040722,12.2,E,A,V*4C
20220704 020049+00:00 $WIMWV,279.29,R,5.29,N,A*2A
20220704 020051+00:00 $IIMDA,29.8,I,1.01,B,13.6,C,,C,91.6,,,C,,T,,M,,N,,M*13
20220704 020051+00:00 $HCHDT,144.8,T*20
20220704 020051+00:00 $GPRMC,020046,A,4938.8896,N,12605.6298,W,0,331,040722,12.2,E,A,V*4C
20220704 020051+00:00 $WIMWV,279.59,R,5.6,N,A*10
20220704 020053+00:00 $IIMDA,29.8,I,1.01,B,13.6,C,,C,91.6,,,C,,T,,M,,N,,M*13
20220704 020053+00:00 $HCHDT,144.8,T*20
20220704 020053+00:00 $GPRMC,020048,A,4938.8896,N,12605.6298,W,0,335,040722,12.2,E,A,V*46
20220704 020053+00:00 $WIMWV,279.79,R,5.6,N,A*12
20220704 020055+00:00 $IIMDA,29.9,I,1.011,B,13.6,C,,C,91.7,,,C,,T,,M,,N,,M*22
20220704 020055+00:00 $HCHDT,144.7,T*2F
20220704 020055+00:00 $GPRMC,020050,A,4938.8896,N,12605.6298,W,0,345,040722,12.2,E,A,V*48
20220704 020055+00:00 $WIMWV,280.09,R,5.79,N,A*2B
20220704 020057+00:00 $IIMDA,29.9,I,1.011,B,13.6,C,,C,91.6,,,C,,T,,M,,N,,M*23
20220704 020057+00:00 $HCHDT,144.6,T*2E
20220704 020057+00:00 $GPRMC,020052,A,4938.8896,N,12605.6298,W,0,355,040722,12.2,E,A,V*4B
20220704 020057+00:00 $WIMWV,280.89,R,5.6,N,A*1B
20220704 020059+00:00 $IIMDA,29.9,I,1.011,B,13.6,C,,C,91.7,,,C,,T,,M,,N,,M*22
20220704 020059+00:00 $HCHDT,144.5,T*2D
20220704 020059+00:00 $GPRMC,020054,A,4938.8896,N,12605.6298,W,0,3,040722,12.2,E,A,V*4D
20220704 020059+00:00 $WIMWV,280.69,R,5.6,N,A*15
20220704 020101+00:00 $IIMDA,29.8,I,1.01,B,13.6,C,,C,91.7,,,C,,T,,M,,N,,M*12
20220704 020101+00:00 $HCHDT,144.3,T*2B
20220704 020101+00:00 $GPRMC,020056,A,4938.8896,N,12605.6298,W,0,10,040722,12.2,E,A,V*7D
20220704 020101+00:00 $WIMWV,278.99,R,5.99,N,A*2B
20220704 020103+00:00 $IIMDA,29.8,I,1.01,B,13.6,C,,C,91.7,,,C,,T,,M,,N,,M*12
20220704 020103+00:00 $HCHDT,144.2,T*2A
20220704 020103+00:00 $GPRMC,020058,A,4938.8896,N,12605.6298,W,0,17,040722,12.2,E,A,V*74
20220704 020103+00:00 $WIMWV,278.09,R,5.89,N,A*23
20220704 020105+00:00 $IIMDA,29.9,I,1.011,B,13.6,C,,C,91.7,,,C,,T,,M,,N,,M*22
20220704 020105+00:00 $HCHDT,144,T*36
20220704 020105+00:00 $GPRMC,020100,A,4938.8896,N,12605.6298,W,0,24,040722,12.2,E,A,V*78
20220704 020105+00:00 $WIMWV,279.59,R,5.6,N,A*10
20220704 020107+00:00 $IIMDA,29.9,I,1.011,B,13.6,C,,C,91.7,,,C,,T,,M,,N,,M*22
20220704 020107+00:00 $HCHDT,143.8,T*27
20220704 020107+00:00 $GPRMC,020102,A,4938.8896,N,12605.6298,W,0,29,040722,12.2,E,A,V*77
20220704 020107+00:00 $WIMWV,280.49,R,5.48,N,A*2D
20220704 020109+00:00 $IIMDA,29.9,I,1.011,B,13.6,C,,C,91.7,,,C,,T,,M,,N,,M*22
20220704 020109+00:00 $HCHDT,143.7,T*28
20220704 020109+00:00 $GPRMC,020104,A,4938.8896,N,12605.6298,W,0,34,040722,12.2,E,A,V*7D
20220704 020109+00:00 $WIMWV,279.89,R,5.6,N,A*1D
20220704 020111+00:00 $IIMDA,29.9,I,1.011,B,13.6,C,,C,91.7,,,C,,T,,M,,N,,M*22
20220704 020111+00:00 $HCHDT,143.6,T*29
20220704 020111+00:00 $GPRMC,020106,A,4938.8896,N,12605.6298,W,0,36,040722,12.2,E,A,V*7D
20220704 020111+00:00 $WIMWV,279.29,R,5.7,N,A*16
20220704 020113+00:00 $IIMDA,29.9,I,1.011,B,13.6,C,,C,91.7,,,C,,T,,M,,N,,M*22
20220704 020113+00:00 $HCHDT,143.6,T*29
20220704 020113+00:00 $GPRMC,020108,A,4938.8896,N,12605.6298,W,0,37,040722,12.2,E,A,V*72
20220704 020113+00:00 $WIMWV,278.49,R,5.99,N,A*26
20220704 020115+00:00 $IIMDA,29.8,I,1.01,B,13.6,C,,C,91.7,,,C,,T,,M,,N,,M*12
20220704 020115+00:00 $HCHDT,143.6,T*29
20220704 020115+00:00 $GPRMC,020110,A,4938.8896,N,12605.6298,W,0,34,040722,12.2,E,A,V*78
20220704 020115+00:00 $WIMWV,279.7,R,5.48,N,A*11
20220704 020117+00:00 $IIMDA,29.9,I,1.011,B,13.6,C,,C,91.7,,,C,,T,,M,,N,,M*22
20220704 020117+00:00 $HCHDT,143.5,T*2A
20220704 020117+00:00 $GPRMC,020112,A,4938.8896,N,12605.6298,W,0,29,040722,12.2,E,A,V*76
20220704 020117+00:00 $WIMWV,279.49,R,5.99,N,A*27
20220704 020119+00:00 $IIMDA,29.9,I,1.011,B,13.6,C,,C,91.7,,,C,,T,,M,,N,,M*22
20220704 020119+00:00 $HCHDT,143.6,T*29
20220704 020119+00:00 $GPRMC,020114,A,4938.8896,N,12605.6298,W,0,19,040722,12.2,E,A,V*73
20220704 020119+00:00 $WIMWV,279.89,R,5.79,N,A*25
20220704 020121+00:00 $IIMDA,29.9,I,1.011,B,13.6,C,,C,91.7,,,C,,T,,M,,N,,M*22
20220704 020121+00:00 $HCHDT,143.6,T*29
20220704 020121+00:00 $GPRMC,020116,A,4938.8896,N,12605.6298,W,0,5,040722,12.2,E,A,V*4C
20220704 020121+00:00 $WIMWV,276.79,R,6.4,N,A*1C
20220704 020123+00:00 $IIMDA,29.9,I,1.011,B,13.6,C,,C,91.7,,,C,,T,,M,,N,,M*22
20220704 020123+00:00 $HCHDT,143.7,T*28
20220704 020123+00:00 $GPRMC,020118,A,4938.8896,N,12605.6298,W,0,346,040722,12.2,E,A,V*46
20220704 020123+00:00 $WIMWV,279.59,R,5.6,N,A*10
20220704 020125+00:00 $IIMDA,29.9,I,1.011,B,13.6,C,,C,91.7,,,C,,T,,M,,N,,M*22
20220704 020125+00:00 $HCHDT,143.7,T*28
20220704 020125+00:00 $GPRMC,020120,A,4938.8896,N,12605.6298,W,0,326,040722,12.2,E,A,V*4B
20220704 020125+00:00 $WIMWV,277.29,R,5.38,N,A*24
20220704 020127+00:00 $IIMDA,29.9,I,1.011,B,13.6,C,,C,91.7,,,C,,T,,M,,N,,M*22
20220704 020127+00:00 $HCHDT,143.8,T*27
20220704 020127+00:00 $GPRMC,020122,A,4938.8896,N,12605.6298,W,0,317,040722,12.2,E,A,V*4B
20220704 020127+00:00 $WIMWV,278.99,R,5.99,N,A*2B
20220704 020129+00:00 $IIMDA,29.9,I,1.011,B,13.6,C,,C,91.7,,,C,,T,,M,,N,,M*22
20220704 020129+00:00 $HCHDT,143.9,T*26
20220704 020129+00:00 $GPRMC,020124,A,4938.8896,N,12605.6298,W,0,299,040722,12.2,E,A,V*4A
20220704 020129+00:00 $WIMWV,278.49,R,5.89,N,A*27
20220704 020131+00:00 $IIMDA,29.9,I,1.011,B,13.6,C,,C,91.7,,,C,,T,,M,,N,,M*22
20220704 020131+00:00 $HCHDT,144,T*36
20220704 020131+00:00 $GPRMC,020126,A,4938.8896,N,12605.6298,W,0,296,040722,12.2,E,A,V*47
20220704 020131+00:00 $WIMWV,278.69,R,6.08,N,A*2F
20220704 020133+00:00 $IIMDA,29.9,I,1.011,B,13.6,C,,C,91.7,,,C,,T,,M,,N,,M*22
20220704 020133+00:00 $HCHDT,144.1,T*29
20220704 020133+00:00 $GPRMC,020128,A,4938.8896,N,12605.6298,W,0,289,040722,12.2,E,A,V*47
20220704 020133+00:00 $WIMWV,277.59,R,6.08,N,A*23
20220704 020135+00:00 $IIMDA,29.9,I,1.011,B,13.6,C,,C,91.7,,,C,,T,,M,,N,,M*22
20220704 020135+00:00 $HCHDT,144.2,T*2A
20220704 020135+00:00 $GPRMC,020130,A,4938.8896,N,12605.6298,W,0,285,040722,12.2,E,A,V*42
20220704 020135+00:00 $WIMWV,279.7,R,5.6,N,A*2B
20220704 020137+00:00 $IIMDA,29.9,I,1.011,B,13.6,C,,C,91.7,,,C,,T,,M,,N,,M*22
20220704 020137+00:00 $HCHDT,144.3,T*2B
20220704 020137+00:00 $GPRMC,020132,A,4938.8896,N,12605.6298,W,0,285,040722,12.2,E,A,V*40
20220704 020137+00:00 $WIMWV,277.79,R,5.7,N,A*1D
20220704 020139+00:00 $IIMDA,29.9,I,1.011,B,13.6,C,,C,91.7,,,C,,T,,M,,N,,M*22
20220704 020139+00:00 $HCHDT,144.3,T*2B
20220704 020139+00:00 $GPRMC,020134,A,4938.8896,N,12605.6298,W,0,287,040722,12.2,E,A,V*44
20220704 020139+00:00 $WIMWV,277.79,R,5.38,N,A*21
20220704 020141+00:00 $IIMDA,29.9,I,1.011,B,13.6,C,,C,91.8,,,C,,T,,M,,N,,M*2D
20220704 020141+00:00 $HCHDT,144.4,T*2C
20220704 020141+00:00 $GPRMC,020136,A,4938.8896,N,12605.6298,W,0,288,040722,12.2,E,A,V*49
20220704 020141+00:00 $WIMWV,277.39,R,5.7,N,A*19
20220704 020143+00:00 $IIMDA,29.9,I,1.011,B,13.6,C,,C,91.8,,,C,,T,,M,,N,,M*2D
20220704 020143+00:00 $HCHDT,144.4,T*2C
20220704 020143+00:00 $GPRMC,020138,A,4938.8896,N,12605.6298,W,0,288,040722,12.2,E,A,V*47
20220704 020143+00:00 $WIMWV,277.19,R,5.89,N,A*2D
20220704 020145+00:00 $IIMDA,29.9,I,1.011,B,13.6,C,,C,91.8,,,C,,T,,M,,N,,M*2D
20220704 020145+00:00 $HCHDT,144.4,T*2C
20220704 020145+00:00 $GPRMC,020140,A,4938.8896,N,12605.6298,W,0,287,040722,12.2,E,A,V*47
20220704 020145+00:00 $WIMWV,276.89,R,5.99,N,A*24
20220704 020147+00:00 $IIMDA,29.8,I,1.01,B,13.6,C,,C,91.8,,,C,,T,,M,,N,,M*1D
20220704 020147+00:00 $HCHDT,144.5,T*2D
20220704 020147+00:00 $GPRMC,020142,A,4938.8896,N,12605.6298,W,0,285,040722,12.2,E,A,V*47
20220704 020147+00:00 $WIMWV,276.29,R,6.18,N,A*24
20220704 020149+00:00 $IIMDA,29.8,I,1.01,B,13.6,C,,C,91.8,,,C,,T,,M,,N,,M*1D
20220704 020149+00:00 $HCHDT,144.6,T*2E
20220704 020149+00:00 $GPRMC,020144,A,4938.8896,N,12605.6298,W,0,284,040722,12.2,E,A,V*40
20220704 020149+00:00 $WIMWV,280.19,R,7.79,N,A*28
20220704 020151+00:00 $IIMDA,29.8,I,1.01,B,13.6,C,,C,91.8,,,C,,T,,M,,N,,M*1D
20220704 020151+00:00 $HCHDT,144.6,T*2E
20220704 020151+00:00 $GPRMC,020146,A,4938.8896,N,12605.6298,W,0,283,040722,12.2,E,A,V*45
20220704 020151+00:00 $WIMWV,277.59,R,6.18,N,A*22
20220704 020153+00:00 $IIMDA,29.8,I,1.01,B,13.6,C,,C,91.7,,,C,,T,,M,,N,,M*12
20220704 020153+00:00 $HCHDT,144.5,T*2D
20220704 020153+00:00 $GPRMC,020148,A,4938.8896,N,12605.6298,W,0,286,040722,12.2,E,A,V*4E
20220704 020153+00:00 $WIMWV,278.99,R,5.7,N,A*1C
20220704 020155+00:00 $IIMDA,29.8,I,1.01,B,13.6,C,,C,91.8,,,C,,T,,M,,N,,M*1D
20220704 020155+00:00 $HCHDT,144.5,T*2D
20220704 020155+00:00 $GPRMC,020150,A,4938.8896,N,12605.6298,W,0,289,040722,12.2,E,A,V*48
20220704 020155+00:00 $WIMWV,278.69,R,5.38,N,A*2F
20220704 020157+00:00 $IIMDA,29.9,I,1.011,B,13.6,C,,C,91.8,,,C,,T,,M,,N,,M*2D
20220704 020157+00:00 $HCHDT,144.5,T*2D
20220704 020157+00:00 $GPRMC,020152,A,4938.8896,N,12605.6298,W,0,291,040722,12.2,E,A,V*43
20220704 020157+00:00 $WIMWV,276.29,R,6.49,N,A*20
20220704 020159+00:00 $IIMDA,29.9,I,1.011,B,13.6,C,,C,91.8,,,C,,T,,M,,N,,M*2D
20220704 020159+00:00 $HCHDT,144.4,T*2C
20220704 020159+00:00 $GPRMC,020154,A,4938.8896,N,12605.6298,W,0,289,040722,12.2,E,A,V*4C
20220704 020159+00:00 $WIMWV,278.09,R,6.78,N,A*2E
20220704 020201+00:00 $IIMDA,29.9,I,1.011,B,13.6,C,,C,91.8,,,C,,T,,M,,N,,M*2D
20220704 020201+00:00 $HCHDT,144.3,T*2B
20220704 020201+00:00 $GPRMC,020156,A,4938.8896,N,12605.6298,W,0,286,040722,12.2,E,A,V*41
20220704 020201+00:00 $WIMWV,279.29,R,6.4,N,A*16
20220704 020203+00:00 $IIMDA,29.9,I,1.011,B,13.6,C,,C,91.8,,,C,,T,,M,,N,,M*2D
20220704 020203+00:00 $HCHDT,144.2,T*2A
20220704 020203+00:00 $GPRMC,020158,A,4938.8896,N,12605.6298,W,0,284,040722,12.2,E,A,V*4D
20220704 020203+00:00 $WIMWV,279.59,R,5.99,N,A*26
20220704 020205+00:00 $IIMDA,29.9,I,1.011,B,13.6,C,,C,91.8,,,C,,T,,M,,N,,M*2D
20220704 020205+00:00 $HCHDT,144,T*36
20220704 020205+00:00 $GPRMC,020200,A,4938.8896,N,12605.6298,W,0,285,040722,12.2,E,A,V*42
20220704 020205+00:00 $WIMWV,277.39,R,6.4,N,A*19
20220704 020207+00:00 $IIMDA,29.9,I,1.011,B,13.6,C,,C,91.8,,,C,,T,,M,,N,,M*2D
20220704 020207+00:00 $HCHDT,144,T*36
20220704 020207+00:00 $GPRMC,020202,A,4938.8896,N,12605.6298,W,0,290,040722,12.2,E,A,V*44
20220704 020207+00:00 $WIMWV,279.19,R,6.69,N,A*2E
20220704 020209+00:00 $IIMDA,29.9,I,1.011,B,13.6,C,,C,91.8,,,C,,T,,M,,N,,M*2D
20220704 020209+00:00 $HCHDT,143.9,T*26
20220704 020209+00:00 $GPRMC,020204,A,4938.8896,N,12605.6298,W,0,298,040722,12.2,E,A,V*4A
20220704 020209+00:00 $WIMWV,280.29,R,5.99,N,A*27
20220704 020211+00:00 $IIMDA,29.9,I,1.011,B,13.6,C,,C,91.8,,,C,,T,,M,,N,,M*2D
20220704 020211+00:00 $HCHDT,143.7,T*28
20220704 020211+00:00 $GPRMC,020206,A,4938.8896,N,12605.6298,W,0,305,040722,12.2,E,A,V*4D
20220704 020211+00:00 $WIMWV,278.89,R,6.59,N,A*25
20220704 020213+00:00 $IIMDA,29.9,I,1.011,B,13.6,C,,C,91.8,,,C,,T,,M,,N,,M*2D
20220704 020213+00:00 $HCHDT,143.6,T*29
20220704 020213+00:00 $GPRMC,020208,A,4938.8896,N,12605.6298,W,0,309,040722,12.2,E,A,V*4F
20220704 020213+00:00 $WIMWV,278.09,R,6.4,N,A*15
20220704 020215+00:00 $IIMDA,29.9,I,1.011,B,13.6,C,,C,91.7,,,C,,T,,M,,N,,M*22
20220704 020215+00:00 $HCHDT,143.5,T*2A
20220704 020215+00:00 $GPRMC,020210,A,4938.8896,N,12605.6298,W,0,312,040722,12.2,E,A,V*4C
20220704 020215+00:00 $WIMWV,276.59,R,6.18,N,A*23
20220704 020217+00:00 $IIMDA,29.9,I,1.011,B,13.6,C,,C,91.7,,,C,,T,,M,,N,,M*22
20220704 020217+00:00 $HCHDT,143.5,T*2A
20220704 020217+00:00 $GPRMC,020212,A,4938.8896,N,12605.6298,W,0,315,040722,12.2,E,A,V*49
20220704 020217+00:00 $WIMWV,278.09,R,5.48,N,A*2E
20220704 020219+00:00 $IIMDA,29.9,I,1.011,B,13.6,C,,C,91.7,,,C,,T,,M,,N,,M*22
20220704 020219+00:00 $HCHDT,143.6,T*29
20220704 020219+00:00 $GPRMC,020214,A,4938.8896,N,12605.6298,W,0,321,040722,12.2,E,A,V*48
20220704 020219+00:00 $WIMWV,278.09,R,6.08,N,A*29
20220704 020221+00:00 $IIMDA,29.9,I,1.011,B,13.6,C,,C,91.7,,,C,,T,,M,,N,,M*22
20220704 020221+00:00 $HCHDT,143.6,T*29
20220704 020221+00:00 $GPRMC,020216,A,4938.8896,N,12605.6298,W,0,325,040722,12.2,E,A,V*4E
20220704 020221+00:00 $WIMWV,277.99,R,5.6,N,A*12
20220704 020223+00:00 $IIMDA,29.9,I,1.011,B,13.6,C,,C,91.7,,,C,,T,,M,,N,,M*22
20220704 020223+00:00 $HCHDT,143.8,T*27
20220704 020223+00:00 $GPRMC,020218,A,4938.8896,N,12605.6298,W,0,330,040722,12.2,E,A,V*44
20220704 020223+00:00 $WIMWV,279.29,R,5.79,N,A*2F
20220704 020225+00:00 $IIMDA,29.9,I,1.011,B,13.6,C,,C,91.7,,,C,,T,,M,,N,,M*22
20220704 020225+00:00 $HCHDT,144,T*36
20220704 020225+00:00 $GPRMC,020220,A,4938.8896,N,12605.6298,W,0,333,040722,12.2,E,A,V*4C
20220704 020225+00:00 $WIMWV,277.89,R,5.79,N,A*2B
20220704 020227+00:00 $IIMDA,29.9,I,1.011,B,13.6,C,,C,91.7,,,C,,T,,M,,N,,M*22
20220704 020227+00:00 $HCHDT,144.2,T*2A
20220704 020227+00:00 $GPRMC,020222,A,4938.8896,N,12605.6298,W,0,334,040722,12.2,E,A,V*49
20220704 020227+00:00 $WIMWV,279.29,R,5.19,N,A*29
20220704 020229+00:00 $IIMDA,29.9,I,1.011,B,13.6,C,,C,91.7,,,C,,T,,M,,N,,M*22
20220704 020229+00:00 $HCHDT,144.4,T*2C
20220704 020229+00:00 $GPRMC,020224,A,4938.8896,N,12605.6298,W,0,338,040722,12.2,E,A,V*43
20220704 020229+00:00 $WIMWV,277.49,R,5,N,A*07
20220704 020231+00:00 $IIMDA,29.9,I,1.011,B,13.6,C,,C,91.7,,,C,,T,,M,,N,,M*22
20220704 020231+00:00 $HCHDT,144.6,T*2E
20220704 020231+00:00 $GPRMC,020226,A,4938.8896,N,12605.6298,W,0,346,040722,12.2,E,A,V*48
20220704 020231+00:00 $WIMWV,278.19,R,4.68,N,A*2C
20220704 020233+00:00 $IIMDA,29.9,I,1.011,B,13.6,C,,C,91.7,,,C,,T,,M,,N,,M*22
20220704 020233+00:00 $HCHDT,144.8,T*20
20220704 020233+00:00 $GPRMC,020228,A,4938.8896,N,12605.6298,W,0,354,040722,12.2,E,A,V*45
20220704 020233+00:00 $WIMWV,282.39,R,4.49,N,A*28
20220704 020235+00:00 $IIMDA,29.9,I,1.011,B,13.6,C,,C,91.7,,,C,,T,,M,,N,,M*22
20220704 020235+00:00 $HCHDT,144.8,T*20
20220704 020235+00:00 $GPRMC,020230,A,4938.8896,N,12605.6298,W,0,4,040722,12.2,E,A,V*4A
20220704 020235+00:00 $WIMWV,288.99,R,4.3,N,A*16
20220704 020237+00:00 $IIMDA,29.9,I,1.011,B,13.6,C,,C,91.7,,,C,,T,,M,,N,,M*22
20220704 020237+00:00 $HCHDT,144.9,T*21
20220704 020237+00:00 $GPRMC,020232,A,4938.8896,N,12605.6298,W,0,17,040722,12.2,E,A,V*7A
20220704 020237+00:00 $WIMWV,279.49,R,5.19,N,A*2F
20220704 020239+00:00 $IIMDA,29.8,I,1.01,B,13.6,C,,C,91.7,,,C,,T,,M,,N,,M*12
20220704 020239+00:00 $HCHDT,145,T*37
20220704 020239+00:00 $GPRMC,020234,A,4938.8896,N,12605.6298,W,0,27,040722,12.2,E,A,V*7F
20220704 020239+00:00 $WIMWV,278.49,R,5.7,N,A*11
20220704 020241+00:00 $IIMDA,29.9,I,1.011,B,13.6,C,,C,91.7,,,C,,T,,M,,N,,M*22
20220704 020241+00:00 $HCHDT,145,T*37
20220704 020241+00:00 $GPRMC,020236,A,4938.8896,N,12605.6298,W,0,35,040722,12.2,E,A,V*7E
20220704 020241+00:00 $WIMWV,277.79,R,5,N,A*04
20220704 020243+00:00 $IIMDA,29.9,I,1.011,B,13.6,C,,C,91.7,,,C,,T,,M,,N,,M*22
20220704 020243+00:00 $HCHDT,144.9,T*21
20220704 020243+00:00 $GPRMC,020238,A,4938.8896,N,12605.6298,W,0,41,040722,12.2,E,A,V*73
20220704 020243+00:00 $WIMWV,280.19,R,5.19,N,A*2C
20220704 020245+00:00 $IIMDA,29.8,I,1.01,B,13.6,C,,C,91.7,,,C,,T,,M,,N,,M*12
20220704 020245+00:00 $HCHDT,144.9,T*21
20220704 020245+00:00 $GPRMC,020240,A,4938.8896,N,12605.6298,W,0,45,040722,12.2,E,A,V*78
20220704 020245+00:00 $WIMWV,279.59,R,5.29,N,A*2D
20220704 020247+00:00 $IIMDA,29.8,I,1.01,B,13.6,C,,C,91.7,,,C,,T,,M,,N,,M*12
20220704 020247+00:00 $HCHDT,144.8,T*20
20220704 020247+00:00 $GPRMC,020242,A,4938.8896,N,12605.6298,W,0,46,040722,12.2,E,A,V*79
20220704 020247+00:00 $WIMWV,280.19,R,5.48,N,A*28
20220704 020249+00:00 $IIMDA,29.9,I,1.011,B,13.6,C,,C,91.7,,,C,,T,,M,,N,,M*22
20220704 020249+00:00 $HCHDT,144.8,T*20
20220704 020249+00:00 $GPRMC,020244,A,4938.8896,N,12605.6298,W,0,46,040722,12.2,E,A,V*7F
20220704 020249+00:00 $WIMWV,280.89,R,5.48,N,A*21
20220704 020251+00:00 $IIMDA,29.9,I,1.011,B,13.6,C,,C,91.7,,,C,,T,,M,,N,,M*22
20220704 020251+00:00 $HCHDT,144.8,T*20
20220704 020251+00:00 $GPRMC,020246,A,4938.8896,N,12605.6298,W,0,44,040722,12.2,E,A,V*7F
20220704 020251+00:00 $WIMWV,278.69,R,4.49,N,A*28
20220704 020253+00:00 $IIMDA,29.9,I,1.011,B,13.6,C,,C,91.7,,,C,,T,,M,,N,,M*22
20220704 020253+00:00 $HCHDT,144.8,T*20
20220704 020253+00:00 $GPRMC,020248,A,4938.8896,N,12605.6298,W,0,42,040722,12.2,E,A,V*77
20220704 020253+00:00 $WIMWV,276.99,R,4.68,N,A*2A
20220704 020255+00:00 $IIMDA,29.9,I,1.011,B,13.6,C,,C,91.7,,,C,,T,,M,,N,,M*22
20220704 020255+00:00 $HCHDT,144.8,T*20
20220704 020255+00:00 $GPRMC,020250,A,4938.8896,N,12605.6298,W,0,39,040722,12.2,E,A,V*72
20220704 020255+00:00 $WIMWV,278.19,R,4.39,N,A*28
20220704 020257+00:00 $IIMDA,29.9,I,1.011,B,13.6,C,,C,91.7,,,C,,T,,M,,N,,M*22
20220704 020257+00:00 $HCHDT,144.9,T*21
20220704 020257+00:00 $GPRMC,020252,A,4938.8896,N,12605.6298,W,0,35,040722,12.2,E,A,V*7C
20220704 020257+00:00 $WIMWV,279.79,R,4.2,N,A*17
20220704 020259+00:00 $IIMDA,29.9,I,1.011,B,13.6,C,,C,91.7,,,C,,T,,M,,N,,M*22
20220704 020259+00:00 $HCHDT,145,T*37
20220704 020259+00:00 $GPRMC,020254,A,4938.8896,N,12605.6298,W,0,9,040722,12.2,E,A,V*45
20220704 020259+00:00 $WIMWV,279.59,R,5.09,N,A*2F
20220704 020301+00:00 $IIMDA,29.9,I,1.011,B,13.6,C,,C,91.8,,,C,,T,,M,,N,,M*2D
20220704 020301+00:00 $HCHDT,145.1,T*28
20220704 020301+00:00 $GPRMC,020256,A,4938.8896,N,12605.6298,W,0,315,040722,12.2,E,A,V*49
20220704 020301+00:00 $WIMWV,279.19,R,5.29,N,A*29
20220704 020303+00:00 $IIMDA,29.9,I,1.011,B,13.6,C,,C,91.7,,,C,,T,,M,,N,,M*22
20220704 020303+00:00 $HCHDT,145.2,T*2B
20220704 020303+00:00 $GPRMC,020258,A,4938.8896,N,12605.6298,W,0,284,040722,12.2,E,A,V*4E
20220704 020303+00:00 $WIMWV,278.19,R,5.38,N,A*28
20220704 020305+00:00 $IIMDA,29.9,I,1.011,B,13.6,C,,C,91.8,,,C,,T,,M,,N,,M*2D
20220704 020305+00:00 $HCHDT,145.3,T*2A
20220704 020305+00:00 $GPRMC,020300,A,4938.8896,N,12605.6298,W,0,270,040722,12.2,E,A,V*49
20220704 020305+00:00 $WIMWV,278.99,R,5.29,N,A*20
20220704 020307+00:00 $IIMDA,29.9,I,1.011,B,13.6,C,,C,91.8,,,C,,T,,M,,N,,M*2D
20220704 020307+00:00 $HCHDT,145.5,T*2C
20220704 020307+00:00 $GPRMC,020302,A,4938.8896,N,12605.6298,W,0,261,040722,12.2,E,A,V*4B
20220704 020307+00:00 $WIMWV,279.19,R,5.19,N,A*2A
20220704 020309+00:00 $IIMDA,29.9,I,1.011,B,13.6,C,,C,91.8,,,C,,T,,M,,N,,M*2D
20220704 020309+00:00 $HCHDT,145.7,T*2E
20220704 020309+00:00 $GPRMC,020304,A,4938.8896,N,12605.6298,W,0.1,254,040722,12.2,E,A,V*54
20220704 020309+00:00 $WIMWV,280.09,R,5.19,N,A*2D
20220704 020311+00:00 $IIMDA,29.9,I,1.011,B,13.6,C,,C,91.8,,,C,,T,,M,,N,,M*2D
20220704 020311+00:00 $HCHDT,146.1,T*2B
20220704 020311+00:00 $GPRMC,020306,A,4938.8896,N,12605.6298,W,0.1,249,040722,12.2,E,A,V*5A
20220704 020311+00:00 $WIMWV,279.7,R,4.68,N,A*12
20220704 020313+00:00 $IIMDA,29.9,I,1.011,B,13.6,C,,C,91.8,,,C,,T,,M,,N,,M*2D
20220704 020313+00:00 $HCHDT,146.4,T*2E
20220704 020313+00:00 $GPRMC,020308,A,4938.8896,N,12605.6298,W,0.1,245,040722,12.2,E,A,V*58
20220704 020313+00:00 $WIMWV,279.19,R,4.59,N,A*2F
20220704 020315+00:00 $IIMDA,29.9,I,1.011,B,13.6,C,,C,91.8,,,C,,T,,M,,N,,M*2D
20220704 020315+00:00 $HCHDT,146.8,T*22
20220704 020315+00:00 $GPRMC,020310,A,4938.8896,N,12605.6298,W,0.1,242,040722,12.2,E,A,V*56
20220704 020315+00:00 $WIMWV,280.29,R,4.9,N,A*1F
20220704 020317+00:00 $IIMDA,29.9,I,1.011,B,13.6,C,,C,91.8,,,C,,T,,M,,N,,M*2D
20220704 020317+00:00 $HCHDT,147.1,T*2A
20220704 020317+00:00 $GPRMC,020312,A,4938.8896,N,12605.6298,W,0.1,239,040722,12.2,E,A,V*58
20220704 020317+00:00 $WIMWV,279.7,R,5.19,N,A*15
20220704 020319+00:00 $IIMDA,29.9,I,1.011,B,13.6,C,,C,91.8,,,C,,T,,M,,N,,M*2D
20220704 020319+00:00 $HCHDT,147.4,T*2F
20220704 020319+00:00 $GPRMC,020314,A,4938.8896,N,12605.6298,W,0.1,237,040722,12.2,E,A,V*50
20220704 020319+00:00 $WIMWV,280.09,R,5.38,N,A*2E
20220704 020321+00:00 $IIMDA,29.9,I,1.011,B,13.6,C,,C,91.8,,,C,,T,,M,,N,,M*2D
20220704 020321+00:00 $HCHDT,147.7,T*2C
20220704 020321+00:00 $GPRMC,020316,A,4938.8896,N,12605.6298,W,0.1,234,040722,12.2,E,A,V*51
20220704 020321+00:00 $WIMWV,280.09,R,5.29,N,A*2E
20220704 020323+00:00 $IIMDA,29.9,I,1.011,B,13.6,C,,C,91.8,,,C,,T,,M,,N,,M*2D
20220704 020323+00:00 $HCHDT,148,T*3A
20220704 020323+00:00 $GPRMC,020318,A,4938.8896,N,12605.6298,W,0.1,231,040722,12.2,E,A,V*5A
20220704 020323+00:00 $WIMWV,279.79,R,5.6,N,A*12
20220704 020325+00:00 $IIMDA,29.9,I,1.011,B,13.6,C,,C,91.8,,,C,,T,,M,,N,,M*2D
20220704 020325+00:00 $HCHDT,148.2,T*26
20220704 020325+00:00 $GPRMC,020320,A,4938.8896,N,12605.6298,W,0.1,228,040722,12.2,E,A,V*59
20220704 020325+00:00 $WIMWV,279.49,R,5.7,N,A*10
20220704 020327+00:00 $IIMDA,29.9,I,1.011,B,13.6,C,,C,91.8,,,C,,T,,M,,N,,M*2D
20220704 020327+00:00 $HCHDT,148.5,T*21
20220704 020327+00:00 $GPRMC,020322,A,4938.8896,N,12605.6298,W,0.1,225,040722,12.2,E,A,V*56
20220704 020327+00:00 $WIMWV,278.19,R,5.79,N,A*2D
20220704 020329+00:00 $IIMDA,29.9,I,1.011,B,13.6,C,,C,91.8,,,C,,T,,M,,N,,M*2D
20220704 020329+00:00 $HCHDT,148.8,T*2C
20220704 020329+00:00 $GPRMC,020324,A,4938.8896,N,12605.6298,W,0.1,221,040722,12.2,E,A,V*54
20220704 020329+00:00 $WIMWV,278.99,R,5.89,N,A*2A
20220704 020331+00:00 $IIMDA,29.9,I,1.011,B,13.6,C,,C,91.8,,,C,,T,,M,,N,,M*2D
20220704 020331+00:00 $HCHDT,149,T*3B
20220704 020331+00:00 $GPRMC,020326,A,4938.8896,N,12605.6298,W,0.1,218,040722,12.2,E,A,V*5C
20220704 020331+00:00 $WIMWV,279.49,R,5.6,N,A*11
20220704 020333+00:00 $IIMDA,29.9,I,1.011,B,13.6,C,,C,91.8,,,C,,T,,M,,N,,M*2D
20220704 020333+00:00 $HCHDT,149.1,T*24
20220704 020333+00:00 $GPRMC,020328,A,4938.8896,N,12605.6298,W,0.1,213,040722,12.2,E,A,V*59
20220704 020333+00:00 $WIMWV,280.29,R,5.89,N,A*26
20220704 020335+00:00 $IIMDA,29.9,I,1.011,B,13.6,C,,C,91.9,,,C,,T,,M,,N,,M*2C
20220704 020335+00:00 $HCHDT,149.2,T*27
20220704 020335+00:00 $GPRMC,020330,A,4938.8896,N,12605.6298,W,0.1,209,040722,12.2,E,A,V*5B
20220704 020335+00:00 $WIMWV,279.09,R,5.19,N,A*2B
20220704 020337+00:00 $IIMDA,29.9,I,1.011,B,13.6,C,,C,91.9,,,C,,T,,M,,N,,M*2C
20220704 020337+00:00 $HCHDT,149.2,T*27
20220704 020337+00:00 $GPRMC,020332,A,4938.8896,N,12605.6298,W,0.1,204,040722,12.2,E,A,V*54
20220704 020337+00:00 $WIMWV,278.09,R,4.68,N,A*2D
20220704 020339+00:00 $IIMDA,29.9,I,1.011,B,13.6,C,,C,91.9,,,C,,T,,M,,N,,M*2C
20220704 020339+00:00 $HCHDT,149.2,T*27
20220704 020339+00:00 $GPRMC,020334,A,4938.8896,N,12605.6298,W,0.1,198,040722,12.2,E,A,V*54
20220704 020339+00:00 $WIMWV,278.49,R,4.68,N,A*29
20220704 020341+00:00 $IIMDA,29.9,I,1.011,B,13.6,C,,C,91.9,,,C,,T,,M,,N,,M*2C
20220704 020341+00:00 $HCHDT,149.3,T*26
20220704 020341+00:00 $GPRMC,020336,A,4938.8896,N,12605.6298,W,0.1,191,040722,12.2,E,A,V*5F
20220704 020341+00:00 $WIMWV,278.69,R,5.09,N,A*2D
20220704 020343+00:00 $IIMDA,29.9,I,1.011,B,13.6,C,,C,91.9,,,C,,T,,M,,N,,M*2C
20220704 020343+00:00 $HCHDT,149.3,T*26
20220704 020343+00:00 $GPRMC,020338,A,4938.8896,N,12605.6298,W,0.1,184,040722,12.2,E,A,V*55
20220704 020343+00:00 $WIMWV,278.69,R,5.19,N,A*2C
20220704 020345+00:00 $IIMDA,29.9,I,1.011,B,13.6,C,,C,91.9,,,C,,T,,M,,N,,M*2C
20220704 020345+00:00 $HCHDT,149.3,T*26
20220704 020345+00:00 $GPRMC,020340,A,4938.8896,N,12605.6298,W,0.1,177,040722,12.2,E,A,V*56
20220704 020345+00:00 $WIMWV,279.79,R,5,N,A*0A
20220704 020347+00:00 $IIMDA,29.9,I,1.011,B,13.6,C,,C,92,,,C,,T,,M,,N,,M*38
20220704 020347+00:00 $HCHDT,149.2,T*27
20220704 020347+00:00 $GPRMC,020342,A,4938.8896,N,12605.6298,W,0.1,168,040722,12.2,E,A,V*5A
20220704 020347+00:00 $WIMWV,278.39,R,5,N,A*0F
20220704 020349+00:00 $IIMDA,29.9,I,1.011,B,13.6,C,,C,92,,,C,,T,,M,,N,,M*38
20220704 020349+00:00 $HCHDT,149.3,T*26
20220704 020349+00:00 $GPRMC,020344,A,4938.8896,N,12605.6298,W,0.1,159,040722,12.2,E,A,V*5E
20220704 020349+00:00 $WIMWV,276.09,R,5.09,N,A*25
20220704 020351+00:00 $IIMDA,29.9,I,1.011,B,13.6,C,,C,92,,,C,,T,,M,,N,,M*38
20220704 020351+00:00 $HCHDT,149.3,T*26
20220704 020351+00:00 $GPRMC,020346,A,4938.8896,N,12605.6298,W,0.1,152,040722,12.2,E,A,V*57
20220704 020351+00:00 $WIMWV,276.59,R,5.09,N,A*20
20220704 020353+00:00 $IIMDA,29.9,I,1.011,B,13.6,C,,C,92,,,C,,T,,M,,N,,M*38
20220704 020353+00:00 $HCHDT,149.2,T*27
20220704 020353+00:00 $GPRMC,020348,A,4938.8896,N,12605.6298,W,0.1,146,040722,12.2,E,A,V*5C
20220704 020353+00:00 $WIMWV,278.89,R,5.29,N,A*21
20220704 020355+00:00 $IIMDA,29.9,I,1.011,B,13.6,C,,C,92,,,C,,T,,M,,N,,M*38
20220704 020355+00:00 $HCHDT,149.1,T*24
20220704 020355+00:00 $GPRMC,020350,A,4938.8896,N,12605.6298,W,0.1,141,040722,12.2,E,A,V*52
20220704 020355+00:00 $WIMWV,278.99,R,5.79,N,A*25
20220704 020357+00:00 $IIMDA,29.9,I,1.011,B,13.6,C,,C,92,,,C,,T,,M,,N,,M*38
20220704 020357+00:00 $HCHDT,149.1,T*24
20220704 020357+00:00 $GPRMC,020352,A,4938.8896,N,12605.6298,W,0.1,137,040722,12.2,E,A,V*51
20220704 020357+00:00 $WIMWV,278.69,R,5.79,N,A*2A
20220704 020359+00:00 $IIMDA,29.9,I,1.011,B,13.6,C,,C,92,,,C,,T,,M,,N,,M*38
20220704 020359+00:00 $HCHDT,149.1,T*24
20220704 020359+00:00 $GPRMC,020354,A,4938.8896,N,12605.6298,W,0.1,135,040722,12.2,E,A,V*55
20220704 020359+00:00 $WIMWV,278.69,R,5.7,N,A*13
20220704 020401+00:00 $IIMDA,29.9,I,1.011,B,13.6,C,,C,92,,,C,,T,,M,,N,,M*38
20220704 020401+00:00 $HCHDT,149.1,T*24
20220704 020401+00:00 $GPRMC,020356,A,4938.8896,N,12605.6298,W,0.1,135,040722,12.2,E,A,V*57
20220704 020401+00:00 $WIMWV,278.99,R,5.7,N,A*1C
20220704 020403+00:00 $IIMDA,29.9,I,1.011,B,13.6,C,,C,92,,,C,,T,,M,,N,,M*38
20220704 020403+00:00 $HCHDT,149.2,T*27
20220704 020403+00:00 $GPRMC,020358,A,4938.8896,N,12605.6298,W,0.1,134,040722,12.2,E,A,V*58
20220704 020403+00:00 $WIMWV,279.19,R,6.49,N,A*2C
20220704 020405+00:00 $IIMDA,29.9,I,1.011,B,13.6,C,,C,92,,,C,,T,,M,,N,,M*38
20220704 020405+00:00 $HCHDT,149.1,T*24
20220704 020405+00:00 $GPRMC,020400,A,4938.8896,N,12605.6298,W,0.1,134,040722,12.2,E,A,V*52
20220704 020405+00:00 $WIMWV,280.19,R,6.59,N,A*2B
20220704 020407+00:00 $IIMDA,29.9,I,1.011,B,13.6,C,,C,92.1,,,C,,T,,M,,N,,M*27
20220704 020407+00:00 $HCHDT,149.2,T*27
20220704 020407+00:00 $GPRMC,020402,A,4938.8896,N,12605.6298,W,0.1,135,040722,12.2,E,A,V*51
20220704 020407+00:00 $WIMWV,280.49,R,6.59,N,A*2E
20220704 020409+00:00 $IIMDA,29.9,I,1.011,B,13.6,C,,C,92.1,,,C,,T,,M,,N,,M*27
20220704 020409+00:00 $HCHDT,149.1,T*24
20220704 020409+00:00 $GPRMC,020404,A,4938.8896,N,12605.6298,W,0.1,137,040722,12.2,E,A,V*55
20220704 020409+00:00 $WIMWV,279.79,R,6.78,N,A*28
20220704 020411+00:00 $IIMDA,29.9,I,1.011,B,13.6,C,,C,92.1,,,C,,T,,M,,N,,M*27
20220704 020411+00:00 $HCHDT,149,T*3B
20220704 020411+00:00 $GPRMC,020406,A,4938.8896,N,12605.6298,W,0.1,138,040722,12.2,E,A,V*58
20220704 020411+00:00 $WIMWV,276.99,R,6.49,N,A*2B
20220704 020413+00:00 $IIMDA,29.9,I,1.011,B,13.6,C,,C,92.1,,,C,,T,,M,,N,,M*27
20220704 020413+00:00 $HCHDT,149.1,T*24
20220704 020413+00:00 $GPRMC,020408,A,4938.8896,N,12605.6298,W,0.1,139,040722,12.2,E,A,V*57
20220704 020413+00:00 $WIMWV,277.19,R,6.08,N,A*27
20220704 020415+00:00 $IIMDA,29.9,I,1.011,B,13.6,C,,C,92.1,,,C,,T,,M,,N,,M*27
20220704 020415+00:00 $HCHDT,149.2,T*27
20220704 020415+00:00 $GPRMC,020410,A,4938.8896,N,12605.6298,W,0.1,141,040722,12.2,E,A,V*51
20220704 020415+00:00 $WIMWV,278.39,R,5.6,N,A*17
20220704 020417+00:00 $IIMDA,29.9,I,1.011,B,13.6,C,,C,92.1,,,C,,T,,M,,N,,M*27
20220704 020417+00:00 $HCHDT,149.3,T*26
20220704 020417+00:00 $GPRMC,020412,A,4938.8896,N,12605.6298,W,0.1,143,040722,12.2,E,A,V*51
20220704 020417+00:00 $WIMWV,278.69,R,5.29,N,A*2F
20220704 020419+00:00 $IIMDA,29.9,I,1.011,B,13.6,C,,C,92.1,,,C,,T,,M,,N,,M*27
20220704 020419+00:00 $HCHDT,149.3,T*26
20220704 020419+00:00 $GPRMC,020414,A,4938.8896,N,12605.6298,W,0.1,144,040722,12.2,E,A,V*50
20220704 020419+00:00 $WIMWV,278.39,R,5.29,N,A*2A
20220704 020421+00:00 $IIMDA,29.9,I,1.011,B,13.6,C,,C,92.1,,,C,,T,,M,,N,,M*27
20220704 020421+00:00 $HCHDT,149.3,T*26
20220704 020421+00:00 $GPRMC,020416,A,4938.8896,N,12605.6298,W,0.1,142,040722,12.2,E,A,V*54
20220704 020421+00:00 $WIMWV,279.7,R,5.7,N,A*2A
20220704 020423+00:00 $IIMDA,29.9,I,1.011,B,13.6,C,,C,92.1,,,C,,T,,M,,N,,M*27
20220704 020423+00:00 $HCHDT,149.4,T*21
20220704 020423+00:00 $GPRMC,020418,A,4938.8896,N,12605.6298,W,0.1,140,040722,12.2,E,A,V*58
20220704 020423+00:00 $WIMWV,279.7,R,5.99,N,A*1D
20220704 020425+00:00 $IIMDA,29.9,I,1.011,B,13.6,C,,C,92,,,C,,T,,M,,N,,M*38
20220704 020425+00:00 $HCHDT,149.3,T*26
20220704 020425+00:00 $GPRMC,020420,A,4938.8896,N,12605.6298,W,0.1,138,040722,12.2,E,A,V*5C
20220704 020425+00:00 $WIMWV,278.89,R,5.99,N,A*2A
20220704 020427+00:00 $IIMDA,29.9,I,1.011,B,13.6,C,,C,92,,,C,,T,,M,,N,,M*38
20220704 020427+00:00 $HCHDT,149.3,T*26
20220704 020427+00:00 $GPRMC,020422,A,4938.8896,N,12605.6298,W,0.1,136,040722,12.2,E,A,V*50
20220704 020427+00:00 $WIMWV,279.49,R,6.08,N,A*2C
20220704 020429+00:00 $IIMDA,29.9,I,1.011,B,13.6,C,,C,92,,,C,,T,,M,,N,,M*38
20220704 020429+00:00 $HCHDT,149.3,T*26
20220704 020429+00:00 $GPRMC,020424,A,4938.8896,N,12605.6298,W,0.1,132,040722,12.2,E,A,V*52
20220704 020429+00:00 $WIMWV,278.89,R,6.18,N,A*20
20220704 020431+00:00 $IIMDA,29.9,I,1.011,B,13.6,C,,C,92.1,,,C,,T,,M,,N,,M*27
20220704 020431+00:00 $HCHDT,149.2,T*27
20220704 020431+00:00 $GPRMC,020426,A,4938.8896,N,12605.6298,W,0.1,128,040722,12.2,E,A,V*5B
20220704 020431+00:00 $WIMWV,280.8,R,6.08,N,A*1F
20220704 020433+00:00 $IIMDA,29.9,I,1.011,B,13.6,C,,C,92.1,,,C,,T,,M,,N,,M*27
20220704 020433+00:00 $HCHDT,149.1,T*24
20220704 020433+00:00 $GPRMC,020428,A,4938.8896,N,12605.6298,W,0.1,125,040722,12.2,E,A,V*58
20220704 020433+00:00 $WIMWV,280.49,R,6.3,N,A*11
20220704 020435+00:00 $IIMDA,29.9,I,1.011,B,13.6,C,,C,92,,,C,,T,,M,,N,,M*38
20220704 020435+00:00 $HCHDT,149,T*3B
20220704 020435+00:00 $GPRMC,020430,A,4938.8896,N,12605.6298,W,0.1,121,040722,12.2,E,A,V*55
20220704 020435+00:00 $WIMWV,279.19,R,6.59,N,A*2D
20220704 020437+00:00 $IIMDA,29.9,I,1.011,B,13.6,C,,C,92.1,,,C,,T,,M,,N,,M*27
20220704 020437+00:00 $HCHDT,148.9,T*2D
20220704 020437+00:00 $GPRMC,020432,A,4938.8896,N,12605.6298,W,0.1,117,040722,12.2,E,A,V*52
20220704 020437+00:00 $WIMWV,279.49,R,6.49,N,A*29
20220704 020439+00:00 $IIMDA,29.9,I,1.011,B,13.6,C,,C,92.1,,,C,,T,,M,,N,,M*27
20220704 020439+00:00 $HCHDT,148.7,T*23
20220704 020439+00:00 $GPRMC,020434,A,4938.8896,N,12605.6298,W,0.1,113,040722,12.2,E,A,V*50
20220704 020439+00:00 $WIMWV,277.59,R,6.18,N,A*22
20220704 020441+00:00 $IIMDA,29.9,I,1.011,B,13.6,C,,C,92.1,,,C,,T,,M,,N,,M*27
20220704 020441+00:00 $HCHDT,148.5,T*21
20220704 020441+00:00 $GPRMC,020436,A,4938.8896,N,12605.6298,W,0.1,109,040722,12.2,E,A,V*59
20220704 020441+00:00 $WIMWV,276.89,R,6.18,N,A*2E
20220704 020443+00:00 $IIMDA,29.9,I,1.011,B,13.6,C,,C,92.1,,,C,,T,,M,,N,,M*27
20220704 020443+00:00 $HCHDT,148.3,T*27
20220704 020443+00:00 $GPRMC,020438,A,4938.8896,N,12605.6298,W,0.1,106,040722,12.2,E,A,V*58
20220704 020443+00:00 $WIMWV,272.99,R,5.89,N,A*20
20220704 020445+00:00 $IIMDA,29.9,I,1.011,B,13.6,C,,C,92.1,,,C,,T,,M,,N,,M*27
20220704 020445+00:00 $HCHDT,148,T*3A
20220704 020445+00:00 $GPRMC,020440,A,4938.8896,N,12605.6298,W,0.1,105,040722,12.2,E,A,V*54
20220704 020445+00:00 $WIMWV,269.99,R,5.7,N,A*1C
20220704 020447+00:00 $IIMDA,29.9,I,1.011,B,13.6,C,,C,92.1,,,C,,T,,M,,N,,M*27
20220704 020447+00:00 $HCHDT,147.9,T*22
20220704 020447+00:00 $GPRMC,020442,A,4938.8896,N,12605.6298,W,0.1,104,040722,12.2,E,A,V*57
20220704 020447+00:00 $WIMWV,267.49,R,5.6,N,A*1E
20220704 020449+00:00 $IIMDA,29.9,I,1.011,B,13.6,C,,C,92.2,,,C,,T,,M,,N,,M*24
20220704 020449+00:00 $HCHDT,147.7,T*2C
20220704 020449+00:00 $GPRMC,020444,A,4938.8896,N,12605.6298,W,0.1,105,040722,12.2,E,A,V*50
20220704 020449+00:00 $WIMWV,271.79,R,6.49,N,A*22
20220704 020451+00:00 $IIMDA,29.9,I,1.011,B,13.6,C,,C,92.2,,,C,,T,,M,,N,,M*24
20220704 020451+00:00 $HCHDT,147.4,T*2F
20220704 020451+00:00 $GPRMC,020446,A,4938.8896,N,12605.6298,W,0.1,108,040722,12.2,E,A,V*5F
20220704 020451+00:00 $WIMWV,266.29,R,5.19,N,A*27
20220704 020453+00:00 $IIMDA,29.9,I,1.011,B,13.6,C,,C,92.2,,,C,,T,,M,,N,,M*24
20220704 020453+00:00 $HCHDT,147.3,T*28
20220704 020453+00:00 $GPRMC,020448,A,4938.8896,N,12605.6298,W,0.1,110,040722,12.2,E,A,V*58
20220704 020453+00:00 $WIMWV,273.09,R,5.89,N,A*28
20220704 020455+00:00 $IIMDA,29.9,I,1.011,B,13.6,C,,C,92.3,,,C,,T,,M,,N,,M*25
20220704 020455+00:00 $HCHDT,147.3,T*28
20220704 020455+00:00 $GPRMC,020450,A,4938.8896,N,12605.6298,W,0.1,112,040722,12.2,E,A,V*53
20220704 020455+00:00 $WIMWV,279.19,R,5.48,N,A*2E
20220704 020457+00:00 $IIMDA,29.9,I,1.011,B,13.6,C,,C,92.3,,,C,,T,,M,,N,,M*25
20220704 020457+00:00 $HCHDT,147.2,T*29
20220704 020457+00:00 $GPRMC,020452,A,4938.8896,N,12605.6298,W,0.1,117,040722,12.2,E,A,V*54
20220704 020457+00:00 $WIMWV,271.99,R,4.9,N,A*1A
20220704 020459+00:00 $IIMDA,29.9,I,1.011,B,13.6,C,,C,92.3,,,C,,T,,M,,N,,M*25
20220704 020459+00:00 $HCHDT,147.1,T*2A
20220704 020459+00:00 $GPRMC,020454,A,4938.8896,N,12605.6298,W,0.1,123,040722,12.2,E,A,V*55
20220704 020459+00:00 $WIMWV,272.89,R,5.38,N,A*2B
20220704 020501+00:00 $IIMDA,29.9,I,1.011,B,13.6,C,,C,92.3,,,C,,T,,M,,N,,M*25
20220704 020501+00:00 $HCHDT,147,T*35
20220704 020501+00:00 $GPRMC,020456,A,4938.8896,N,12605.6298,W,0.1,130,040722,12.2,E,A,V*55
20220704 020501+00:00 $WIMWV,267.49,R,4.9,N,A*10
20220704 020503+00:00 $IIMDA,29.9,I,1.011,B,13.6,C,,C,92.4,,,C,,T,,M,,N,,M*22
20220704 020503+00:00 $HCHDT,147.1,T*2A
20220704 020503+00:00 $GPRMC,020458,A,4938.8896,N,12605.6298,W,0.1,135,040722,12.2,E,A,V*5E
20220704 020503+00:00 $WIMWV,263.19,R,4.59,N,A*24
20220704 020505+00:00 $IIMDA,29.9,I,1.011,B,13.6,C,,C,92.4,,,C,,T,,M,,N,,M*22
20220704 020505+00:00 $HCHDT,147,T*35
20220704 020505+00:00 $GPRMC,020500,A,4938.8896,N,12605.6298,W,0.1,142,040722,12.2,E,A,V*52
20220704 020505+00:00 $WIMWV,263.99,R,4.68,N,A*2E
20220704 020507+00:00 $IIMDA,29.9,I,1.011,B,13.6,C,,C,92.4,,,C,,T,,M,,N,,M*22
20220704 020507+00:00 $HCHDT,147,T*35
20220704 020507+00:00 $GPRMC,020502,A,4938.8896,N,12605.6298,W,0.1,150,040722,12.2,E,A,V*53
20220704 020507+00:00 $WIMWV,248.09,R,4.49,N,A*2D
20220704 020509+00:00 $IIMDA,29.9,I,1.011,B,13.6,C,,C,92.4,,,C,,T,,M,,N,,M*22
20220704 020509+00:00 $HCHDT,147.1,T*2A
20220704 020509+00:00 $GPRMC,020504,A,4938.8896,N,12605.6298,W,0.1,156,040722,12.2,E,A,V*53
20220704 020509+00:00 $WIMWV,252.49,R,4.2,N,A*1D
20220704 020511+00:00 $IIMDA,29.9,I,1.011,B,13.6,C,,C,92.5,,,C,,T,,M,,N,,M*23
20220704 020511+00:00 $HCHDT,147.1,T*2A
20220704 020511+00:00 $GPRMC,020506,A,4938.8896,N,12605.6298,W,0.1,161,040722,12.2,E,A,V*55
20220704 020511+00:00 $WIMWV,272.2,R,5.6,N,A*25
20220704 020513+00:00 $IIMDA,29.9,I,1.011,B,13.6,C,,C,92.5,,,C,,T,,M,,N,,M*23
20220704 020513+00:00 $HCHDT,147.2,T*29
20220704 020513+00:00 $GPRMC,020508,A,4938.8896,N,12605.6298,W,0.1,164,040722,12.2,E,A,V*5E
20220704 020513+00:00 $WIMWV,268.49,R,5.48,N,A*2B
20220704 020515+00:00 $IIMDA,29.9,I,1.011,B,13.6,C,,C,92.5,,,C,,T,,M,,N,,M*23
20220704 020515+00:00 $HCHDT,147.2,T*29
20220704 020515+00:00 $GPRMC,020510,A,4938.8896,N,12605.6298,W,0.1,166,040722,12.2,E,A,V*55
20220704 020515+00:00 $WIMWV,278.49,R,5.6,N,A*10
20220704 020517+00:00 $IIMDA,29.9,I,1.011,B,13.6,C,,C,92.5,,,C,,T,,M,,N,,M*23
20220704 020517+00:00 $HCHDT,147.2,T*29
20220704 020517+00:00 $GPRMC,020512,A,4938.8896,N,12605.6298,W,0.1,167,040722,12.2,E,A,V*56
20220704 020517+00:00 $WIMWV,278.69,R,5.48,N,A*28
20220704 020519+00:00 $IIMDA,29.9,I,1.011,B,13.6,C,,C,92.5,,,C,,T,,M,,N,,M*23
20220704 020519+00:00 $HCHDT,147.2,T*29
20220704 020519+00:00 $GPRMC,020514,A,4938.8896,N,12605.6298,W,0.1,167,040722,12.2,E,A,V*50
20220704 020519+00:00 $WIMWV,280.49,R,5.7,N,A*16
20220704 020521+00:00 $IIMDA,29.9,I,1.011,B,13.6,C,,C,92.6,,,C,,T,,M,,N,,M*20
20220704 020521+00:00 $HCHDT,147.3,T*28
20220704 020521+00:00 $GPRMC,020516,A,4938.8896,N,12605.6298,W,0.1,166,040722,12.2,E,A,V*53
20220704 020521+00:00 $WIMWV,275.79,R,5.89,N,A*29
20220704 020523+00:00 $IIMDA,29.9,I,1.011,B,13.6,C,,C,92.6,,,C,,T,,M,,N,,M*20
20220704 020523+00:00 $HCHDT,147.3,T*28
20220704 020523+00:00 $GPRMC,020518,A,4938.8896,N,12605.6298,W,0.1,166,040722,12.2,E,A,V*5D
20220704 020523+00:00 $WIMWV,266.39,R,5.6,N,A*18
20220704 020525+00:00 $IIMDA,29.9,I,1.011,B,13.6,C,,C,92.6,,,C,,T,,M,,N,,M*20
20220704 020525+00:00 $HCHDT,147.3,T*28
20220704 020525+00:00 $GPRMC,020520,A,4938.8896,N,12605.6298,W,0.1,165,040722,12.2,E,A,V*55
20220704 020525+00:00 $WIMWV,252.1,R,5.29,N,A*19
20220704 020527+00:00 $IIMDA,29.9,I,1.011,B,13.6,C,,C,92.6,,,C,,T,,M,,N,,M*20
20220704 020527+00:00 $HCHDT,147.3,T*28
20220704 020527+00:00 $GPRMC,020522,A,4938.8896,N,12605.6298,W,0.1,163,040722,12.2,E,A,V*51
20220704 020527+00:00 $WIMWV,244.89,R,6.18,N,A*2F
20220704 020529+00:00 $IIMDA,29.9,I,1.011,B,13.6,C,,C,92.6,,,C,,T,,M,,N,,M*20
20220704 020529+00:00 $HCHDT,147.4,T*2F
20220704 020529+00:00 $GPRMC,020524,A,4938.8896,N,12605.6298,W,0.1,161,040722,12.2,E,A,V*55
20220704 020529+00:00 $WIMWV,250.49,R,5.29,N,A*27
20220704 020531+00:00 $IIMDA,29.9,I,1.011,B,13.6,C,,C,92.6,,,C,,T,,M,,N,,M*20
20220704 020531+00:00 $HCHDT,147.4,T*2F
20220704 020531+00:00 $GPRMC,020526,A,4938.8896,N,12605.6298,W,0.1,159,040722,12.2,E,A,V*5C
20220704 020531+00:00 $WIMWV,242.09,R,5.99,N,A*2B
20220704 020533+00:00 $IIMDA,29.9,I,1.011,B,13.6,C,,C,92.7,,,C,,T,,M,,N,,M*21
20220704 020533+00:00 $HCHDT,147.5,T*2E
20220704 020533+00:00 $GPRMC,020528,A,4938.8896,N,12605.6298,W,0.1,158,040722,12.2,E,A,V*53
20220704 020533+00:00 $WIMWV,248.99,R,5.48,N,A*24
20220704 020535+00:00 $IIMDA,29.9,I,1.011,B,13.6,C,,C,92.7,,,C,,T,,M,,N,,M*21
20220704 020535+00:00 $HCHDT,147.5,T*2E
20220704 020535+00:00 $GPRMC,020530,A,4938.8896,N,12605.6298,W,0.1,156,040722,12.2,E,A,V*54
20220704 020535+00:00 $WIMWV,272.79,R,6.49,N,A*21
20220704 020537+00:00 $IIMDA,29.9,I,1.011,B,13.6,C,,C,92.7,,,C,,T,,M,,N,,M*21
20220704 020537+00:00 $HCHDT,147.5,T*2E
20220704 020537+00:00 $GPRMC,020532,A,4938.8896,N,12605.6298,W,0.1,153,040722,12.2,E,A,V*53
20220704 020537+00:00 $WIMWV,274.4,R,6.18,N,A*19
20220704 020539+00:00 $IIMDA,29.9,I,1.011,B,13.6,C,,C,92.7,,,C,,T,,M,,N,,M*21
20220704 020539+00:00 $HCHDT,147.6,T*2D
20220704 020539+00:00 $GPRMC,020534,A,4938.8896,N,12605.6298,W,0.1,150,040722,12.2,E,A,V*56
20220704 020539+00:00 $WIMWV,255.29,R,3.98,N,A*28
20220704 020541+00:00 $IIMDA,29.9,I,1.011,B,13.6,C,,C,92.7,,,C,,T,,M,,N,,M*21
20220704 020541+00:00 $HCHDT,147.6,T*2D
20220704 020541+00:00 $GPRMC,020536,A,4938.8896,N,12605.6298,W,0.1,148,040722,12.2,E,A,V*5D
20220704 020541+00:00 $WIMWV,237.19,R,6.3,N,A*18
20220704 020543+00:00 $IIMDA,29.9,I,1.011,B,13.6,C,,C,92.7,,,C,,T,,M,,N,,M*21
20220704 020543+00:00 $HCHDT,147.7,T*2C
20220704 020543+00:00 $GPRMC,020538,A,4938.8896,N,12605.6298,W,0.1,145,040722,12.2,E,A,V*5E
20220704 020543+00:00 $WIMWV,234.39,R,7.58,N,A*26
20220704 020545+00:00 $IIMDA,29.9,I,1.011,B,13.6,C,,C,92.8,,,C,,T,,M,,N,,M*2E
20220704 020545+00:00 $HCHDT,147.7,T*2C
20220704 020545+00:00 $GPRMC,020540,A,4938.8896,N,12605.6298,W,0.1,142,040722,12.2,E,A,V*56
20220704 020545+00:00 $WIMWV,245.5,R,5.7,N,A*27
20220704 020547+00:00 $IIMDA,29.9,I,1.011,B,13.6,C,,C,92.8,,,C,,T,,M,,N,,M*2E
20220704 020547+00:00 $HCHDT,147.7,T*2C
20220704 020547+00:00 $GPRMC,020542,A,4938.8896,N,12605.6298,W,0.1,140,040722,12.2,E,A,V*56
20220704 020547+00:00 $WIMWV,268.39,R,5.7,N,A*17
20220704 020549+00:00 $IIMDA,29.9,I,1.011,B,13.6,C,,C,92.8,,,C,,T,,M,,N,,M*2E
20220704 020549+00:00 $HCHDT,147.7,T*2C
20220704 020549+00:00 $GPRMC,020544,A,4938.8896,N,12605.6298,W,0.1,141,040722,12.2,E,A,V*51
20220704 020549+00:00 $WIMWV,247.39,R,4.68,N,A*22
20220704 020551+00:00 $IIMDA,29.9,I,1.011,B,13.6,C,,C,92.8,,,C,,T,,M,,N,,M*2E
20220704 020551+00:00 $HCHDT,147.8,T*23
20220704 020551+00:00 $GPRMC,020546,A,4938.8896,N,12605.6298,W,0.1,143,040722,12.2,E,A,V*51
20220704 020551+00:00 $WIMWV,257.29,R,4.78,N,A*23
20220704 020553+00:00 $IIMDA,29.9,I,1.011,B,13.6,C,,C,92.8,,,C,,T,,M,,N,,M*2E
20220704 020553+00:00 $HCHDT,147.7,T*2C
20220704 020553+00:00 $GPRMC,020548,A,4938.8896,N,12605.6298,W,0,141,040722,12.2,E,A,V*42
20220704 020553+00:00 $WIMWV,239.19,R,6.4,N,A*11
20220704 020555+00:00 $IIMDA,29.9,I,1.011,B,13.6,C,,C,92.8,,,C,,T,,M,,N,,M*2E
20220704 020555+00:00 $HCHDT,147.8,T*23
20220704 020555+00:00 $GPRMC,020550,A,4938.8896,N,12605.6298,W,0,139,040722,12.2,E,A,V*44
20220704 020555+00:00 $WIMWV,274.69,R,6.3,N,A*18
20220704 020557+00:00 $IIMDA,29.9,I,1.011,B,13.6,C,,C,92.8,,,C,,T,,M,,N,,M*2E
20220704 020557+00:00 $HCHDT,147.8,T*23
20220704 020557+00:00 $GPRMC,020552,A,4938.8896,N,12605.6298,W,0,139,040722,12.2,E,A,V*46
20220704 020557+00:00 $WIMWV,239.89,R,5.6,N,A*19
20220704 020559+00:00 $IIMDA,29.9,I,1.011,B,13.6,C,,C,92.8,,,C,,T,,M,,N,,M*2E
20220704 020559+00:00 $HCHDT,147.8,T*23
20220704 020559+00:00 $GPRMC,020554,A,4938.8896,N,12605.6298,W,0,139,040722,12.2,E,A,V*40
20220704 020559+00:00 $WIMWV,254.49,R,5.29,N,A*23
20220704 020601+00:00 $IIMDA,29.9,I,1.011,B,13.6,C,,C,92.8,,,C,,T,,M,,N,,M*2E
20220704 020601+00:00 $HCHDT,147.7,T*2C
20220704 020601+00:00 $GPRMC,020556,A,4938.8896,N,12605.6298,W,0,136,040722,12.2,E,A,V*4D
20220704 020601+00:00 $WIMWV,236.19,R,5.99,N,A*29
20220704 020603+00:00 $IIMDA,29.9,I,1.011,B,13.6,C,,C,92.8,,,C,,T,,M,,N,,M*2E
20220704 020603+00:00 $HCHDT,147.7,T*2C
20220704 020603+00:00 $GPRMC,020558,A,4938.8896,N,12605.6298,W,0,130,040722,12.2,E,A,V*45
20220704 020603+00:00 $WIMWV,237.29,R,6.3,N,A*1B
20220704 020605+00:00 $IIMDA,29.9,I,1.011,B,13.6,C,,C,92.8,,,C,,T,,M,,N,,M*2E
20220704 020605+00:00 $HCHDT,147.7,T*2C
20220704 020605+00:00 $GPRMC,020600,A,4938.8896,N,12605.6298,W,0,124,040722,12.2,E,A,V*4E
20220704 020605+00:00 $WIMWV,236.49,R,6.08,N,A*27
20220704 020607+00:00 $IIMDA,29.9,I,1.011,B,13.6,C,,C,92.9,,,C,,T,,M,,N,,M*2F
20220704 020607+00:00 $HCHDT,147.6,T*2D
20220704 020607+00:00 $GPRMC,020602,A,4938.8896,N,12605.6298,W,0,125,040722,12.2,E,A,V*4D
20220704 020607+00:00 $WIMWV,214.09,R,5.48,N,A*24
20220704 020609+00:00 $IIMDA,29.9,I,1.011,B,13.6,C,,C,92.9,,,C,,T,,M,,N,,M*2F
20220704 020609+00:00 $HCHDT,147.7,T*2C
20220704 020609+00:00 $GPRMC,020604,A,4938.8896,N,12605.6298,W,0,137,040722,12.2,E,A,V*48
20220704 020609+00:00 $WIMWV,234.49,R,5.79,N,A*20
20220704 020611+00:00 $IIMDA,29.9,I,1.011,B,13.6,C,,C,92.9,,,C,,T,,M,,N,,M*2F
20220704 020611+00:00 $HCHDT,147.6,T*2D
20220704 020611+00:00 $GPRMC,020606,A,4938.8896,N,12605.6298,W,0,165,040722,12.2,E,A,V*4D
20220704 020611+00:00 $WIMWV,233.89,R,6.18,N,A*2F
20220704 020613+00:00 $IIMDA,29.9,I,1.011,B,13.6,C,,C,92.8,,,C,,T,,M,,N,,M*2E
20220704 020613+00:00 $HCHDT,147.7,T*2C
20220704 020613+00:00 $GPRMC,020608,A,4938.8896,N,12605.6298,W,0,202,040722,12.2,E,A,V*41
20220704 020613+00:00 $WIMWV,223.49,R,4.68,N,A*27
20220704 020615+00:00 $IIMDA,29.9,I,1.011,B,13.6,C,,C,92.9,,,C,,T,,M,,N,,M*2F
20220704 020615+00:00 $HCHDT,147.8,T*23
20220704 020615+00:00 $GPRMC,020610,A,4938.8896,N,12605.6298,W,0,228,040722,12.2,E,A,V*40
20220704 020615+00:00 $WIMWV,233.89,R,6.78,N,A*29
20220704 020617+00:00 $IIMDA,29.9,I,1.011,B,13.6,C,,C,92.8,,,C,,T,,M,,N,,M*2E
20220704 020617+00:00 $HCHDT,147.9,T*22
20220704 020617+00:00 $GPRMC,020612,A,4938.8896,N,12605.6298,W,0,242,040722,12.2,E,A,V*4E
20220704 020617+00:00 $WIMWV,241.39,R,5.89,N,A*2A
20220704 020619+00:00 $IIMDA,29.9,I,1.011,B,13.6,C,,C,92.8,,,C,,T,,M,,N,,M*2E
20220704 020619+00:00 $HCHDT,147.9,T*22
20220704 020619+00:00 $GPRMC,020614,A,4938.8896,N,12605.6298,W,0,251,040722,12.2,E,A,V*4A
20220704 020619+00:00 $WIMWV,241.09,R,6.3,N,A*18
20220704 020621+00:00 $IIMDA,29.9,I,1.011,B,13.6,C,,C,92.8,,,C,,T,,M,,N,,M*2E
20220704 020621+00:00 $HCHDT,148.1,T*25
20220704 020621+00:00 $GPRMC,020616,A,4938.8896,N,12605.6298,W,0,256,040722,12.2,E,A,V*4F
20220704 020621+00:00 $WIMWV,234.99,R,7.48,N,A*2D
20220704 020623+00:00 $IIMDA,29.9,I,1.011,B,13.6,C,,C,92.8,,,C,,T,,M,,N,,M*2E
20220704 020623+00:00 $HCHDT,148.1,T*25
20220704 020623+00:00 $GPRMC,020618,A,4938.8896,N,12605.6298,W,0,258,040722,12.2,E,A,V*4F
20220704 020623+00:00 $WIMWV,236.79,R,7.1,N,A*1C
20220704 020625+00:00 $IIMDA,29.9,I,1.011,B,13.6,C,,C,92.8,,,C,,T,,M,,N,,M*2E
20220704 020625+00:00 $HCHDT,148.3,T*27
20220704 020625+00:00 $GPRMC,020620,A,4938.8896,N,12605.6298,W,0,258,040722,12.2,E,A,V*44
20220704 020625+00:00 $WIMWV,238.2,R,6.88,N,A*1E
20220704 020627+00:00 $IIMDA,29.9,I,1.011,B,13.6,C,,C,92.8,,,C,,T,,M,,N,,M*2E
20220704 020627+00:00 $HCHDT,148.3,T*27
20220704 020627+00:00 $GPRMC,020622,A,4938.8896,N,12605.6298,W,0,256,040722,12.2,E,A,V*48
20220704 020627+00:00 $WIMWV,233.49,R,6.88,N,A*2A
20220704 020629+00:00 $IIMDA,29.9,I,1.011,B,13.6,C,,C,92.8,,,C,,T,,M,,N,,M*2E
20220704 020629+00:00 $HCHDT,148.3,T*27
20220704 020629+00:00 $GPRMC,020624,A,4938.8896,N,12605.6298,W,0,253,040722,12.2,E,A,V*4B
20220704 020629+00:00 $WIMWV,238.89,R,6.49,N,A*20
20220704 020631+00:00 $IIMDA,29.9,I,1.011,B,13.6,C,,C,92.8,,,C,,T,,M,,N,,M*2E
20220704 020631+00:00 $HCHDT,148.3,T*27
20220704 020631+00:00 $GPRMC,020626,A,4938.8896,N,12605.6298,W,0,249,040722,12.2,E,A,V*42
20220704 020631+00:00 $WIMWV,238.99,R,6.08,N,A*24
20220704 020633+00:00 $IIMDA,29.9,I,1.011,B,13.6,C,,C,92.8,,,C,,T,,M,,N,,M*2E
20220704 020633+00:00 $HCHDT,148.2,T*26
20220704 020633+00:00 $GPRMC,020628,A,4938.8896,N,12605.6298,W,0,243,040722,12.2,E,A,V*46
20220704 020633+00:00 $WIMWV,234.39,R,6.49,N,A*27
20220704 020635+00:00 $IIMDA,29.9,I,1.011,B,13.6,C,,C,92.8,,,C,,T,,M,,N,,M*2E
20220704 020635+00:00 $HCHDT,148.3,T*27
20220704 020635+00:00 $GPRMC,020630,A,4938.8896,N,12605.6298,W,0,237,040722,12.2,E,A,V*4C
20220704 020635+00:00 $WIMWV,234.09,R,6.49,N,A*24
20220704 020637+00:00 $IIMDA,29.9,I,1.011,B,13.6,C,,C,92.8,,,C,,T,,M,,N,,M*2E
20220704 020637+00:00 $HCHDT,148.2,T*26
20220704 020637+00:00 $GPRMC,020632,A,4938.8896,N,12605.6298,W,0,230,040722,12.2,E,A,V*49
20220704 020637+00:00 $WIMWV,230.29,R,4.68,N,A*23
20220704 020639+00:00 $IIMDA,29.9,I,1.011,B,13.6,C,,C,92.8,,,C,,T,,M,,N,,M*2E
20220704 020639+00:00 $HCHDT,148.2,T*26
20220704 020639+00:00 $GPRMC,020634,A,4938.8896,N,12605.6298,W,0,219,040722,12.2,E,A,V*44
20220704 020639+00:00 $WIMWV,233.19,R,5.89,N,A*2D
20220704 020641+00:00 $IIMDA,29.9,I,1.011,B,13.6,C,,C,92.8,,,C,,T,,M,,N,,M*2E
20220704 020641+00:00 $HCHDT,148.1,T*25
20220704 020641+00:00 $GPRMC,020636,A,4938.8896,N,12605.6298,W,0,204,040722,12.2,E,A,V*4A
20220704 020641+00:00 $WIMWV,234,R,5.79,N,A*03
20220704 020643+00:00 $IIMDA,29.9,I,1.011,B,13.6,C,,C,92.8,,,C,,T,,M,,N,,M*2E
20220704 020643+00:00 $HCHDT,148,T*3A
20220704 020643+00:00 $GPRMC,020638,A,4938.8896,N,12605.6298,W,0,183,040722,12.2,E,A,V*48
20220704 020643+00:00 $WIMWV,236.19,R,6.3,N,A*19
20220704 020645+00:00 $IIMDA,29.9,I,1.011,B,13.6,C,,C,92.8,,,C,,T,,M,,N,,M*2E
20220704 020645+00:00 $HCHDT,148,T*3A
20220704 020645+00:00 $GPRMC,020640,A,4938.8896,N,12605.6298,W,0,154,040722,12.2,E,A,V*4D
20220704 020645+00:00 $WIMWV,236.09,R,6.59,N,A*27
20220704 020647+00:00 $IIMDA,29.9,I,1.011,B,13.6,C,,C,92.8,,,C,,T,,M,,N,,M*2E
20220704 020647+00:00 $HCHDT,147.9,T*22
20220704 020647+00:00 $GPRMC,020642,A,4938.8896,N,12605.6298,W,0,129,040722,12.2,E,A,V*45
20220704 020647+00:00 $WIMWV,234.49,R,6.08,N,A*25
20220704 020649+00:00 $IIMDA,29.9,I,1.011,B,13.6,C,,C,92.8,,,C,,T,,M,,N,,M*2E
20220704 020649+00:00 $HCHDT,147.8,T*23
20220704 020649+00:00 $GPRMC,020644,A,4938.8896,N,12605.6298,W,0,113,040722,12.2,E,A,V*4A
20220704 020649+00:00 $WIMWV,234.09,R,5.6,N,A*1C
20220704 020651+00:00 $IIMDA,29.9,I,1.011,B,13.6,C,,C,92.8,,,C,,T,,M,,N,,M*2E
20220704 020651+00:00 $HCHDT,147.7,T*2C
20220704 020651+00:00 $GPRMC,020646,A,4938.8896,N,12605.6298,W,0,103,040722,12.2,E,A,V*49
20220704 020651+00:00 $WIMWV,233.89,R,4.59,N,A*28
20220704 020653+00:00 $IIMDA,29.9,I,1.011,B,13.6,C,,C,92.8,,,C,,T,,M,,N,,M*2E
20220704 020653+00:00 $HCHDT,147.7,T*2C
20220704 020653+00:00 $GPRMC,020648,A,4938.8896,N,12605.6298,W,0,95,040722,12.2,E,A,V*79
20220704 020653+00:00 $WIMWV,236,R,5.09,N,A*06
20220704 020655+00:00 $IIMDA,29.9,I,1.011,B,13.6,C,,C,92.7,,,C,,T,,M,,N,,M*21
20220704 020655+00:00 $HCHDT,147.6,T*2D
20220704 020655+00:00 $GPRMC,020650,A,4938.8896,N,12605.6298,W,0,91,040722,12.2,E,A,V*74
20220704 020655+00:00 $WIMWV,236.39,R,5.09,N,A*22
20220704 020657+00:00 $IIMDA,29.9,I,1.011,B,13.6,C,,C,92.7,,,C,,T,,M,,N,,M*21
20220704 020657+00:00 $HCHDT,147.6,T*2D
20220704 020657+00:00 $GPRMC,020652,A,4938.8896,N,12605.6298,W,0,91,040722,12.2,E,A,V*76
20220704 020657+00:00 $WIMWV,234.79,R,5.38,N,A*26
20220704 020659+00:00 $IIMDA,29.9,I,1.011,B,13.6,C,,C,92.7,,,C,,T,,M,,N,,M*21
20220704 020659+00:00 $HCHDT,147.5,T*2E
20220704 020659+00:00 $GPRMC,020654,A,4938.8896,N,12605.6298,W,0,91,040722,12.2,E,A,V*70
20220704 020659+00:00 $WIMWV,243.99,R,4.3,N,A*11
20220704 020701+00:00 $IIMDA,29.9,I,1.011,B,13.6,C,,C,92.8,,,C,,T,,M,,N,,M*2E
20220704 020701+00:00 $HCHDT,147.3,T*28
20220704 020701+00:00 $GPRMC,020656,A,4938.8896,N,12605.6298,W,0,91,040722,12.2,E,A,V*72
20220704 020701+00:00 $WIMWV,259.29,R,3.89,N,A*24
20220704 020703+00:00 $IIMDA,29.8,I,1.01,B,13.6,C,,C,92.8,,,C,,T,,M,,N,,M*1E
20220704 020703+00:00 $HCHDT,147.2,T*29
20220704 020703+00:00 $GPRMC,020658,A,4938.8896,N,12605.6298,W,0,91,040722,12.2,E,A,V*7C
20220704 020703+00:00 $WIMWV,264.19,R,4.3,N,A*1C
20220704 020705+00:00 $IIMDA,29.9,I,1.011,B,13.6,C,,C,92.8,,,C,,T,,M,,N,,M*2E
20220704 020705+00:00 $HCHDT,147.1,T*2A
20220704 020705+00:00 $GPRMC,020700,A,4938.8896,N,12605.6298,W,0,94,040722,12.2,E,A,V*75
20220704 020705+00:00 $WIMWV,267.09,R,4.78,N,A*22
20220704 020707+00:00 $IIMDA,29.9,I,1.011,B,13.6,C,,C,92.8,,,C,,T,,M,,N,,M*2E
20220704 020707+00:00 $HCHDT,147.1,T*2A
20220704 020707+00:00 $GPRMC,020702,A,4938.8896,N,12605.6298,W,0,102,040722,12.2,E,A,V*49
20220704 020707+00:00 $WIMWV,243.09,R,5,N,A*04
20220704 020709+00:00 $IIMDA,29.9,I,1.011,B,13.6,C,,C,92.8,,,C,,T,,M,,N,,M*2E
20220704 020709+00:00 $HCHDT,147,T*35
20220704 020709+00:00 $GPRMC,020704,A,4938.8896,N,12605.6298,W,0,118,040722,12.2,E,A,V*44
20220704 020709+00:00 $WIMWV,266.99,R,5.09,N,A*2D
20220704 020711+00:00 $IIMDA,29.8,I,1.01,B,13.6,C,,C,92.9,,,C,,T,,M,,N,,M*1F
20220704 020711+00:00 $HCHDT,147.1,T*2A
20220704 020711+00:00 $GPRMC,020706,A,4938.8896,N,12605.6298,W,0,150,040722,12.2,E,A,V*4A
20220704 020711+00:00 $WIMWV,268.59,R,5.19,N,A*2E
20220704 020713+00:00 $IIMDA,29.9,I,1.011,B,13.6,C,,C,92.8,,,C,,T,,M,,N,,M*2E
20220704 020713+00:00 $HCHDT,147,T*35
20220704 020713+00:00 $GPRMC,020708,A,4938.8896,N,12605.6298,W,0,190,040722,12.2,E,A,V*48
20220704 020713+00:00 $WIMWV,267.29,R,4.68,N,A*21
20220704 020715+00:00 $IIMDA,29.9,I,1.011,B,13.6,C,,C,92.9,,,C,,T,,M,,N,,M*2F
20220704 020715+00:00 $HCHDT,147,T*35
20220704 020715+00:00 $GPRMC,020710,A,4938.8896,N,12605.6298,W,0,209,040722,12.2,E,A,V*42
20220704 020715+00:00 $WIMWV,273.99,R,5.38,N,A*2B
20220704 020717+00:00 $IIMDA,29.9,I,1.011,B,13.6,C,,C,92.9,,,C,,T,,M,,N,,M*2F
20220704 020717+00:00 $HCHDT,147,T*35
20220704 020717+00:00 $GPRMC,020712,A,4938.8896,N,12605.6298,W,0,217,040722,12.2,E,A,V*4F
20220704 020717+00:00 $WIMWV,236.9,R,4.49,N,A*14
20220704 020719+00:00 $IIMDA,29.8,I,1.01,B,13.6,C,,C,92.9,,,C,,T,,M,,N,,M*1F
20220704 020719+00:00 $HCHDT,147,T*35
20220704 020719+00:00 $GPRMC,020714,A,4938.8896,N,12605.6298,W,0,223,040722,12.2,E,A,V*4E
20220704 020719+00:00 $WIMWV,232.39,R,4.78,N,A*21
20220704 020721+00:00 $IIMDA,29.8,I,1.01,B,13.6,C,,C,92.9,,,C,,T,,M,,N,,M*1F
20220704 020721+00:00 $HCHDT,147,T*35
20220704 020721+00:00 $GPRMC,020716,A,4938.8896,N,12605.6298,W,0,227,040722,12.2,E,A,V*48
20220704 020721+00:00 $WIMWV,229.79,R,5.09,N,A*28
20220704 020723+00:00 $IIMDA,29.8,I,1.01,B,13.6,C,,C,92.9,,,C,,T,,M,,N,,M*1F
20220704 020723+00:00 $HCHDT,146.9,T*23
20220704 020723+00:00 $GPRMC,020718,A,4938.8896,N,12605.6298,W,0,229,040722,12.2,E,A,V*48
20220704 020723+00:00 $WIMWV,225.89,R,4.68,N,A*2D
20220704 020725+00:00 $IIMDA,29.9,I,1.011,B,13.6,C,,C,92.9,,,C,,T,,M,,N,,M*2F
20220704 020725+00:00 $HCHDT,146.8,T*22
20220704 020725+00:00 $GPRMC,020720,A,4938.8896,N,12605.6298,W,0,229,040722,12.2,E,A,V*43
20220704 020725+00:00 $WIMWV,233.59,R,5.38,N,A*23
20220704 020727+00:00 $IIMDA,29.9,I,1.011,B,13.6,C,,C,93,,,C,,T,,M,,N,,M*39
20220704 020727+00:00 $HCHDT,146.8,T*22
20220704 020727+00:00 $GPRMC,020722,A,4938.8896,N,12605.6298,W,0,227,040722,12.2,E,A,V*4F
20220704 020727+00:00 $WIMWV,214.8,R,5.7,N,A*2E
20220704 020729+00:00 $IIMDA,29.9,I,1.011,B,13.6,C,,C,92.9,,,C,,T,,M,,N,,M*2F
20220704 020729+00:00 $HCHDT,146.7,T*2D
20220704 020729+00:00 $GPRMC,020724,A,4938.8896,N,12605.6298,W,0,225,040722,12.2,E,A,V*4B
20220704 020729+00:00 $WIMWV,217.39,R,5.7,N,A*1F
20220704 020731+00:00 $IIMDA,29.9,I,1.011,B,13.6,C,,C,92.9,,,C,,T,,M,,N,,M*2F
20220704 020731+00:00 $HCHDT,146.7,T*2D
20220704 020731+00:00 $GPRMC,020726,A,4938.8896,N,12605.6298,W,0,221,040722,12.2,E,A,V*4D
20220704 020731+00:00 $WIMWV,227.49,R,5.38,N,A*27
20220704 020733+00:00 $IIMDA,29.9,I,1.011,B,13.6,C,,C,92.9,,,C,,T,,M,,N,,M*2F
20220704 020733+00:00 $HCHDT,146.7,T*2D
20220704 020733+00:00 $GPRMC,020728,A,4938.8896,N,12605.6298,W,0,213,040722,12.2,E,A,V*42
20220704 020733+00:00 $WIMWV,235.49,R,6.59,N,A*20
20220704 020735+00:00 $IIMDA,29.9,I,1.011,B,13.6,C,,C,92.9,,,C,,T,,M,,N,,M*2F
20220704 020735+00:00 $HCHDT,146.6,T*2C
20220704 020735+00:00 $GPRMC,020730,A,4938.8896,N,12605.6298,W,0,187,040722,12.2,E,A,V*45
20220704 020735+00:00 $WIMWV,241.69,R,5.99,N,A*2E
20220704 020737+00:00 $IIMDA,29.9,I,1.011,B,13.6,C,,C,92.9,,,C,,T,,M,,N,,M*2F
20220704 020737+00:00 $HCHDT,146.4,T*2E
20220704 020737+00:00 $GPRMC,020732,A,4938.8896,N,12605.6298,W,0,156,040722,12.2,E,A,V*4B
20220704 020737+00:00 $WIMWV,242.89,R,5.38,N,A*28
20220704 020739+00:00 $IIMDA,29.8,I,1.01,B,13.6,C,,C,93,,,C,,T,,M,,N,,M*09
20220704 020739+00:00 $HCHDT,146.3,T*29
20220704 020739+00:00 $GPRMC,020734,A,4938.8896,N,12605.6298,W,0,124,040722,12.2,E,A,V*48
20220704 020739+00:00 $WIMWV,245.79,R,5.09,N,A*22
20220704 020741+00:00 $IIMDA,29.9,I,1.011,B,13.6,C,,C,93,,,C,,T,,M,,N,,M*39
20220704 020741+00:00 $HCHDT,146.1,T*2B
20220704 020741+00:00 $GPRMC,020736,A,4938.8896,N,12605.6298,W,0,94,040722,12.2,E,A,V*70
20220704 020741+00:00 $WIMWV,240.69,R,5.89,N,A*2E
20220704 020743+00:00 $IIMDA,29.9,I,1.011,B,13.6,C,,C,93,,,C,,T,,M,,N,,M*39
20220704 020743+00:00 $HCHDT,145.9,T*20
20220704 020743+00:00 $GPRMC,020738,A,4938.8896,N,12605.6298,W,0,71,040722,12.2,E,A,V*75
20220704 020743+00:00 $WIMWV,242.79,R,5.29,N,A*27
20220704 020745+00:00 $IIMDA,29.9,I,1.011,B,13.6,C,,C,93,,,C,,T,,M,,N,,M*39
20220704 020745+00:00 $HCHDT,145.8,T*21
20220704 020745+00:00 $GPRMC,020740,A,4938.8896,N,12605.6298,W,0,57,040722,12.2,E,A,V*7E
