20220704 060001+00:00 $IIMDA,29.9,I,1.011,B,11.5,C,,C,95.2,,,C,,T,,M,,N,,M*22
20220704 060001+00:00 $HCHDT,219.8,T*2B
20220704 060001+00:00 $GPRMC,055956,A,4933.3798,N,12637.8996,W,9,220,040722,12.3,E,A,V*44
20220704 060001+00:00 $WIMWV,41.4,R,18.49,N,A*16
20220704 060003+00:00 $IIMDA,29.9,I,1.011,B,11.5,C,,C,95.1,,,C,,T,,M,,N,,M*21
20220704 060003+00:00 $HCHDT,220.2,T*2B
20220704 060003+00:00 $GPRMC,055958,A,4933.3696,N,12637.8996,W,9,220,040722,12.3,E,A,V*45
20220704 060003+00:00 $WIMWV,29,R,15.88,N,A*02
20220704 060005+00:00 $IIMDA,29.9,I,1.011,B,11.5,C,,C,95.1,,,C,,T,,M,,N,,M*21
20220704 060005+00:00 $HCHDT,220.1,T*28
20220704 060005+00:00 $GPRMC,060000,A,4933.3696,N,12637.9098,W,9,220,040722,12.3,E,A,V*41
20220704 060005+00:00 $WIMWV,17.6,R,14.6,N,A*20
20220704 060007+00:00 $IIMDA,29.9,I,1.011,B,11.5,C,,C,95.1,,,C,,T,,M,,N,,M*21
20220704 060007+00:00 $HCHDT,220.5,T*2C
20220704 060007+00:00 $GPRMC,060002,A,4933.3600,N,12637.9098,W,9,220,040722,12.3,E,A,V*4C
20220704 060007+00:00 $WIMWV,2.1,R,14.19,N,A*2D
20220704 060009+00:00 $IIMDA,29.9,I,1.011,B,11.5,C,,C,95.1,,,C,,T,,M,,N,,M*21
20220704 060009+00:00 $HCHDT,220.7,T*2E
20220704 060009+00:00 $GPRMC,060004,A,4933.3600,N,12637.9200,W,9,220,040722,12.3,E,A,V*49
20220704 060009+00:00 $WIMWV,31.6,R,21.89,N,A*15
20220704 060011+00:00 $IIMDA,29.9,I,1.011,B,11.5,C,,C,95.2,,,C,,T,,M,,N,,M*22
20220704 060011+00:00 $HCHDT,220.5,T*2C
20220704 060011+00:00 $GPRMC,060006,A,4933.3600,N,12637.9200,W,9,220,040722,12.3,E,A,V*4B
20220704 060011+00:00 $WIMWV,20.49,R,19.79,N,A*2A
20220704 060013+00:00 $IIMDA,29.9,I,1.011,B,11.5,C,,C,95.2,,,C,,T,,M,,N,,M*22
20220704 060013+00:00 $HCHDT,220.7,T*2E
20220704 060013+00:00 $GPRMC,060008,A,4933.3498,N,12637.9296,W,9,220,040722,12.3,E,A,V*49
20220704 060013+00:00 $WIMWV,30.8,R,21.89,N,A*1A
20220704 060015+00:00 $IIMDA,29.9,I,1.011,B,11.5,C,,C,95.2,,,C,,T,,M,,N,,M*22
20220704 060015+00:00 $HCHDT,220.8,T*21
20220704 060015+00:00 $GPRMC,060010,A,4933.3498,N,12637.9296,W,9,220,040722,12.3,E,A,V*40
20220704 060015+00:00 $WIMWV,25.7,R,17.79,N,A*1B
20220704 060017+00:00 $IIMDA,29.9,I,1.011,B,11.5,C,,C,95.2,,,C,,T,,M,,N,,M*22
20220704 060017+00:00 $HCHDT,220.9,T*20
20220704 060017+00:00 $GPRMC,060012,A,4933.3396,N,12637.9398,W,9,221,040722,12.3,E,A,V*45
20220704 060017+00:00 $WIMWV,26.89,R,19.79,N,A*20
20220704 060019+00:00 $IIMDA,29.8,I,1.01,B,11.5,C,,C,95.2,,,C,,T,,M,,N,,M*12
20220704 060019+00:00 $HCHDT,220.5,T*2C
20220704 060019+00:00 $GPRMC,060014,A,4933.3396,N,12637.9398,W,9,221,040722,12.3,E,A,V*43
20220704 060019+00:00 $WIMWV,48.9,R,16.99,N,A*11
20220704 060021+00:00 $IIMDA,29.8,I,1.01,B,11.5,C,,C,95.2,,,C,,T,,M,,N,,M*12
20220704 060021+00:00 $HCHDT,220.4,T*2D
20220704 060021+00:00 $GPRMC,060016,A,4933.3396,N,12637.9500,W,9,221,040722,12.3,E,A,V*46
20220704 060021+00:00 $WIMWV,53.19,R,24.28,N,A*21
20220704 060023+00:00 $IIMDA,29.8,I,1.01,B,11.5,C,,C,95.2,,,C,,T,,M,,N,,M*12
20220704 060023+00:00 $HCHDT,220,T*37
20220704 060023+00:00 $GPRMC,060018,A,4933.3300,N,12637.9500,W,9,221,040722,12.3,E,A,V*47
20220704 060023+00:00 $WIMWV,31.9,R,20.49,N,A*17
20220704 060025+00:00 $IIMDA,29.8,I,1.01,B,11.5,C,,C,95.2,,,C,,T,,M,,N,,M*12
20220704 060025+00:00 $HCHDT,219.8,T*2B
20220704 060025+00:00 $GPRMC,060020,A,4933.3300,N,12637.9596,W,9,220,040722,12.3,E,A,V*42
20220704 060025+00:00 $WIMWV,44.09,R,19.69,N,A*2D
20220704 060027+00:00 $IIMDA,29.8,I,1.01,B,11.5,C,,C,95.2,,,C,,T,,M,,N,,M*12
20220704 060027+00:00 $HCHDT,219.7,T*24
20220704 060027+00:00 $GPRMC,060022,A,4933.3300,N,12637.9596,W,9,220,040722,12.3,E,A,V*40
20220704 060027+00:00 $WIMWV,52.8,R,24.59,N,A*16
20220704 060029+00:00 $IIMDA,29.8,I,1.01,B,11.5,C,,C,95.2,,,C,,T,,M,,N,,M*12
20220704 060029+00:00 $HCHDT,219.7,T*24
20220704 060029+00:00 $GPRMC,060024,A,4933.3198,N,12637.9698,W,9,220,040722,12.3,E,A,V*48
20220704 060029+00:00 $WIMWV,55.39,R,27.1,N,A*1D
20220704 060031+00:00 $IIMDA,29.8,I,1.01,B,11.5,C,,C,95.2,,,C,,T,,M,,N,,M*12
20220704 060031+00:00 $HCHDT,219.2,T*21
20220704 060031+00:00 $GPRMC,060026,A,4933.3198,N,12637.9698,W,9,220,040722,12.3,E,A,V*4A
20220704 060031+00:00 $WIMWV,56.4,R,25.79,N,A*1D
20220704 060033+00:00 $IIMDA,29.8,I,1.01,B,11.5,C,,C,95.2,,,C,,T,,M,,N,,M*12
20220704 060033+00:00 $HCHDT,219.3,T*20
20220704 060033+00:00 $GPRMC,060028,A,4933.3096,N,12637.9800,W,9,220,040722,12.3,E,A,V*44
20220704 060033+00:00 $WIMWV,53.3,R,25.19,N,A*19
20220704 060035+00:00 $IIMDA,29.8,I,1.01,B,11.5,C,,C,95.1,,,C,,T,,M,,N,,M*11
20220704 060035+00:00 $HCHDT,219.4,T*27
20220704 060035+00:00 $GPRMC,060030,A,4933.3096,N,12637.9800,W,9,220,040722,12.3,E,A,V*4D
20220704 060035+00:00 $WIMWV,57.4,R,25.89,N,A*13
20220704 060037+00:00 $IIMDA,29.8,I,1.01,B,11.5,C,,C,95.1,,,C,,T,,M,,N,,M*11
20220704 060037+00:00 $HCHDT,219.6,T*25
20220704 060037+00:00 $GPRMC,060032,A,4933.3096,N,12637.9800,W,9,220,040722,12.3,E,A,V*4F
20220704 060037+00:00 $WIMWV,54.29,R,25.29,N,A*25
20220704 060039+00:00 $IIMDA,29.8,I,1.01,B,11.5,C,,C,95.1,,,C,,T,,M,,N,,M*11
20220704 060039+00:00 $HCHDT,219.2,T*21
20220704 060039+00:00 $GPRMC,060034,A,4933.3000,N,12637.9896,W,9,219,040722,12.3,E,A,V*43
20220704 060039+00:00 $WIMWV,56.2,R,26.79,N,A*18
20220704 060041+00:00 $IIMDA,29.8,I,1.01,B,11.5,C,,C,95.1,,,C,,T,,M,,N,,M*11
20220704 060041+00:00 $HCHDT,219.8,T*2B
20220704 060041+00:00 $GPRMC,060036,A,4933.3000,N,12637.9896,W,9,219,040722,12.3,E,A,V*41
20220704 060041+00:00 $WIMWV,56.89,R,22.49,N,A*2C
20220704 060043+00:00 $IIMDA,29.8,I,1.01,B,11.5,C,,C,95.1,,,C,,T,,M,,N,,M*11
20220704 060043+00:00 $HCHDT,219.6,T*25
20220704 060043+00:00 $GPRMC,060038,A,4933.3000,N,12637.9998,W,9,220,040722,12.3,E,A,V*4A
20220704 060043+00:00 $WIMWV,53,R,25.1,N,A*3D
20220704 060045+00:00 $IIMDA,29.8,I,1.01,B,11.5,C,,C,95.1,,,C,,T,,M,,N,,M*11
20220704 060045+00:00 $HCHDT,219.7,T*24
20220704 060045+00:00 $GPRMC,060040,A,4933.2898,N,12637.9998,W,9,220,040722,12.3,E,A,V*4D
20220704 060045+00:00 $WIMWV,57.99,R,20.9,N,A*1A
20220704 060047+00:00 $IIMDA,29.8,I,1.01,B,11.5,C,,C,95,,,C,,T,,M,,N,,M*0E
20220704 060047+00:00 $HCHDT,219.6,T*25
20220704 060047+00:00 $GPRMC,060042,A,4933.2898,N,12638.0100,W,9,220,040722,12.3,E,A,V*40
20220704 060047+00:00 $WIMWV,56.6,R,21.98,N,A*14
20220704 060049+00:00 $IIMDA,29.8,I,1.01,B,11.5,C,,C,95,,,C,,T,,M,,N,,M*0E
20220704 060049+00:00 $HCHDT,220.3,T*2A
20220704 060049+00:00 $GPRMC,060044,A,4933.2796,N,12638.0100,W,9,220,040722,12.3,E,A,V*47
20220704 060049+00:00 $WIMWV,54.2,R,23.79,N,A*1F
20220704 060051+00:00 $IIMDA,29.8,I,1.01,B,11.5,C,,C,95,,,C,,T,,M,,N,,M*0E
20220704 060051+00:00 $HCHDT,220.7,T*2E
20220704 060051+00:00 $GPRMC,060046,A,4933.2796,N,12638.0196,W,9,220,040722,12.3,E,A,V*4A
20220704 060051+00:00 $WIMWV,53.3,R,22.39,N,A*1C
20220704 060053+00:00 $IIMDA,29.8,I,1.01,B,11.5,C,,C,95,,,C,,T,,M,,N,,M*0E
20220704 060053+00:00 $HCHDT,220.8,T*21
20220704 060053+00:00 $GPRMC,060048,A,4933.2796,N,12638.0196,W,9,220,040722,12.3,E,A,V*44
20220704 060053+00:00 $WIMWV,19.9,R,18.39,N,A*11
20220704 060055+00:00 $IIMDA,29.9,I,1.011,B,11.5,C,,C,95,,,C,,T,,M,,N,,M*3E
20220704 060055+00:00 $HCHDT,220.9,T*20
20220704 060055+00:00 $GPRMC,060050,A,4933.2700,N,12638.0298,W,9,220,040722,12.3,E,A,V*4F
20220704 060055+00:00 $WIMWV,27.2,R,16,N,A*3D
20220704 060057+00:00 $IIMDA,29.9,I,1.011,B,11.5,C,,C,95,,,C,,T,,M,,N,,M*3E
20220704 060057+00:00 $HCHDT,220.7,T*2E
20220704 060057+00:00 $GPRMC,060052,A,4933.2700,N,12638.0298,W,9,221,040722,12.3,E,A,V*4C
20220704 060057+00:00 $WIMWV,56.89,R,18.1,N,A*19
20220704 060059+00:00 $IIMDA,29.9,I,1.011,B,11.5,C,,C,95,,,C,,T,,M,,N,,M*3E
20220704 060059+00:00 $HCHDT,220.9,T*20
20220704 060059+00:00 $GPRMC,060054,A,4933.2598,N,12638.0400,W,9,221,040722,12.3,E,A,V*4E
20220704 060059+00:00 $WIMWV,33.29,R,12.29,N,A*20
20220704 060101+00:00 $IIMDA,29.9,I,1.011,B,11.5,C,,C,95,,,C,,T,,M,,N,,M*3E
20220704 060101+00:00 $HCHDT,220.8,T*21
20220704 060101+00:00 $GPRMC,060056,A,4933.2598,N,12638.0400,W,9,221,040722,12.3,E,A,V*4C
20220704 060101+00:00 $WIMWV,35.1,R,16.89,N,A*12
20220704 060103+00:00 $IIMDA,29.9,I,1.011,B,11.5,C,,C,95,,,C,,T,,M,,N,,M*3E
20220704 060103+00:00 $HCHDT,220.6,T*2F
20220704 060103+00:00 $GPRMC,060058,A,4933.2598,N,12638.0496,W,9,221,040722,12.3,E,A,V*4D
20220704 060103+00:00 $WIMWV,53.19,R,18.29,N,A*2F
20220704 060105+00:00 $IIMDA,29.9,I,1.011,B,11.5,C,,C,95,,,C,,T,,M,,N,,M*3E
20220704 060105+00:00 $HCHDT,220.2,T*2B
20220704 060105+00:00 $GPRMC,060100,A,4933.2496,N,12638.0496,W,9,221,040722,12.3,E,A,V*4E
20220704 060105+00:00 $WIMWV,32.7,R,16.7,N,A*25
20220704 060107+00:00 $IIMDA,29.9,I,1.011,B,11.5,C,,C,95,,,C,,T,,M,,N,,M*3E
20220704 060107+00:00 $HCHDT,220.2,T*2B
20220704 060107+00:00 $GPRMC,060102,A,4933.2496,N,12638.0598,W,9,221,040722,12.3,E,A,V*43
20220704 060107+00:00 $WIMWV,32.8,R,16.29,N,A*16
20220704 060109+00:00 $IIMDA,29.9,I,1.011,B,11.5,C,,C,95,,,C,,T,,M,,N,,M*3E
20220704 060109+00:00 $HCHDT,219.9,T*2A
20220704 060109+00:00 $GPRMC,060104,A,4933.2496,N,12638.0598,W,9,221,040722,12.3,E,A,V*45
20220704 060109+00:00 $WIMWV,30.5,R,14.79,N,A*1E
20220704 060111+00:00 $IIMDA,29.9,I,1.011,B,11.5,C,,C,95,,,C,,T,,M,,N,,M*3E
20220704 060111+00:00 $HCHDT,219.9,T*2A
20220704 060111+00:00 $GPRMC,060106,A,4933.2400,N,12638.0700,W,9,221,040722,12.3,E,A,V*4B
20220704 060111+00:00 $WIMWV,54.6,R,17.88,N,A*12
20220704 060113+00:00 $IIMDA,29.9,I,1.011,B,11.5,C,,C,95,,,C,,T,,M,,N,,M*3E
20220704 060113+00:00 $HCHDT,219.9,T*2A
20220704 060113+00:00 $GPRMC,060108,A,4933.2400,N,12638.0700,W,9,220,040722,12.3,E,A,V*44
20220704 060113+00:00 $WIMWV,40.59,R,16.7,N,A*1B
20220704 060115+00:00 $IIMDA,29.9,I,1.011,B,11.5,C,,C,95,,,C,,T,,M,,N,,M*3E
20220704 060115+00:00 $HCHDT,219.9,T*2A
20220704 060115+00:00 $GPRMC,060110,A,4933.2298,N,12638.0796,W,9,220,040722,12.3,E,A,V*45
20220704 060115+00:00 $WIMWV,53,R,20.29,N,A*02
20220704 060117+00:00 $IIMDA,29.9,I,1.011,B,11.5,C,,C,95,,,C,,T,,M,,N,,M*3E
20220704 060117+00:00 $HCHDT,219.5,T*26
20220704 060117+00:00 $GPRMC,060112,A,4933.2298,N,12638.0796,W,9,220,040722,12.3,E,A,V*47
20220704 060117+00:00 $WIMWV,47.89,R,19.19,N,A*21
20220704 060119+00:00 $IIMDA,29.8,I,1.01,B,11.5,C,,C,95,,,C,,T,,M,,N,,M*0E
20220704 060119+00:00 $HCHDT,219.7,T*24
20220704 060119+00:00 $GPRMC,060114,A,4933.2298,N,12638.0898,W,9,220,040722,12.3,E,A,V*40
20220704 060119+00:00 $WIMWV,54.2,R,25.79,N,A*19
20220704 060121+00:00 $IIMDA,29.8,I,1.01,B,11.5,C,,C,95,,,C,,T,,M,,N,,M*0E
20220704 060121+00:00 $HCHDT,219.4,T*27
20220704 060121+00:00 $GPRMC,060116,A,4933.2196,N,12638.0898,W,9,220,040722,12.3,E,A,V*4F
20220704 060121+00:00 $WIMWV,54.2,R,25.29,N,A*1C
20220704 060123+00:00 $IIMDA,29.8,I,1.01,B,11.5,C,,C,95,,,C,,T,,M,,N,,M*0E
20220704 060123+00:00 $HCHDT,219.7,T*24
20220704 060123+00:00 $GPRMC,060118,A,4933.2196,N,12638.1000,W,9,220,040722,12.3,E,A,V*49
20220704 060123+00:00 $WIMWV,49.3,R,21.98,N,A*1F
20220704 060125+00:00 $IIMDA,29.8,I,1.01,B,11.5,C,,C,95,,,C,,T,,M,,N,,M*0E
20220704 060125+00:00 $HCHDT,219.7,T*24
20220704 060125+00:00 $GPRMC,060120,A,4933.2196,N,12638.1000,W,9,220,040722,12.3,E,A,V*42
20220704 060125+00:00 $WIMWV,47.89,R,19.98,N,A*28
20220704 060127+00:00 $IIMDA,29.8,I,1.01,B,11.5,C,,C,95,,,C,,T,,M,,N,,M*0E
20220704 060127+00:00 $HCHDT,219.8,T*2B
20220704 060127+00:00 $GPRMC,060122,A,4933.2100,N,12638.1096,W,9,220,040722,12.3,E,A,V*40
20220704 060127+00:00 $WIMWV,56.3,R,20.49,N,A*1C
20220704 060129+00:00 $IIMDA,29.8,I,1.01,B,11.5,C,,C,95,,,C,,T,,M,,N,,M*0E
20220704 060129+00:00 $HCHDT,220,T*37
20220704 060129+00:00 $GPRMC,060124,A,4933.2100,N,12638.1096,W,9,220,040722,12.3,E,A,V*46
20220704 060129+00:00 $WIMWV,53,R,22.08,N,A*03
20220704 060131+00:00 $IIMDA,29.8,I,1.01,B,11.5,C,,C,94.9,,,C,,T,,M,,N,,M*18
20220704 060131+00:00 $HCHDT,220.4,T*2D
20220704 060131+00:00 $GPRMC,060126,A,4933.1998,N,12638.1198,W,9,220,040722,12.3,E,A,V*41
20220704 060131+00:00 $WIMWV,53.3,R,20.2,N,A*26
20220704 060133+00:00 $IIMDA,29.8,I,1.01,B,11.5,C,,C,95,,,C,,T,,M,,N,,M*0E
20220704 060133+00:00 $HCHDT,220.6,T*2F
20220704 060133+00:00 $GPRMC,060128,A,4933.1998,N,12638.1198,W,9,220,040722,12.3,E,A,V*4F
20220704 060133+00:00 $WIMWV,54.9,R,21.98,N,A*19
20220704 060135+00:00 $IIMDA,29.8,I,1.01,B,11.5,C,,C,95,,,C,,T,,M,,N,,M*0E
20220704 060135+00:00 $HCHDT,220.5,T*2C
20220704 060135+00:00 $GPRMC,060130,A,4933.1998,N,12638.1300,W,9,220,040722,12.3,E,A,V*45
20220704 060135+00:00 $WIMWV,56.69,R,21.09,N,A*25
20220704 060137+00:00 $IIMDA,29.8,I,1.01,B,11.5,C,,C,95,,,C,,T,,M,,N,,M*0E
20220704 060137+00:00 $HCHDT,220.7,T*2E
20220704 060137+00:00 $GPRMC,060132,A,4933.1896,N,12638.1300,W,9,221,040722,12.3,E,A,V*49
20220704 060137+00:00 $WIMWV,55.1,R,21.29,N,A*1A
20220704 060139+00:00 $IIMDA,29.8,I,1.01,B,11.5,C,,C,94.9,,,C,,T,,M,,N,,M*18
20220704 060139+00:00 $HCHDT,220.3,T*2A
20220704 060139+00:00 $GPRMC,060134,A,4933.1896,N,12638.1396,W,9,221,040722,12.3,E,A,V*40
20220704 060139+00:00 $WIMWV,39.6,R,18.99,N,A*16
20220704 060141+00:00 $IIMDA,29.8,I,1.01,B,11.5,C,,C,94.9,,,C,,T,,M,,N,,M*18
20220704 060141+00:00 $HCHDT,220.3,T*2A
20220704 060141+00:00 $GPRMC,060136,A,4933.1800,N,12638.1396,W,9,221,040722,12.3,E,A,V*4D
20220704 060141+00:00 $WIMWV,42.5,R,19.59,N,A*14
20220704 060143+00:00 $IIMDA,29.8,I,1.01,B,11.5,C,,C,94.9,,,C,,T,,M,,N,,M*18
20220704 060143+00:00 $HCHDT,220.4,T*2D
20220704 060143+00:00 $GPRMC,060138,A,4933.1800,N,12638.1498,W,9,220,040722,12.3,E,A,V*4B
20220704 060143+00:00 $WIMWV,53.7,R,25.7,N,A*22
20220704 060145+00:00 $IIMDA,29.8,I,1.01,B,11.5,C,,C,95,,,C,,T,,M,,N,,M*0E
20220704 060145+00:00 $HCHDT,220.1,T*28
20220704 060145+00:00 $GPRMC,060140,A,4933.1800,N,12638.1498,W,9,220,040722,12.3,E,A,V*44
20220704 060145+00:00 $WIMWV,55.9,R,27.29,N,A*14
20220704 060147+00:00 $IIMDA,29.8,I,1.01,B,11.5,C,,C,94.9,,,C,,T,,M,,N,,M*18
20220704 060147+00:00 $HCHDT,220.1,T*28
20220704 060147+00:00 $GPRMC,060142,A,4933.1698,N,12638.1600,W,9,220,040722,12.3,E,A,V*4A
20220704 060147+00:00 $WIMWV,50,R,21.89,N,A*0A
20220704 060149+00:00 $IIMDA,29.8,I,1.01,B,11.5,C,,C,94.9,,,C,,T,,M,,N,,M*18
20220704 060149+00:00 $HCHDT,220.1,T*28
20220704 060149+00:00 $GPRMC,060144,A,4933.1698,N,12638.1600,W,9,220,040722,12.3,E,A,V*4C
20220704 060149+00:00 $WIMWV,53.8,R,27.68,N,A*16
20220704 060151+00:00 $IIMDA,29.8,I,1.01,B,11.5,C,,C,94.9,,,C,,T,,M,,N,,M*18
20220704 060151+00:00 $HCHDT,219.9,T*2A
20220704 060151+00:00 $GPRMC,060146,A,4933.1698,N,12638.1696,W,9,220,040722,12.3,E,A,V*41
20220704 060151+00:00 $WIMWV,56.3,R,26.79,N,A*19
20220704 060153+00:00 $IIMDA,29.8,I,1.01,B,11.5,C,,C,94.9,,,C,,T,,M,,N,,M*18
20220704 060153+00:00 $HCHDT,219.9,T*2A
20220704 060153+00:00 $GPRMC,060148,A,4933.1596,N,12638.1696,W,9,220,040722,12.3,E,A,V*42
20220704 060153+00:00 $WIMWV,56.2,R,25.79,N,A*1B
20220704 060155+00:00 $IIMDA,29.8,I,1.01,B,11.5,C,,C,94.9,,,C,,T,,M,,N,,M*18
20220704 060155+00:00 $HCHDT,219.9,T*2A
20220704 060155+00:00 $GPRMC,060150,A,4933.1596,N,12638.1798,W,9,220,040722,12.3,E,A,V*44
20220704 060155+00:00 $WIMWV,57,R,23.89,N,A*0F
20220704 060157+00:00 $IIMDA,29.8,I,1.01,B,11.5,C,,C,94.9,,,C,,T,,M,,N,,M*18
20220704 060157+00:00 $HCHDT,219.8,T*2B
20220704 060157+00:00 $GPRMC,060152,A,4933.1500,N,12638.1798,W,9,220,040722,12.3,E,A,V*49
20220704 060157+00:00 $WIMWV,56.6,R,24.49,N,A*1D
20220704 060159+00:00 $IIMDA,29.8,I,1.01,B,11.5,C,,C,94.9,,,C,,T,,M,,N,,M*18
20220704 060159+00:00 $HCHDT,219.6,T*25
20220704 060159+00:00 $GPRMC,060154,A,4933.1500,N,12638.1900,W,9,220,040722,12.3,E,A,V*40
20220704 060159+00:00 $WIMWV,53.5,R,26.59,N,A*18
20220704 060201+00:00 $IIMDA,29.8,I,1.01,B,11.5,C,,C,94.9,,,C,,T,,M,,N,,M*18
20220704 060201+00:00 $HCHDT,219.6,T*25
20220704 060201+00:00 $GPRMC,060156,A,4933.1500,N,12638.1900,W,9,220,040722,12.3,E,A,V*42
20220704 060201+00:00 $WIMWV,54.6,R,22.88,N,A*14
20220704 060203+00:00 $IIMDA,29.8,I,1.01,B,11.5,C,,C,94.9,,,C,,T,,M,,N,,M*18
20220704 060203+00:00 $HCHDT,219.9,T*2A
20220704 060203+00:00 $GPRMC,060158,A,4933.1398,N,12638.1996,W,9,220,040722,12.3,E,A,V*44
20220704 060203+00:00 $WIMWV,57.4,R,20.2,N,A*25
20220704 060205+00:00 $IIMDA,29.8,I,1.01,B,11.5,C,,C,94.8,,,C,,T,,M,,N,,M*19
20220704 060205+00:00 $HCHDT,219.7,T*24
20220704 060205+00:00 $GPRMC,060200,A,4933.1398,N,12638.1996,W,9,220,040722,12.3,E,A,V*4A
20220704 060205+00:00 $WIMWV,55.9,R,23.79,N,A*15
20220704 060207+00:00 $IIMDA,29.8,I,1.01,B,11.5,C,,C,94.8,,,C,,T,,M,,N,,M*19
20220704 060207+00:00 $HCHDT,219.8,T*2B
20220704 060207+00:00 $GPRMC,060202,A,4933.1296,N,12638.2098,W,9,220,040722,12.3,E,A,V*43
20220704 060207+00:00 $WIMWV,49.5,R,20.68,N,A*17
20220704 060209+00:00 $IIMDA,29.8,I,1.01,B,11.5,C,,C,94.9,,,C,,T,,M,,N,,M*18
20220704 060209+00:00 $HCHDT,219.7,T*24
20220704 060209+00:00 $GPRMC,060204,A,4933.1296,N,12638.2098,W,9,220,040722,12.3,E,A,V*45
20220704 060209+00:00 $WIMWV,55.59,R,23.48,N,A*22
20220704 060211+00:00 $IIMDA,29.8,I,1.01,B,11.5,C,,C,94.9,,,C,,T,,M,,N,,M*18
20220704 060211+00:00 $HCHDT,219.9,T*2A
20220704 060211+00:00 $GPRMC,060206,A,4933.1296,N,12638.2200,W,9,220,040722,12.3,E,A,V*44
20220704 060211+00:00 $WIMWV,54.69,R,21.69,N,A*21
20220704 060213+00:00 $IIMDA,29.8,I,1.01,B,11.5,C,,C,94.8,,,C,,T,,M,,N,,M*19
20220704 060213+00:00 $HCHDT,219.7,T*24
20220704 060213+00:00 $GPRMC,060208,A,4933.1200,N,12638.2200,W,9,220,040722,12.3,E,A,V*45
20220704 060213+00:00 $WIMWV,45.89,R,19.69,N,A*24
20220704 060215+00:00 $IIMDA,29.8,I,1.01,B,11.5,C,,C,94.9,,,C,,T,,M,,N,,M*18
20220704 060215+00:00 $HCHDT,219.6,T*25
20220704 060215+00:00 $GPRMC,060210,A,4933.1200,N,12638.2296,W,9,220,040722,12.3,E,A,V*43
20220704 060215+00:00 $WIMWV,47.5,R,20.78,N,A*18
20220704 060217+00:00 $IIMDA,29.8,I,1.01,B,11.5,C,,C,94.9,,,C,,T,,M,,N,,M*18
20220704 060217+00:00 $HCHDT,219.7,T*24
20220704 060217+00:00 $GPRMC,060212,A,4933.1200,N,12638.2296,W,9,220,040722,12.3,E,A,V*41
20220704 060217+00:00 $WIMWV,46.9,R,17.88,N,A*1E
20220704 060219+00:00 $IIMDA,29.8,I,1.01,B,11.5,C,,C,94.9,,,C,,T,,M,,N,,M*18
20220704 060219+00:00 $HCHDT,219.8,T*2B
20220704 060219+00:00 $GPRMC,060214,A,4933.1098,N,12638.2398,W,9,220,040722,12.3,E,A,V*4B
20220704 060219+00:00 $WIMWV,56.69,R,18.49,N,A*2B
20220704 060221+00:00 $IIMDA,29.9,I,1.011,B,11.5,C,,C,94.9,,,C,,T,,M,,N,,M*28
20220704 060221+00:00 $HCHDT,219.6,T*25
20220704 060221+00:00 $GPRMC,060216,A,4933.1098,N,12638.2398,W,9,220,040722,12.3,E,A,V*49
20220704 060221+00:00 $WIMWV,53.7,R,25.39,N,A*1F
20220704 060223+00:00 $IIMDA,29.9,I,1.011,B,11.5,C,,C,94.9,,,C,,T,,M,,N,,M*28
20220704 060223+00:00 $HCHDT,219.5,T*26
20220704 060223+00:00 $GPRMC,060218,A,4933.0996,N,12638.2500,W,9,220,040722,12.3,E,A,V*46
20220704 060223+00:00 $WIMWV,55,R,21.6,N,A*38
20220704 060225+00:00 $IIMDA,29.9,I,1.011,B,11.5,C,,C,94.9,,,C,,T,,M,,N,,M*28
20220704 060225+00:00 $HCHDT,219.2,T*21
20220704 060225+00:00 $GPRMC,060220,A,4933.0996,N,12638.2500,W,9,220,040722,12.3,E,A,V*4D
20220704 060225+00:00 $WIMWV,50.8,R,21.19,N,A*15
20220704 060227+00:00 $IIMDA,29.9,I,1.011,B,11.5,C,,C,94.9,,,C,,T,,M,,N,,M*28
20220704 060227+00:00 $HCHDT,219.4,T*27
20220704 060227+00:00 $GPRMC,060222,A,4933.0996,N,12638.2596,W,9,220,040722,12.3,E,A,V*40
20220704 060227+00:00 $WIMWV,55.59,R,18.39,N,A*2C
20220704 060229+00:00 $IIMDA,29.9,I,1.011,B,11.5,C,,C,94.9,,,C,,T,,M,,N,,M*28
20220704 060229+00:00 $HCHDT,219.2,T*21
20220704 060229+00:00 $GPRMC,060224,A,4933.0900,N,12638.2596,W,9,220,040722,12.3,E,A,V*49
20220704 060229+00:00 $WIMWV,55.39,R,23.19,N,A*20
20220704 060231+00:00 $IIMDA,29.9,I,1.011,B,11.5,C,,C,94.9,,,C,,T,,M,,N,,M*28
20220704 060231+00:00 $HCHDT,219.5,T*26
20220704 060231+00:00 $GPRMC,060226,A,4933.0900,N,12638.2698,W,9,220,040722,12.3,E,A,V*46
20220704 060231+00:00 $WIMWV,55.79,R,20.59,N,A*23
20220704 060233+00:00 $IIMDA,29.9,I,1.011,B,11.5,C,,C,95,,,C,,T,,M,,N,,M*3E
20220704 060233+00:00 $HCHDT,219.6,T*25
20220704 060233+00:00 $GPRMC,060228,A,4933.0900,N,12638.2698,W,9,220,040722,12.3,E,A,V*48
20220704 060233+00:00 $WIMWV,53.5,R,23.38,N,A*1A
20220704 060235+00:00 $IIMDA,29.8,I,1.01,B,11.5,C,,C,95,,,C,,T,,M,,N,,M*0E
20220704 060235+00:00 $HCHDT,220,T*37
20220704 060235+00:00 $GPRMC,060230,A,4933.0798,N,12638.2800,W,9,220,040722,12.3,E,A,V*41
20220704 060235+00:00 $WIMWV,55,R,23.09,N,A*05
20220704 060237+00:00 $IIMDA,29.8,I,1.01,B,11.5,C,,C,94.9,,,C,,T,,M,,N,,M*18
20220704 060237+00:00 $HCHDT,220.2,T*2B
20220704 060237+00:00 $GPRMC,060232,A,4933.0798,N,12638.2800,W,9,220,040722,12.3,E,A,V*43
20220704 060237+00:00 $WIMWV,57.3,R,25,N,A*3B
20220704 060239+00:00 $IIMDA,29.8,I,1.01,B,11.5,C,,C,94.9,,,C,,T,,M,,N,,M*18
20220704 060239+00:00 $HCHDT,220.6,T*2F
20220704 060239+00:00 $GPRMC,060234,A,4933.0696,N,12638.2896,W,9,220,040722,12.3,E,A,V*45
20220704 060239+00:00 $WIMWV,54,R,24.08,N,A*02
20220704 060241+00:00 $IIMDA,29.8,I,1.01,B,11.5,C,,C,95,,,C,,T,,M,,N,,M*0E
20220704 060241+00:00 $HCHDT,220.7,T*2E
20220704 060241+00:00 $GPRMC,060236,A,4933.0696,N,12638.2896,W,9,220,040722,12.3,E,A,V*47
20220704 060241+00:00 $WIMWV,56,R,17.98,N,A*09
20220704 060243+00:00 $IIMDA,29.8,I,1.01,B,11.5,C,,C,94.9,,,C,,T,,M,,N,,M*18
20220704 060243+00:00 $HCHDT,220.8,T*21
20220704 060243+00:00 $GPRMC,060238,A,4933.0696,N,12638.2998,W,9,220,040722,12.3,E,A,V*46
20220704 060243+00:00 $WIMWV,48,R,19.98,N,A*08
20220704 060245+00:00 $IIMDA,29.8,I,1.01,B,11.5,C,,C,95,,,C,,T,,M,,N,,M*0E
20220704 060245+00:00 $HCHDT,220.8,T*21
20220704 060245+00:00 $GPRMC,060240,A,4933.0600,N,12638.2998,W,9,220,040722,12.3,E,A,V*46
20220704 060245+00:00 $WIMWV,52.69,R,22.18,N,A*22
20220704 060247+00:00 $IIMDA,29.8,I,1.01,B,11.5,C,,C,95,,,C,,T,,M,,N,,M*0E
20220704 060247+00:00 $HCHDT,221,T*36
20220704 060247+00:00 $GPRMC,060242,A,4933.0600,N,12638.3100,W,9,221,040722,12.3,E,A,V*4D
20220704 060247+00:00 $WIMWV,53.5,R,22.49,N,A*1D
20220704 060249+00:00 $IIMDA,29.8,I,1.01,B,11.5,C,,C,95,,,C,,T,,M,,N,,M*0E
20220704 060249+00:00 $HCHDT,220.9,T*20
20220704 060249+00:00 $GPRMC,060244,A,4933.0498,N,12638.3100,W,9,221,040722,12.3,E,A,V*48
20220704 060249+00:00 $WIMWV,54.2,R,21.79,N,A*1D
20220704 060251+00:00 $IIMDA,29.8,I,1.01,B,11.5,C,,C,95,,,C,,T,,M,,N,,M*0E
20220704 060251+00:00 $HCHDT,220.8,T*21
20220704 060251+00:00 $GPRMC,060246,A,4933.0498,N,12638.3196,W,9,221,040722,12.3,E,A,V*45
20220704 060251+00:00 $WIMWV,50.49,R,17.18,N,A*24
20220704 060253+00:00 $IIMDA,29.8,I,1.01,B,11.5,C,,C,94.9,,,C,,T,,M,,N,,M*18
20220704 060253+00:00 $HCHDT,220.8,T*21
20220704 060253+00:00 $GPRMC,060248,A,4933.0498,N,12638.3196,W,9,221,040722,12.3,E,A,V*4B
20220704 060253+00:00 $WIMWV,49.8,R,18.68,N,A*11
20220704 060255+00:00 $IIMDA,29.8,I,1.01,B,11.5,C,,C,95,,,C,,T,,M,,N,,M*0E
20220704 060255+00:00 $HCHDT,220.8,T*21
20220704 060255+00:00 $GPRMC,060250,A,4933.0396,N,12638.3298,W,9,221,040722,12.3,E,A,V*46
20220704 060255+00:00 $WIMWV,53.5,R,22.78,N,A*1F
20220704 060257+00:00 $IIMDA,29.8,I,1.01,B,11.5,C,,C,95,,,C,,T,,M,,N,,M*0E
20220704 060257+00:00 $HCHDT,221,T*36
20220704 060257+00:00 $GPRMC,060252,A,4933.0396,N,12638.3298,W,9,221,040722,12.3,E,A,V*44
20220704 060257+00:00 $WIMWV,52.49,R,20.39,N,A*21
20220704 060259+00:00 $IIMDA,29.8,I,1.01,B,11.5,C,,C,94.9,,,C,,T,,M,,N,,M*18
20220704 060259+00:00 $HCHDT,220.9,T*20
20220704 060259+00:00 $GPRMC,060254,A,4933.0396,N,12638.3400,W,9,221,040722,12.3,E,A,V*45
20220704 060259+00:00 $WIMWV,57.1,R,19.19,N,A*10
20220704 060301+00:00 $IIMDA,29.8,I,1.01,B,11.5,C,,C,94.9,,,C,,T,,M,,N,,M*18
20220704 060301+00:00 $HCHDT,220.7,T*2E
20220704 060301+00:00 $GPRMC,060256,A,4933.0300,N,12638.3400,W,9,221,040722,12.3,E,A,V*48
20220704 060301+00:00 $WIMWV,55.9,R,19.5,N,A*27
20220704 060303+00:00 $IIMDA,29.8,I,1.01,B,11.5,C,,C,94.9,,,C,,T,,M,,N,,M*18
20220704 060303+00:00 $HCHDT,220.6,T*2F
20220704 060303+00:00 $GPRMC,060258,A,4933.0300,N,12638.3496,W,9,221,040722,12.3,E,A,V*49
20220704 060303+00:00 $WIMWV,54.9,R,20.29,N,A*12
20220704 060305+00:00 $IIMDA,29.8,I,1.01,B,11.5,C,,C,94.8,,,C,,T,,M,,N,,M*19
20220704 060305+00:00 $HCHDT,220.5,T*2C
20220704 060305+00:00 $GPRMC,060300,A,4933.0198,N,12638.3496,W,9,221,040722,12.3,E,A,V*46
20220704 060305+00:00 $WIMWV,54,R,20.59,N,A*02
20220704 060307+00:00 $IIMDA,29.8,I,1.01,B,11.5,C,,C,94.8,,,C,,T,,M,,N,,M*19
20220704 060307+00:00 $HCHDT,220.3,T*2A
20220704 060307+00:00 $GPRMC,060302,A,4933.0198,N,12638.3598,W,9,220,040722,12.3,E,A,V*4A
20220704 060307+00:00 $WIMWV,60.19,R,16.48,N,A*26
20220704 060309+00:00 $IIMDA,29.8,I,1.01,B,11.5,C,,C,94.9,,,C,,T,,M,,N,,M*18
20220704 060309+00:00 $HCHDT,220.4,T*2D
20220704 060309+00:00 $GPRMC,060304,A,4933.0198,N,12638.3598,W,9,220,040722,12.3,E,A,V*4C
20220704 060309+00:00 $WIMWV,54.49,R,16.7,N,A*1F
20220704 060311+00:00 $IIMDA,29.8,I,1.01,B,11.5,C,,C,94.8,,,C,,T,,M,,N,,M*19
20220704 060311+00:00 $HCHDT,220.3,T*2A
20220704 060311+00:00 $GPRMC,060306,A,4933.0096,N,12638.3700,W,9,220,040722,12.3,E,A,V*42
20220704 060311+00:00 $WIMWV,59.9,R,15.78,N,A*1D
20220704 060313+00:00 $IIMDA,29.8,I,1.01,B,11.5,C,,C,94.8,,,C,,T,,M,,N,,M*19
20220704 060313+00:00 $HCHDT,220.4,T*2D
20220704 060313+00:00 $GPRMC,060308,A,4933.0096,N,12638.3700,W,9,220,040722,12.3,E,A,V*4C
20220704 060313+00:00 $WIMWV,56.3,R,16.1,N,A*25
20220704 060315+00:00 $IIMDA,29.8,I,1.01,B,11.5,C,,C,94.8,,,C,,T,,M,,N,,M*19
20220704 060315+00:00 $HCHDT,220.1,T*28
20220704 060315+00:00 $GPRMC,060310,A,4933.0096,N,12638.3796,W,9,220,040722,12.3,E,A,V*4A
20220704 060315+00:00 $WIMWV,59.3,R,15.59,N,A*14
20220704 060317+00:00 $IIMDA,29.8,I,1.01,B,11.5,C,,C,94.8,,,C,,T,,M,,N,,M*19
20220704 060317+00:00 $HCHDT,220.1,T*28
20220704 060317+00:00 $GPRMC,060312,A,4933.0000,N,12638.3796,W,9,220,040722,12.3,E,A,V*47
20220704 060317+00:00 $WIMWV,56.8,R,13.78,N,A*15
20220704 060319+00:00 $IIMDA,29.8,I,1.01,B,11.5,C,,C,94.8,,,C,,T,,M,,N,,M*19
20220704 060319+00:00 $HCHDT,219.9,T*2A
20220704 060319+00:00 $GPRMC,060314,A,4933.0000,N,12638.3898,W,9,220,040722,12.3,E,A,V*40
20220704 060319+00:00 $WIMWV,53.7,R,16.79,N,A*1B
20220704 060321+00:00 $IIMDA,29.8,I,1.01,B,11.5,C,,C,94.8,,,C,,T,,M,,N,,M*19
20220704 060321+00:00 $HCHDT,219.9,T*2A
20220704 060321+00:00 $GPRMC,060316,A,4932.9898,N,12638.3898,W,9,220,040722,12.3,E,A,V*43
20220704 060321+00:00 $WIMWV,60.19,R,13.78,N,A*20
20220704 060323+00:00 $IIMDA,29.9,I,1.011,B,11.5,C,,C,94.8,,,C,,T,,M,,N,,M*29
20220704 060323+00:00 $HCHDT,220.2,T*2B
20220704 060323+00:00 $GPRMC,060318,A,4932.9898,N,12638.4000,W,9,220,040722,12.3,E,A,V*43
20220704 060323+00:00 $WIMWV,62.89,R,13.2,N,A*16
20220704 060325+00:00 $IIMDA,29.8,I,1.01,B,11.5,C,,C,94.8,,,C,,T,,M,,N,,M*19
20220704 060325+00:00 $HCHDT,220,T*37
20220704 060325+00:00 $GPRMC,060320,A,4932.9898,N,12638.4000,W,9,220,040722,12.3,E,A,V*48
20220704 060325+00:00 $WIMWV,57.2,R,17.88,N,A*15
20220704 060327+00:00 $IIMDA,29.8,I,1.01,B,11.5,C,,C,94.8,,,C,,T,,M,,N,,M*19
20220704 060327+00:00 $HCHDT,220.3,T*2A
20220704 060327+00:00 $GPRMC,060322,A,4932.9796,N,12638.4096,W,9,220,040722,12.3,E,A,V*44
20220704 060327+00:00 $WIMWV,61.9,R,13.39,N,A*15
20220704 060329+00:00 $IIMDA,29.9,I,1.011,B,11.5,C,,C,94.9,,,C,,T,,M,,N,,M*28
20220704 060329+00:00 $HCHDT,220.2,T*2B
20220704 060329+00:00 $GPRMC,060324,A,4932.9796,N,12638.4096,W,9,220,040722,12.3,E,A,V*42
20220704 060329+00:00 $WIMWV,53.8,R,21.98,N,A*1F
20220704 060331+00:00 $IIMDA,29.9,I,1.011,B,11.5,C,,C,94.9,,,C,,T,,M,,N,,M*28
20220704 060331+00:00 $HCHDT,220.5,T*2C
20220704 060331+00:00 $GPRMC,060326,A,4932.9700,N,12638.4198,W,8.9,220,040722,12.3,E,A,V*56
20220704 060331+00:00 $WIMWV,58.5,R,17.18,N,A*14
20220704 060333+00:00 $IIMDA,29.9,I,1.011,B,11.5,C,,C,94.9,,,C,,T,,M,,N,,M*28
20220704 060333+00:00 $HCHDT,220.4,T*2D
20220704 060333+00:00 $GPRMC,060328,A,4932.9700,N,12638.4198,W,8.9,220,040722,12.3,E,A,V*58
20220704 060333+00:00 $WIMWV,33.29,R,17.28,N,A*24
20220704 060335+00:00 $IIMDA,29.9,I,1.011,B,11.5,C,,C,94.9,,,C,,T,,M,,N,,M*28
20220704 060335+00:00 $HCHDT,220.3,T*2A
20220704 060335+00:00 $GPRMC,060330,A,4932.9700,N,12638.4300,W,9,220,040722,12.3,E,A,V*44
20220704 060335+00:00 $WIMWV,54.4,R,18.99,N,A*1F
20220704 060337+00:00 $IIMDA,29.9,I,1.011,B,11.5,C,,C,94.9,,,C,,T,,M,,N,,M*28
20220704 060337+00:00 $HCHDT,220.3,T*2A
20220704 060337+00:00 $GPRMC,060332,A,4932.9598,N,12638.4300,W,9,220,040722,12.3,E,A,V*45
20220704 060337+00:00 $WIMWV,46.99,R,17.98,N,A*26
20220704 060339+00:00 $IIMDA,29.9,I,1.011,B,11.5,C,,C,94.9,,,C,,T,,M,,N,,M*28
20220704 060339+00:00 $HCHDT,220.1,T*28
20220704 060339+00:00 $GPRMC,060334,A,4932.9598,N,12638.4396,W,9,220,040722,12.3,E,A,V*4C
20220704 060339+00:00 $WIMWV,48.99,R,19.28,N,A*2D
20220704 060341+00:00 $IIMDA,29.9,I,1.011,B,11.5,C,,C,94.9,,,C,,T,,M,,N,,M*28
20220704 060341+00:00 $HCHDT,220.3,T*2A
20220704 060341+00:00 $GPRMC,060336,A,4932.9598,N,12638.4396,W,9,220,040722,12.3,E,A,V*4E
20220704 060341+00:00 $WIMWV,54.2,R,21.38,N,A*18
20220704 060343+00:00 $IIMDA,29.8,I,1.01,B,11.5,C,,C,94.9,,,C,,T,,M,,N,,M*18
20220704 060343+00:00 $HCHDT,219.7,T*24
20220704 060343+00:00 $GPRMC,060338,A,4932.9496,N,12638.4498,W,9,220,040722,12.3,E,A,V*46
20220704 060343+00:00 $WIMWV,38.59,R,18.89,N,A*2C
20220704 060345+00:00 $IIMDA,29.9,I,1.011,B,11.5,C,,C,94.9,,,C,,T,,M,,N,,M*28
20220704 060345+00:00 $HCHDT,219.4,T*27
20220704 060345+00:00 $GPRMC,060340,A,4932.9496,N,12638.4498,W,9,220,040722,12.3,E,A,V*49
20220704 060345+00:00 $WIMWV,50,R,18.39,N,A*0B
20220704 060347+00:00 $IIMDA,29.9,I,1.011,B,11.5,C,,C,94.9,,,C,,T,,M,,N,,M*28
20220704 060347+00:00 $HCHDT,219.5,T*26
20220704 060347+00:00 $GPRMC,060342,A,4932.9400,N,12638.4600,W,9,220,040722,12.3,E,A,V*47
20220704 060347+00:00 $WIMWV,56.3,R,20.29,N,A*1A
20220704 060349+00:00 $IIMDA,29.9,I,1.011,B,11.5,C,,C,94.9,,,C,,T,,M,,N,,M*28
20220704 060349+00:00 $HCHDT,219.5,T*26
20220704 060349+00:00 $GPRMC,060344,A,4932.9400,N,12638.4600,W,9,220,040722,12.3,E,A,V*41
20220704 060349+00:00 $WIMWV,60.19,R,17.79,N,A*25
20220704 060351+00:00 $IIMDA,29.9,I,1.011,B,11.5,C,,C,95,,,C,,T,,M,,N,,M*3E
20220704 060351+00:00 $HCHDT,219.9,T*2A
20220704 060351+00:00 $GPRMC,060346,A,4932.9400,N,12638.4600,W,9,220,040722,12.3,E,A,V*43
20220704 060351+00:00 $WIMWV,32.4,R,18.1,N,A*2E
20220704 060353+00:00 $IIMDA,29.9,I,1.011,B,11.5,C,,C,95,,,C,,T,,M,,N,,M*3E
20220704 060353+00:00 $HCHDT,219.8,T*2B
20220704 060353+00:00 $GPRMC,060348,A,4932.9298,N,12638.4696,W,9,220,040722,12.3,E,A,V*45
20220704 060353+00:00 $WIMWV,52.69,R,21.79,N,A*26
20220704 060355+00:00 $IIMDA,29.8,I,1.01,B,11.5,C,,C,94.9,,,C,,T,,M,,N,,M*18
20220704 060355+00:00 $HCHDT,219.9,T*2A
20220704 060355+00:00 $GPRMC,060350,A,4932.9298,N,12638.4696,W,9,220,040722,12.3,E,A,V*4C
20220704 060355+00:00 $WIMWV,55.5,R,20.29,N,A*1F
20220704 060357+00:00 $IIMDA,29.8,I,1.01,B,11.5,C,,C,95,,,C,,T,,M,,N,,M*0E
20220704 060357+00:00 $HCHDT,220.1,T*28
20220704 060357+00:00 $GPRMC,060352,A,4932.9196,N,12638.4798,W,9,220,040722,12.3,E,A,V*4C
20220704 060357+00:00 $WIMWV,57.59,R,22.39,N,A*27
20220704 060359+00:00 $IIMDA,29.8,I,1.01,B,11.5,C,,C,94.9,,,C,,T,,M,,N,,M*18
20220704 060359+00:00 $HCHDT,220.3,T*2A
20220704 060359+00:00 $GPRMC,060354,A,4932.9196,N,12638.4798,W,9,220,040722,12.3,E,A,V*4A
20220704 060359+00:00 $WIMWV,56.69,R,19.38,N,A*2C
20220704 060401+00:00 $IIMDA,29.8,I,1.01,B,11.5,C,,C,95,,,C,,T,,M,,N,,M*0E
20220704 060401+00:00 $HCHDT,220.6,T*2F
20220704 060401+00:00 $GPRMC,060356,A,4932.9196,N,12638.4900,W,9,220,040722,12.3,E,A,V*47
20220704 060401+00:00 $WIMWV,60.19,R,19.38,N,A*2E
20220704 060403+00:00 $IIMDA,29.8,I,1.01,B,11.5,C,,C,95,,,C,,T,,M,,N,,M*0E
20220704 060403+00:00 $HCHDT,220.5,T*2C
20220704 060403+00:00 $GPRMC,060358,A,4932.9100,N,12638.4900,W,9,220,040722,12.3,E,A,V*46
20220704 060403+00:00 $WIMWV,49.8,R,21.09,N,A*1C
20220704 060405+00:00 $IIMDA,29.8,I,1.01,B,11.5,C,,C,94.9,,,C,,T,,M,,N,,M*18
20220704 060405+00:00 $HCHDT,220.7,T*2E
20220704 060405+00:00 $GPRMC,060400,A,4932.9100,N,12638.4996,W,9,220,040722,12.3,E,A,V*43
20220704 060405+00:00 $WIMWV,53.8,R,21.6,N,A*28
20220704 060407+00:00 $IIMDA,29.8,I,1.01,B,11.5,C,,C,94.9,,,C,,T,,M,,N,,M*18
20220704 060407+00:00 $HCHDT,220.2,T*2B
20220704 060407+00:00 $GPRMC,060402,A,4932.9100,N,12638.4996,W,9,220,040722,12.3,E,A,V*41
20220704 060407+00:00 $WIMWV,59.09,R,17.98,N,A*21
20220704 060409+00:00 $IIMDA,29.8,I,1.01,B,11.5,C,,C,94.9,,,C,,T,,M,,N,,M*18
20220704 060409+00:00 $HCHDT,220.1,T*28
20220704 060409+00:00 $GPRMC,060404,A,4932.8998,N,12638.5098,W,9,220,040722,12.3,E,A,V*49
20220704 060409+00:00 $WIMWV,54.6,R,19.79,N,A*12
20220704 060411+00:00 $IIMDA,29.8,I,1.01,B,11.5,C,,C,94.9,,,C,,T,,M,,N,,M*18
20220704 060411+00:00 $HCHDT,220.1,T*28
20220704 060411+00:00 $GPRMC,060406,A,4932.8998,N,12638.5098,W,9,220,040722,12.3,E,A,V*4B
20220704 060411+00:00 $WIMWV,57.5,R,14.09,N,A*18
20220704 060413+00:00 $IIMDA,29.8,I,1.01,B,11.5,C,,C,94.9,,,C,,T,,M,,N,,M*18
20220704 060413+00:00 $HCHDT,219.8,T*2B
20220704 060413+00:00 $GPRMC,060408,A,4932.8896,N,12638.5200,W,9,220,040722,12.3,E,A,V*49
20220704 060413+00:00 $WIMWV,52,R,18.1,N,A*32
20220704 060415+00:00 $IIMDA,29.8,I,1.01,B,11.5,C,,C,94.9,,,C,,T,,M,,N,,M*18
20220704 060415+00:00 $HCHDT,220,T*37
20220704 060415+00:00 $GPRMC,060410,A,4932.8896,N,12638.5200,W,9,220,040722,12.3,E,A,V*40
20220704 060415+00:00 $WIMWV,55.1,R,15.4,N,A*22
20220704 060417+00:00 $IIMDA,29.8,I,1.01,B,11.5,C,,C,94.9,,,C,,T,,M,,N,,M*18
20220704 060417+00:00 $HCHDT,219.8,T*2B
20220704 060417+00:00 $GPRMC,060412,A,4932.8896,N,12638.5296,W,9,220,040722,12.3,E,A,V*4D
20220704 060417+00:00 $WIMWV,67.2,R,10.59,N,A*1D
20220704 060419+00:00 $IIMDA,29.8,I,1.01,B,11.5,C,,C,94.9,,,C,,T,,M,,N,,M*18
20220704 060419+00:00 $HCHDT,220,T*37
20220704 060419+00:00 $GPRMC,060414,A,4932.8800,N,12638.5296,W,9,220,040722,12.3,E,A,V*44
20220704 060419+00:00 $WIMWV,58.69,R,17.98,N,A*26
20220704 060421+00:00 $IIMDA,29.8,I,1.01,B,11.5,C,,C,94.9,,,C,,T,,M,,N,,M*18
20220704 060421+00:00 $HCHDT,219.8,T*2B
20220704 060421+00:00 $GPRMC,060416,A,4932.8800,N,12638.5398,W,9,220,040722,12.3,E,A,V*49
20220704 060421+00:00 $WIMWV,48.5,R,18.29,N,A*18
20220704 060423+00:00 $IIMDA,29.8,I,1.01,B,11.5,C,,C,94.9,,,C,,T,,M,,N,,M*18
20220704 060423+00:00 $HCHDT,219.8,T*2B
20220704 060423+00:00 $GPRMC,060418,A,4932.8800,N,12638.5398,W,9,220,040722,12.3,E,A,V*47
20220704 060423+00:00 $WIMWV,46.5,R,18.8,N,A*25
20220704 060425+00:00 $IIMDA,29.8,I,1.01,B,11.5,C,,C,94.9,,,C,,T,,M,,N,,M*18
20220704 060425+00:00 $HCHDT,219.9,T*2A
20220704 060425+00:00 $GPRMC,060420,A,4932.8698,N,12638.5500,W,9,220,040722,12.3,E,A,V*44
20220704 060425+00:00 $WIMWV,54,R,19.79,N,A*0A
20220704 060427+00:00 $IIMDA,29.8,I,1.01,B,11.5,C,,C,94.9,,,C,,T,,M,,N,,M*18
20220704 060427+00:00 $HCHDT,219.6,T*25
20220704 060427+00:00 $GPRMC,060422,A,4932.8698,N,12638.5500,W,9,220,040722,12.3,E,A,V*46
20220704 060427+00:00 $WIMWV,37.6,R,18.99,N,A*18
20220704 060429+00:00 $IIMDA,29.8,I,1.01,B,11.5,C,,C,94.9,,,C,,T,,M,,N,,M*18
20220704 060429+00:00 $HCHDT,219.7,T*24
20220704 060429+00:00 $GPRMC,060424,A,4932.8596,N,12638.5596,W,9,220,040722,12.3,E,A,V*42
20220704 060429+00:00 $WIMWV,59.99,R,14.6,N,A*1C
20220704 060431+00:00 $IIMDA,29.8,I,1.01,B,11.5,C,,C,94.9,,,C,,T,,M,,N,,M*18
20220704 060431+00:00 $HCHDT,219.9,T*2A
20220704 060431+00:00 $GPRMC,060426,A,4932.8596,N,12638.5596,W,9,220,040722,12.3,E,A,V*40
20220704 060431+00:00 $WIMWV,54.2,R,16.19,N,A*1F
20220704 060433+00:00 $IIMDA,29.8,I,1.01,B,11.5,C,,C,94.9,,,C,,T,,M,,N,,M*18
20220704 060433+00:00 $HCHDT,219.9,T*2A
20220704 060433+00:00 $GPRMC,060428,A,4932.8596,N,12638.5698,W,9,220,040722,12.3,E,A,V*43
20220704 060433+00:00 $WIMWV,49.8,R,18.39,N,A*15
20220704 060435+00:00 $IIMDA,29.8,I,1.01,B,11.5,C,,C,94.9,,,C,,T,,M,,N,,M*18
20220704 060435+00:00 $HCHDT,219.7,T*24
20220704 060435+00:00 $GPRMC,060430,A,4932.8500,N,12638.5698,W,9,220,040722,12.3,E,A,V*45
20220704 060435+00:00 $WIMWV,49.7,R,20.08,N,A*13
20220704 060437+00:00 $IIMDA,29.9,I,1.011,B,11.5,C,,C,94.9,,,C,,T,,M,,N,,M*28
20220704 060437+00:00 $HCHDT,219.9,T*2A
20220704 060437+00:00 $GPRMC,060432,A,4932.8500,N,12638.5800,W,9,220,040722,12.3,E,A,V*48
20220704 060437+00:00 $WIMWV,43.3,R,18.29,N,A*15
20220704 060439+00:00 $IIMDA,29.9,I,1.011,B,11.5,C,,C,94.9,,,C,,T,,M,,N,,M*28
20220704 060439+00:00 $HCHDT,219.8,T*2B
20220704 060439+00:00 $GPRMC,060434,A,4932.8398,N,12638.5800,W,9,220,040722,12.3,E,A,V*49
20220704 060439+00:00 $WIMWV,33.09,R,18.49,N,A*2E
20220704 060441+00:00 $IIMDA,29.9,I,1.011,B,11.5,C,,C,94.9,,,C,,T,,M,,N,,M*28
20220704 060441+00:00 $HCHDT,220.1,T*28
20220704 060441+00:00 $GPRMC,060436,A,4932.8398,N,12638.5896,W,9,220,040722,12.3,E,A,V*44
20220704 060441+00:00 $WIMWV,32.3,R,17.69,N,A*18
20220704 060443+00:00 $IIMDA,29.9,I,1.011,B,11.5,C,,C,94.9,,,C,,T,,M,,N,,M*28
20220704 060443+00:00 $HCHDT,220.3,T*2A
20220704 060443+00:00 $GPRMC,060438,A,4932.8398,N,12638.5896,W,9,220,040722,12.3,E,A,V*4A
20220704 060443+00:00 $WIMWV,32.4,R,17.4,N,A*24
20220704 060445+00:00 $IIMDA,29.9,I,1.011,B,11.5,C,,C,95,,,C,,T,,M,,N,,M*3E
20220704 060445+00:00 $HCHDT,220.1,T*28
20220704 060445+00:00 $GPRMC,060440,A,4932.8296,N,12638.5998,W,9,220,040722,12.3,E,A,V*45
20220704 060445+00:00 $WIMWV,24.49,R,13.49,N,A*27
20220704 060447+00:00 $IIMDA,29.9,I,1.011,B,11.5,C,,C,94.9,,,C,,T,,M,,N,,M*28
20220704 060447+00:00 $HCHDT,220.2,T*2B
20220704 060447+00:00 $GPRMC,060442,A,4932.8296,N,12638.5998,W,9,220,040722,12.3,E,A,V*47
20220704 060447+00:00 $WIMWV,29.09,R,18.8,N,A*10
20220704 060449+00:00 $IIMDA,29.9,I,1.011,B,11.5,C,,C,95,,,C,,T,,M,,N,,M*3E
20220704 060449+00:00 $HCHDT,219.9,T*2A
20220704 060449+00:00 $GPRMC,060444,A,4932.8296,N,12638.6100,W,9,220,040722,12.3,E,A,V*4B
20220704 060449+00:00 $WIMWV,25.5,R,16.48,N,A*1A
20220704 060451+00:00 $IIMDA,29.9,I,1.011,B,11.5,C,,C,95,,,C,,T,,M,,N,,M*3E
20220704 060451+00:00 $HCHDT,220,T*37
20220704 060451+00:00 $GPRMC,060446,A,4932.8200,N,12638.6100,W,9,220,040722,12.3,E,A,V*46
20220704 060451+00:00 $WIMWV,30.6,R,22.39,N,A*1C
20220704 060453+00:00 $IIMDA,29.9,I,1.011,B,11.5,C,,C,95,,,C,,T,,M,,N,,M*3E
20220704 060453+00:00 $HCHDT,219.9,T*2A
20220704 060453+00:00 $GPRMC,060448,A,4932.8200,N,12638.6196,W,9,220,040722,12.3,E,A,V*47
20220704 060453+00:00 $WIMWV,24.3,R,15.78,N,A*1D
20220704 060455+00:00 $IIMDA,29.9,I,1.011,B,11.5,C,,C,95,,,C,,T,,M,,N,,M*3E
20220704 060455+00:00 $HCHDT,219.8,T*2B
20220704 060455+00:00 $GPRMC,060450,A,4932.8098,N,12638.6196,W,9,220,040722,12.3,E,A,V*4D
20220704 060455+00:00 $WIMWV,29.7,R,20.2,N,A*2F
20220704 060457+00:00 $IIMDA,29.8,I,1.01,B,11.5,C,,C,95,,,C,,T,,M,,N,,M*0E
20220704 060457+00:00 $HCHDT,219.8,T*2B
20220704 060457+00:00 $GPRMC,060452,A,4932.8098,N,12638.6298,W,9.1,220,040722,12.3,E,A,V*5D
20220704 060457+00:00 $WIMWV,38.39,R,21.6,N,A*17
20220704 060459+00:00 $IIMDA,29.8,I,1.01,B,11.5,C,,C,95,,,C,,T,,M,,N,,M*0E
20220704 060459+00:00 $HCHDT,219.6,T*25
20220704 060459+00:00 $GPRMC,060454,A,4932.8098,N,12638.6298,W,9.1,220,040722,12.3,E,A,V*5B
20220704 060459+00:00 $WIMWV,41.4,R,18.99,N,A*1B
20220704 060501+00:00 $IIMDA,29.8,I,1.01,B,11.5,C,,C,95,,,C,,T,,M,,N,,M*0E
20220704 060501+00:00 $HCHDT,219.9,T*2A
20220704 060501+00:00 $GPRMC,060456,A,4932.7996,N,12638.6400,W,9.1,220,040722,12.3,E,A,V*56
20220704 060501+00:00 $WIMWV,41.4,R,20.99,N,A*10
20220704 060503+00:00 $IIMDA,29.8,I,1.01,B,11.5,C,,C,95,,,C,,T,,M,,N,,M*0E
20220704 060503+00:00 $HCHDT,220,T*37
20220704 060503+00:00 $GPRMC,060458,A,4932.7996,N,12638.6400,W,9.1,220,040722,12.3,E,A,V*58
20220704 060503+00:00 $WIMWV,44.4,R,22.08,N,A*1F
20220704 060505+00:00 $IIMDA,29.8,I,1.01,B,11.5,C,,C,95,,,C,,T,,M,,N,,M*0E
20220704 060505+00:00 $HCHDT,220.2,T*2B
20220704 060505+00:00 $GPRMC,060500,A,4932.7900,N,12638.6496,W,9,220,040722,12.3,E,A,V*4B
20220704 060505+00:00 $WIMWV,43.5,R,21.79,N,A*1C
20220704 060507+00:00 $IIMDA,29.8,I,1.01,B,11.5,C,,C,95,,,C,,T,,M,,N,,M*0E
20220704 060507+00:00 $HCHDT,220.5,T*2C
20220704 060507+00:00 $GPRMC,060502,A,4932.7900,N,12638.6496,W,9,220,040722,12.3,E,A,V*49
20220704 060507+00:00 $WIMWV,41.1,R,21.19,N,A*1C
20220704 060509+00:00 $IIMDA,29.8,I,1.01,B,11.5,C,,C,95,,,C,,T,,M,,N,,M*0E
20220704 060509+00:00 $HCHDT,220.4,T*2D
20220704 060509+00:00 $GPRMC,060504,A,4932.7900,N,12638.6598,W,9,220,040722,12.3,E,A,V*40
20220704 060509+00:00 $WIMWV,42.3,R,21.6,N,A*23
20220704 060511+00:00 $IIMDA,29.8,I,1.01,B,11.5,C,,C,95,,,C,,T,,M,,N,,M*0E
20220704 060511+00:00 $HCHDT,220.6,T*2F
20220704 060511+00:00 $GPRMC,060506,A,4932.7798,N,12638.6598,W,9,220,040722,12.3,E,A,V*4D
20220704 060511+00:00 $WIMWV,48.4,R,20.29,N,A*12
20220704 060513+00:00 $IIMDA,29.8,I,1.01,B,11.5,C,,C,95,,,C,,T,,M,,N,,M*0E
20220704 060513+00:00 $HCHDT,220.3,T*2A
20220704 060513+00:00 $GPRMC,060508,A,4932.7798,N,12638.6700,W,9,220,040722,12.3,E,A,V*40
20220704 060513+00:00 $WIMWV,38.9,R,21.29,N,A*19
20220704 060515+00:00 $IIMDA,29.8,I,1.01,B,11.5,C,,C,95,,,C,,T,,M,,N,,M*0E
20220704 060515+00:00 $HCHDT,220.5,T*2C
20220704 060515+00:00 $GPRMC,060510,A,4932.7798,N,12638.6700,W,9,220,040722,12.3,E,A,V*49
20220704 060515+00:00 $WIMWV,44.2,R,20.99,N,A*13
20220704 060517+00:00 $IIMDA,29.8,I,1.01,B,11.5,C,,C,95,,,C,,T,,M,,N,,M*0E
20220704 060517+00:00 $HCHDT,220.4,T*2D
20220704 060517+00:00 $GPRMC,060512,A,4932.7696,N,12638.6796,W,9,220,040722,12.3,E,A,V*4B
20220704 060517+00:00 $WIMWV,38.59,R,21.6,N,A*11
20220704 060519+00:00 $IIMDA,29.8,I,1.01,B,11.5,C,,C,95,,,C,,T,,M,,N,,M*0E
20220704 060519+00:00 $HCHDT,220.1,T*28
20220704 060519+00:00 $GPRMC,060514,A,4932.7696,N,12638.6796,W,9,220,040722,12.3,E,A,V*4D
20220704 060519+00:00 $WIMWV,32.7,R,19.19,N,A*15
20220704 060521+00:00 $IIMDA,29.9,I,1.011,B,11.5,C,,C,95,,,C,,T,,M,,N,,M*3E
20220704 060521+00:00 $HCHDT,220,T*37
20220704 060521+00:00 $GPRMC,060516,A,4932.7600,N,12638.6898,W,9,220,040722,12.3,E,A,V*41
20220704 060521+00:00 $WIMWV,30.89,R,18.29,N,A*23
20220704 060523+00:00 $IIMDA,29.9,I,1.011,B,11.5,C,,C,95,,,C,,T,,M,,N,,M*3E
20220704 060523+00:00 $HCHDT,220.3,T*2A
20220704 060523+00:00 $GPRMC,060518,A,4932.7600,N,12638.6898,W,9,220,040722,12.3,E,A,V*4F
20220704 060523+00:00 $WIMWV,48.2,R,16.58,N,A*17
20220704 060525+00:00 $IIMDA,29.9,I,1.011,B,11.5,C,,C,95,,,C,,T,,M,,N,,M*3E
20220704 060525+00:00 $HCHDT,220.2,T*2B
20220704 060525+00:00 $GPRMC,060520,A,4932.7600,N,12638.7000,W,9,220,040722,12.3,E,A,V*4C
20220704 060525+00:00 $WIMWV,46.9,R,19.09,N,A*19
20220704 060527+00:00 $IIMDA,29.9,I,1.011,B,11.5,C,,C,95,,,C,,T,,M,,N,,M*3E
20220704 060527+00:00 $HCHDT,219.8,T*2B
20220704 060527+00:00 $GPRMC,060522,A,4932.7498,N,12638.7000,W,9,220,040722,12.3,E,A,V*4D
20220704 060527+00:00 $WIMWV,30.4,R,17.79,N,A*1C
20220704 060529+00:00 $IIMDA,29.9,I,1.011,B,11.5,C,,C,95,,,C,,T,,M,,N,,M*3E
20220704 060529+00:00 $HCHDT,219.8,T*2B
20220704 060529+00:00 $GPRMC,060524,A,4932.7498,N,12638.7096,W,9,220,040722,12.3,E,A,V*44
20220704 060529+00:00 $WIMWV,40.59,R,20.68,N,A*27
20220704 060531+00:00 $IIMDA,29.9,I,1.011,B,11.5,C,,C,95,,,C,,T,,M,,N,,M*3E
20220704 060531+00:00 $HCHDT,219.6,T*25
20220704 060531+00:00 $GPRMC,060526,A,4932.7396,N,12638.7096,W,9,220,040722,12.3,E,A,V*4F
20220704 060531+00:00 $WIMWV,47.5,R,18.39,N,A*16
20220704 060533+00:00 $IIMDA,29.9,I,1.011,B,11.5,C,,C,95,,,C,,T,,M,,N,,M*3E
20220704 060533+00:00 $HCHDT,219.9,T*2A
20220704 060533+00:00 $GPRMC,060528,A,4932.7396,N,12638.7198,W,9.1,220,040722,12.3,E,A,V*51
20220704 060533+00:00 $WIMWV,53.19,R,17.09,N,A*22
20220704 060535+00:00 $IIMDA,29.9,I,1.011,B,11.5,C,,C,95,,,C,,T,,M,,N,,M*3E
20220704 060535+00:00 $HCHDT,219.7,T*24
20220704 060535+00:00 $GPRMC,060530,A,4932.7396,N,12638.7198,W,9.1,220,040722,12.3,E,A,V*58
20220704 060535+00:00 $WIMWV,34.6,R,18.39,N,A*11
20220704 060537+00:00 $IIMDA,29.9,I,1.011,B,11.5,C,,C,95,,,C,,T,,M,,N,,M*3E
20220704 060537+00:00 $HCHDT,220,T*37
20220704 060537+00:00 $GPRMC,060532,A,4932.7300,N,12638.7300,W,9.1,219,040722,12.3,E,A,V*5C
20220704 060537+00:00 $WIMWV,23.4,R,12.5,N,A*20
20220704 060539+00:00 $IIMDA,29.9,I,1.011,B,11.5,C,,C,95,,,C,,T,,M,,N,,M*3E
20220704 060539+00:00 $HCHDT,219.5,T*26
20220704 060539+00:00 $GPRMC,060534,A,4932.7300,N,12638.7300,W,9.1,219,040722,12.3,E,A,V*5A
20220704 060539+00:00 $WIMWV,27.99,R,13.2,N,A*16
20220704 060541+00:00 $IIMDA,29.9,I,1.011,B,11.5,C,,C,95.1,,,C,,T,,M,,N,,M*21
20220704 060541+00:00 $HCHDT,219.9,T*2A
20220704 060541+00:00 $GPRMC,060536,A,4932.7198,N,12638.7396,W,9.1,219,040722,12.3,E,A,V*54
20220704 060541+00:00 $WIMWV,50.49,R,18.99,N,A*22
20220704 060543+00:00 $IIMDA,29.9,I,1.011,B,11.5,C,,C,95.1,,,C,,T,,M,,N,,M*21
20220704 060543+00:00 $HCHDT,219.7,T*24
20220704 060543+00:00 $GPRMC,060538,A,4932.7198,N,12638.7396,W,9.1,219,040722,12.3,E,A,V*5A
20220704 060543+00:00 $WIMWV,43.3,R,21.89,N,A*15
20220704 060545+00:00 $IIMDA,29.9,I,1.011,B,11.5,C,,C,95.1,,,C,,T,,M,,N,,M*21
20220704 060545+00:00 $HCHDT,219.6,T*25
20220704 060545+00:00 $GPRMC,060540,A,4932.7198,N,12638.7498,W,9.1,219,040722,12.3,E,A,V*5C
20220704 060545+00:00 $WIMWV,44.99,R,18.29,N,A*21
20220704 060547+00:00 $IIMDA,29.8,I,1.01,B,11.5,C,,C,95.1,,,C,,T,,M,,N,,M*11
20220704 060547+00:00 $HCHDT,219.5,T*26
20220704 060547+00:00 $GPRMC,060542,A,4932.7096,N,12638.7498,W,9.1,219,040722,12.3,E,A,V*51
20220704 060547+00:00 $WIMWV,31.3,R,21.98,N,A*10
20220704 060549+00:00 $IIMDA,29.8,I,1.01,B,11.5,C,,C,95.1,,,C,,T,,M,,N,,M*11
20220704 060549+00:00 $HCHDT,219.7,T*24
20220704 060549+00:00 $GPRMC,060544,A,4932.7096,N,12638.7600,W,9.1,219,040722,12.3,E,A,V*54
20220704 060549+00:00 $WIMWV,36.1,R,21.29,N,A*1F
20220704 060551+00:00 $IIMDA,29.8,I,1.01,B,11.5,C,,C,95.1,,,C,,T,,M,,N,,M*11
20220704 060551+00:00 $HCHDT,219.6,T*25
20220704 060551+00:00 $GPRMC,060546,A,4932.7096,N,12638.7600,W,9.1,219,040722,12.3,E,A,V*56
20220704 060551+00:00 $WIMWV,34.9,R,20.29,N,A*14
20220704 060553+00:00 $IIMDA,29.9,I,1.011,B,11.5,C,,C,95.1,,,C,,T,,M,,N,,M*21
20220704 060553+00:00 $HCHDT,219.7,T*24
20220704 060553+00:00 $GPRMC,060548,A,4932.7000,N,12638.7696,W,9.1,219,040722,12.3,E,A,V*58
20220704 060553+00:00 $WIMWV,44.4,R,19.28,N,A*15
20220704 060555+00:00 $IIMDA,29.9,I,1.011,B,11.5,C,,C,95.1,,,C,,T,,M,,N,,M*21
20220704 060555+00:00 $HCHDT,219.5,T*26
20220704 060555+00:00 $GPRMC,060550,A,4932.7000,N,12638.7696,W,9.1,219,040722,12.3,E,A,V*51
20220704 060555+00:00 $WIMWV,49.19,R,19.38,N,A*25
20220704 060557+00:00 $IIMDA,29.9,I,1.011,B,11.5,C,,C,95.1,,,C,,T,,M,,N,,M*21
20220704 060557+00:00 $HCHDT,219.4,T*27
20220704 060557+00:00 $GPRMC,060552,A,4932.6898,N,12638.7798,W,9.1,219,040722,12.3,E,A,V*54
20220704 060557+00:00 $WIMWV,45.89,R,17.98,N,A*24
20220704 060559+00:00 $IIMDA,29.9,I,1.011,B,11.5,C,,C,95.1,,,C,,T,,M,,N,,M*21
20220704 060559+00:00 $HCHDT,219.9,T*2A
20220704 060559+00:00 $GPRMC,060554,A,4932.6898,N,12638.7798,W,9,219,040722,12.3,E,A,V*4D
20220704 060559+00:00 $WIMWV,41.4,R,20.78,N,A*1F
20220704 060601+00:00 $IIMDA,29.8,I,1.01,B,11.5,C,,C,95.1,,,C,,T,,M,,N,,M*11
20220704 060601+00:00 $HCHDT,220.2,T*2B
20220704 060601+00:00 $GPRMC,060556,A,4932.6898,N,12638.7798,W,9,219,040722,12.3,E,A,V*4F
20220704 060601+00:00 $WIMWV,52,R,19.69,N,A*0D
20220704 060603+00:00 $IIMDA,29.9,I,1.011,B,11.5,C,,C,95.2,,,C,,T,,M,,N,,M*22
20220704 060603+00:00 $HCHDT,220.6,T*2F
20220704 060603+00:00 $GPRMC,060558,A,4932.6796,N,12638.7900,W,9,219,040722,12.3,E,A,V*4F
20220704 060603+00:00 $WIMWV,46.9,R,18.1,N,A*20
20220704 060605+00:00 $IIMDA,29.9,I,1.011,B,11.5,C,,C,95.1,,,C,,T,,M,,N,,M*21
20220704 060605+00:00 $HCHDT,220.8,T*21
20220704 060605+00:00 $GPRMC,060600,A,4932.6796,N,12638.7900,W,9,219,040722,12.3,E,A,V*41
20220704 060605+00:00 $WIMWV,39.6,R,20.68,N,A*13
20220704 060607+00:00 $IIMDA,29.9,I,1.011,B,11.5,C,,C,95.1,,,C,,T,,M,,N,,M*21
20220704 060607+00:00 $HCHDT,220.7,T*2E
20220704 060607+00:00 $GPRMC,060602,A,4932.6700,N,12638.7996,W,9,220,040722,12.3,E,A,V*49
20220704 060607+00:00 $WIMWV,51.7,R,18.29,N,A*12
20220704 060609+00:00 $IIMDA,29.9,I,1.011,B,11.5,C,,C,95.1,,,C,,T,,M,,N,,M*21
20220704 060609+00:00 $HCHDT,220.9,T*20
20220704 060609+00:00 $GPRMC,060604,A,4932.6700,N,12638.7996,W,9.1,220,040722,12.3,E,A,V*50
20220704 060609+00:00 $WIMWV,48,R,19.5,N,A*3C
20220704 060611+00:00 $IIMDA,29.8,I,1.01,B,11.5,C,,C,95.1,,,C,,T,,M,,N,,M*11
20220704 060611+00:00 $HCHDT,220.7,T*2E
20220704 060611+00:00 $GPRMC,060606,A,4932.6700,N,12638.8098,W,9.1,220,040722,12.3,E,A,V*5A
20220704 060611+00:00 $WIMWV,44.7,R,17.49,N,A*1F
20220704 060613+00:00 $IIMDA,29.8,I,1.01,B,11.5,C,,C,95.1,,,C,,T,,M,,N,,M*11
20220704 060613+00:00 $HCHDT,220.6,T*2F
20220704 060613+00:00 $GPRMC,060608,A,4932.6598,N,12638.8098,W,9,220,040722,12.3,E,A,V*48
20220704 060613+00:00 $WIMWV,48.99,R,17.28,N,A*23
20220704 060615+00:00 $IIMDA,29.9,I,1.011,B,11.5,C,,C,95.1,,,C,,T,,M,,N,,M*21
20220704 060615+00:00 $HCHDT,220.4,T*2D
20220704 060615+00:00 $GPRMC,060610,A,4932.6598,N,12638.8200,W,9,220,040722,12.3,E,A,V*42
20220704 060615+00:00 $WIMWV,48,R,19.59,N,A*05
20220704 060617+00:00 $IIMDA,29.9,I,1.011,B,11.5,C,,C,95.1,,,C,,T,,M,,N,,M*21
20220704 060617+00:00 $HCHDT,220.5,T*2C
20220704 060617+00:00 $GPRMC,060612,A,4932.6496,N,12638.8200,W,9,220,040722,12.3,E,A,V*4F
20220704 060617+00:00 $WIMWV,36.1,R,21.6,N,A*22
20220704 060619+00:00 $IIMDA,29.9,I,1.011,B,11.5,C,,C,95.1,,,C,,T,,M,,N,,M*21
20220704 060619+00:00 $HCHDT,220.3,T*2A
20220704 060619+00:00 $GPRMC,060614,A,4932.6496,N,12638.8296,W,9.1,220,040722,12.3,E,A,V*59
20220704 060619+00:00 $WIMWV,32.6,R,19.38,N,A*17
20220704 060621+00:00 $IIMDA,29.9,I,1.011,B,11.5,C,,C,95.1,,,C,,T,,M,,N,,M*21
20220704 060621+00:00 $HCHDT,219.9,T*2A
20220704 060621+00:00 $GPRMC,060616,A,4932.6496,N,12638.8296,W,9.1,220,040722,12.3,E,A,V*5B
20220704 060621+00:00 $WIMWV,42.79,R,21.19,N,A*20
20220704 060623+00:00 $IIMDA,29.9,I,1.011,B,11.5,C,,C,95.1,,,C,,T,,M,,N,,M*21
20220704 060623+00:00 $HCHDT,219.6,T*25
20220704 060623+00:00 $GPRMC,060618,A,4932.6400,N,12638.8398,W,9.1,220,040722,12.3,E,A,V*55
20220704 060623+00:00 $WIMWV,50.29,R,16.99,N,A*2A
20220704 060625+00:00 $IIMDA,29.9,I,1.011,B,11.5,C,,C,95.1,,,C,,T,,M,,N,,M*21
20220704 060625+00:00 $HCHDT,219.8,T*2B
20220704 060625+00:00 $GPRMC,060620,A,4932.6400,N,12638.8398,W,9.1,220,040722,12.3,E,A,V*5E
20220704 060625+00:00 $WIMWV,38.9,R,20.78,N,A*1C
20220704 060627+00:00 $IIMDA,29.8,I,1.01,B,11.5,C,,C,95.1,,,C,,T,,M,,N,,M*11
20220704 060627+00:00 $HCHDT,220,T*37
20220704 060627+00:00 $GPRMC,060622,A,4932.6400,N,12638.8500,W,9.1,220,040722,12.3,E,A,V*5B
20220704 060627+00:00 $WIMWV,39.4,R,19.19,N,A*1D
20220704 060629+00:00 $IIMDA,29.9,I,1.011,B,11.5,C,,C,95.1,,,C,,T,,M,,N,,M*21
20220704 060629+00:00 $HCHDT,219.9,T*2A
20220704 060629+00:00 $GPRMC,060624,A,4932.6298,N,12638.8500,W,9.1,220,040722,12.3,E,A,V*5A
20220704 060629+00:00 $WIMWV,47.4,R,17.59,N,A*1E
20220704 060631+00:00 $IIMDA,29.9,I,1.011,B,11.5,C,,C,95.1,,,C,,T,,M,,N,,M*21
20220704 060631+00:00 $HCHDT,220.1,T*28
20220704 060631+00:00 $GPRMC,060626,A,4932.6298,N,12638.8596,W,9.1,219,040722,12.3,E,A,V*5D
20220704 060631+00:00 $WIMWV,39.6,R,21.6,N,A*2A
20220704 060633+00:00 $IIMDA,29.9,I,1.011,B,11.5,C,,C,95.2,,,C,,T,,M,,N,,M*22
20220704 060633+00:00 $HCHDT,220.1,T*28
20220704 060633+00:00 $GPRMC,060628,A,4932.6196,N,12638.8596,W,9.1,220,040722,12.3,E,A,V*54
20220704 060633+00:00 $WIMWV,45.7,R,19.38,N,A*16
20220704 060635+00:00 $IIMDA,29.9,I,1.011,B,11.5,C,,C,95.1,,,C,,T,,M,,N,,M*21
20220704 060635+00:00 $HCHDT,220.2,T*2B
20220704 060635+00:00 $GPRMC,060630,A,4932.6196,N,12638.8698,W,9.1,220,040722,12.3,E,A,V*50
20220704 060635+00:00 $WIMWV,56.2,R,17.69,N,A*1B
20220704 060637+00:00 $IIMDA,29.8,I,1.01,B,11.5,C,,C,95.2,,,C,,T,,M,,N,,M*12
20220704 060637+00:00 $HCHDT,219.9,T*2A
20220704 060637+00:00 $GPRMC,060632,A,4932.6196,N,12638.8698,W,9.1,220,040722,12.3,E,A,V*52
20220704 060637+00:00 $WIMWV,58.89,R,18.49,N,A*2B
20220704 060639+00:00 $IIMDA,29.8,I,1.01,B,11.5,C,,C,95.1,,,C,,T,,M,,N,,M*11
20220704 060639+00:00 $HCHDT,220.2,T*2B
20220704 060639+00:00 $GPRMC,060634,A,4932.6100,N,12638.8800,W,9.1,220,040722,12.3,E,A,V*54
20220704 060639+00:00 $WIMWV,48.4,R,16.58,N,A*11
20220704 060641+00:00 $IIMDA,29.9,I,1.011,B,11.5,C,,C,95.1,,,C,,T,,M,,N,,M*21
20220704 060641+00:00 $HCHDT,220.3,T*2A
20220704 060641+00:00 $GPRMC,060636,A,4932.6100,N,12638.8800,W,9.1,220,040722,12.3,E,A,V*56
20220704 060641+00:00 $WIMWV,55.7,R,17.18,N,A*1B
20220704 060643+00:00 $IIMDA,29.9,I,1.011,B,11.5,C,,C,95.1,,,C,,T,,M,,N,,M*21
20220704 060643+00:00 $HCHDT,220.5,T*2C
20220704 060643+00:00 $GPRMC,060638,A,4932.5998,N,12638.8896,W,9.1,220,040722,12.3,E,A,V*5D
20220704 060643+00:00 $WIMWV,41.1,R,17.59,N,A*1D
20220704 060645+00:00 $IIMDA,29.9,I,1.011,B,11.5,C,,C,95.1,,,C,,T,,M,,N,,M*21
20220704 060645+00:00 $HCHDT,220.4,T*2D
20220704 060645+00:00 $GPRMC,060640,A,4932.5998,N,12638.8896,W,9.1,220,040722,12.3,E,A,V*52
20220704 060645+00:00 $WIMWV,35.1,R,16.99,N,A*13
20220704 060647+00:00 $IIMDA,29.9,I,1.011,B,11.5,C,,C,95.1,,,C,,T,,M,,N,,M*21
20220704 060647+00:00 $HCHDT,220.2,T*2B
20220704 060647+00:00 $GPRMC,060642,A,4932.5998,N,12638.8998,W,9.1,220,040722,12.3,E,A,V*5F
20220704 060647+00:00 $WIMWV,50.29,R,17.28,N,A*21
20220704 060649+00:00 $IIMDA,29.9,I,1.011,B,11.5,C,,C,95.1,,,C,,T,,M,,N,,M*21
20220704 060649+00:00 $HCHDT,220.2,T*2B
20220704 060649+00:00 $GPRMC,060644,A,4932.5896,N,12638.8998,W,9.1,220,040722,12.3,E,A,V*56
20220704 060649+00:00 $WIMWV,40.9,R,19.28,N,A*1C
20220704 060651+00:00 $IIMDA,29.9,I,1.011,B,11.5,C,,C,95.1,,,C,,T,,M,,N,,M*21
20220704 060651+00:00 $HCHDT,220.5,T*2C
20220704 060651+00:00 $GPRMC,060646,A,4932.5896,N,12638.9100,W,9.1,220,040722,12.3,E,A,V*5C
20220704 060651+00:00 $WIMWV,55.1,R,19.59,N,A*16
20220704 060653+00:00 $IIMDA,29.9,I,1.011,B,11.5,C,,C,95.2,,,C,,T,,M,,N,,M*22
20220704 060653+00:00 $HCHDT,220.7,T*2E
20220704 060653+00:00 $GPRMC,060648,A,4932.5896,N,12638.9100,W,9.1,220,040722,12.3,E,A,V*52
20220704 060653+00:00 $WIMWV,42.5,R,17.59,N,A*1A
20220704 060655+00:00 $IIMDA,29.9,I,1.011,B,11.5,C,,C,95.1,,,C,,T,,M,,N,,M*21
20220704 060655+00:00 $HCHDT,220.8,T*21
20220704 060655+00:00 $GPRMC,060650,A,4932.5800,N,12638.9196,W,9.1,220,040722,12.3,E,A,V*5B
20220704 060655+00:00 $WIMWV,32.3,R,16.89,N,A*17
20220704 060657+00:00 $IIMDA,29.9,I,1.011,B,11.5,C,,C,95.2,,,C,,T,,M,,N,,M*22
20220704 060657+00:00 $HCHDT,220.6,T*2F
20220704 060657+00:00 $GPRMC,060652,A,4932.5800,N,12638.9196,W,9.1,220,040722,12.3,E,A,V*59
20220704 060657+00:00 $WIMWV,44.5,R,19.5,N,A*2B
20220704 060659+00:00 $IIMDA,29.9,I,1.011,B,11.5,C,,C,95.2,,,C,,T,,M,,N,,M*22
20220704 060659+00:00 $HCHDT,220.9,T*20
20220704 060659+00:00 $GPRMC,060654,A,4932.5698,N,12638.9298,W,9.1,220,040722,12.3,E,A,V*5D
20220704 060659+00:00 $WIMWV,44.5,R,17.79,N,A*1E
20220704 060701+00:00 $IIMDA,29.9,I,1.011,B,11.5,C,,C,95.1,,,C,,T,,M,,N,,M*21
20220704 060701+00:00 $HCHDT,220.8,T*21
20220704 060701+00:00 $GPRMC,060656,A,4932.5698,N,12638.9298,W,9.1,220,040722,12.3,E,A,V*5F
20220704 060701+00:00 $WIMWV,44.5,R,19.19,N,A*16
20220704 060703+00:00 $IIMDA,29.9,I,1.011,B,11.5,C,,C,95.2,,,C,,T,,M,,N,,M*22
20220704 060703+00:00 $HCHDT,220.9,T*20
20220704 060703+00:00 $GPRMC,060658,A,4932.5698,N,12638.9400,W,9.1,220,040722,12.3,E,A,V*56
20220704 060703+00:00 $WIMWV,48.9,R,16.79,N,A*1F
20220704 060705+00:00 $IIMDA,29.9,I,1.011,B,11.5,C,,C,95.1,,,C,,T,,M,,N,,M*21
20220704 060705+00:00 $HCHDT,220.6,T*2F
20220704 060705+00:00 $GPRMC,060700,A,4932.5596,N,12638.9400,W,9.1,220,040722,12.3,E,A,V*57
20220704 060705+00:00 $WIMWV,48.7,R,17.98,N,A*1F
20220704 060707+00:00 $IIMDA,29.9,I,1.011,B,11.5,C,,C,95.2,,,C,,T,,M,,N,,M*22
20220704 060707+00:00 $HCHDT,220.5,T*2C
20220704 060707+00:00 $GPRMC,060702,A,4932.5596,N,12638.9496,W,9.1,220,040722,12.3,E,A,V*5A
20220704 060707+00:00 $WIMWV,57.7,R,15.78,N,A*1D
20220704 060709+00:00 $IIMDA,29.9,I,1.011,B,11.5,C,,C,95.2,,,C,,T,,M,,N,,M*22
20220704 060709+00:00 $HCHDT,220.6,T*2F
20220704 060709+00:00 $GPRMC,060704,A,4932.5500,N,12638.9496,W,9.1,220,040722,12.3,E,A,V*53
20220704 060709+00:00 $WIMWV,53.19,R,20.68,N,A*21
20220704 060711+00:00 $IIMDA,29.9,I,1.011,B,11.5,C,,C,95.2,,,C,,T,,M,,N,,M*22
20220704 060711+00:00 $HCHDT,220.1,T*28
20220704 060711+00:00 $GPRMC,060706,A,4932.5500,N,12638.9598,W,9.1,220,040722,12.3,E,A,V*5E
20220704 060711+00:00 $WIMWV,51.19,R,18.8,N,A*1E
20220704 060713+00:00 $IIMDA,29.9,I,1.011,B,11.5,C,,C,95.2,,,C,,T,,M,,N,,M*22
20220704 060713+00:00 $HCHDT,220.3,T*2A
20220704 060713+00:00 $GPRMC,060708,A,4932.5500,N,12638.9598,W,9.1,220,040722,12.3,E,A,V*50
20220704 060713+00:00 $WIMWV,58.8,R,14.19,N,A*1B
20220704 060715+00:00 $IIMDA,29.9,I,1.011,B,11.5,C,,C,95.2,,,C,,T,,M,,N,,M*22
20220704 060715+00:00 $HCHDT,219.8,T*2B
20220704 060715+00:00 $GPRMC,060710,A,4932.5398,N,12638.9700,W,9.1,220,040722,12.3,E,A,V*5D
20220704 060715+00:00 $WIMWV,51.3,R,18.89,N,A*1C
20220704 060717+00:00 $IIMDA,29.9,I,1.011,B,11.5,C,,C,95.2,,,C,,T,,M,,N,,M*22
20220704 060717+00:00 $HCHDT,219.8,T*2B
20220704 060717+00:00 $GPRMC,060712,A,4932.5398,N,12638.9700,W,9.1,220,040722,12.3,E,A,V*5F
20220704 060717+00:00 $WIMWV,47.7,R,16.58,N,A*1D
20220704 060719+00:00 $IIMDA,29.9,I,1.011,B,11.5,C,,C,95.2,,,C,,T,,M,,N,,M*22
20220704 060719+00:00 $HCHDT,219.8,T*2B
20220704 060719+00:00 $GPRMC,060714,A,4932.5296,N,12638.9796,W,9.1,220,040722,12.3,E,A,V*59
20220704 060719+00:00 $WIMWV,55.9,R,17.79,N,A*12
20220704 060721+00:00 $IIMDA,29.9,I,1.011,B,11.5,C,,C,95.2,,,C,,T,,M,,N,,M*22
20220704 060721+00:00 $HCHDT,219.5,T*26
20220704 060721+00:00 $GPRMC,060716,A,4932.5296,N,12638.9796,W,9.1,220,040722,12.3,E,A,V*5B
20220704 060721+00:00 $WIMWV,53.7,R,17.59,N,A*18
20220704 060723+00:00 $IIMDA,29.9,I,1.011,B,11.5,C,,C,95.2,,,C,,T,,M,,N,,M*22
20220704 060723+00:00 $HCHDT,219.5,T*26
20220704 060723+00:00 $GPRMC,060718,A,4932.5296,N,12638.9898,W,9.1,219,040722,12.3,E,A,V*5E
20220704 060723+00:00 $WIMWV,46.99,R,15.08,N,A*2D
20220704 060725+00:00 $IIMDA,29.9,I,1.011,B,11.5,C,,C,95.2,,,C,,T,,M,,N,,M*22
20220704 060725+00:00 $HCHDT,219.2,T*21
20220704 060725+00:00 $GPRMC,060720,A,4932.5200,N,12638.9898,W,9.1,219,040722,12.3,E,A,V*5A
20220704 060725+00:00 $WIMWV,47.7,R,16.48,N,A*1C
20220704 060727+00:00 $IIMDA,29.9,I,1.011,B,11.5,C,,C,95.2,,,C,,T,,M,,N,,M*22
20220704 060727+00:00 $HCHDT,219.2,T*21
20220704 060727+00:00 $GPRMC,060722,A,4932.5200,N,12639.0000,W,9.1,219,040722,12.3,E,A,V*59
20220704 060727+00:00 $WIMWV,50.29,R,14,N,A*06
20220704 060729+00:00 $IIMDA,29.9,I,1.011,B,11.5,C,,C,95.2,,,C,,T,,M,,N,,M*22
20220704 060729+00:00 $HCHDT,219,T*3D
20220704 060729+00:00 $GPRMC,060724,A,4932.5200,N,12639.0000,W,9.1,219,040722,12.3,E,A,V*5F
20220704 060729+00:00 $WIMWV,30.6,R,16.19,N,A*19
20220704 060731+00:00 $IIMDA,29.9,I,1.011,B,11.5,C,,C,95.2,,,C,,T,,M,,N,,M*22
20220704 060731+00:00 $HCHDT,219.2,T*21
20220704 060731+00:00 $GPRMC,060726,A,4932.5098,N,12639.0096,W,9,219,040722,12.3,E,A,V*4E
20220704 060731+00:00 $WIMWV,32.5,R,17.79,N,A*1F
20220704 060733+00:00 $IIMDA,29.9,I,1.011,B,11.5,C,,C,95.2,,,C,,T,,M,,N,,M*22
20220704 060733+00:00 $HCHDT,219.2,T*21
20220704 060733+00:00 $GPRMC,060728,A,4932.5098,N,12639.0096,W,9,219,040722,12.3,E,A,V*40
20220704 060733+00:00 $WIMWV,32.9,R,18.49,N,A*1F
20220704 060735+00:00 $IIMDA,29.9,I,1.011,B,11.5,C,,C,95.3,,,C,,T,,M,,N,,M*23
20220704 060735+00:00 $HCHDT,219.8,T*2B
20220704 060735+00:00 $GPRMC,060730,A,4932.4996,N,12639.0198,W,9,219,040722,12.3,E,A,V*40
20220704 060735+00:00 $WIMWV,32.9,R,18.49,N,A*1F
20220704 060737+00:00 $IIMDA,29.9,I,1.011,B,11.5,C,,C,95.3,,,C,,T,,M,,N,,M*23
20220704 060737+00:00 $HCHDT,219.9,T*2A
20220704 060737+00:00 $GPRMC,060732,A,4932.4996,N,12639.0198,W,9,219,040722,12.3,E,A,V*42
20220704 060737+00:00 $WIMWV,31,R,19.89,N,A*06
20220704 060739+00:00 $IIMDA,29.9,I,1.011,B,11.5,C,,C,95.3,,,C,,T,,M,,N,,M*23
20220704 060739+00:00 $HCHDT,220.3,T*2A
20220704 060739+00:00 $GPRMC,060734,A,4932.4996,N,12639.0300,W,9.1,219,040722,12.3,E,A,V*58
20220704 060739+00:00 $WIMWV,31.8,R,19.5,N,A*24
20220704 060741+00:00 $IIMDA,29.9,I,1.011,B,11.6,C,,C,95.3,,,C,,T,,M,,N,,M*20
20220704 060741+00:00 $HCHDT,220.4,T*2D
20220704 060741+00:00 $GPRMC,060736,A,4932.4900,N,12639.0300,W,9.1,219,040722,12.3,E,A,V*55
20220704 060741+00:00 $WIMWV,33.2,R,17.49,N,A*1A
20220704 060743+00:00 $IIMDA,29.9,I,1.011,B,11.6,C,,C,95.4,,,C,,T,,M,,N,,M*27
20220704 060743+00:00 $HCHDT,220.9,T*20
20220704 060743+00:00 $GPRMC,060738,A,4932.4900,N,12639.0396,W,9.1,219,040722,12.3,E,A,V*54
20220704 060743+00:00 $WIMWV,39.6,R,16.99,N,A*18
20220704 060745+00:00 $IIMDA,29.9,I,1.011,B,11.6,C,,C,95.4,,,C,,T,,M,,N,,M*27
20220704 060745+00:00 $HCHDT,220.9,T*20
20220704 060745+00:00 $GPRMC,060740,A,4932.4798,N,12639.0396,W,9.1,220,040722,12.3,E,A,V*5E
20220704 060745+00:00 $WIMWV,57.2,R,17.69,N,A*1A
20220704 060747+00:00 $IIMDA,29.9,I,1.011,B,11.6,C,,C,95.4,,,C,,T,,M,,N,,M*27
20220704 060747+00:00 $HCHDT,221,T*36
20220704 060747+00:00 $GPRMC,060742,A,4932.4798,N,12639.0498,W,9,220,040722,12.3,E,A,V*4A
20220704 060747+00:00 $WIMWV,51.19,R,17.69,N,A*26
