20220704 220000+00:00 $IIMDA,29.9,I,1.014,B,11.2,C,,C,95.1,,,C,,T,,M,,N,,M*23
20220704 220000+00:00 $HCHDT,110.3,T*2A
20220704 220000+00:00 $GPRMC,215956,A,4819.6800,N,12359.2398,W,9.19,111,040722,11.9,E,A,V*6D
20220704 220000+00:00 $WIMWV,7.69,R,5.99,N,A*2E
20220704 220002+00:00 $IIMDA,29.9,I,1.014,B,11.2,C,,C,95.1,,,C,,T,,M,,N,,M*23
20220704 220002+00:00 $HCHDT,110.3,T*2A
20220704 220002+00:00 $GPRMC,215958,A,4819.6698,N,12359.2398,W,9.19,111,040722,11.9,E,A,V*6C
20220704 220002+00:00 $WIMWV,26.3,R,1.28,N,A*2F
20220704 220004+00:00 $IIMDA,29.9,I,1.014,B,11.2,C,,C,95.1,,,C,,T,,M,,N,,M*23
20220704 220004+00:00 $HCHDT,110.5,T*2C
20220704 220004+00:00 $GPRMC,220000,A,4819.6698,N,12359.2296,W,9.19,111,040722,11.9,E,A,V*61
20220704 220004+00:00 $WIMWV,341.09,R,2.8,N,A*16
20220704 220006+00:00 $IIMDA,29.9,I,1.014,B,11.2,C,,C,95.1,,,C,,T,,M,,N,,M*23
20220704 220006+00:00 $HCHDT,110.6,T*2F
20220704 220006+00:00 $GPRMC,220002,A,4819.6698,N,12359.2200,W,9.19,112,040722,11.9,E,A,V*6F
20220704 220006+00:00 $WIMWV,0.19,R,5.19,N,A*26
20220704 220008+00:00 $IIMDA,29.9,I,1.014,B,11.2,C,,C,95.1,,,C,,T,,M,,N,,M*23
20220704 220008+00:00 $HCHDT,110.3,T*2A
20220704 220008+00:00 $GPRMC,220004,A,4819.6698,N,12359.2098,W,9.19,112,040722,11.9,E,A,V*6A
20220704 220008+00:00 $WIMWV,350.89,R,5.09,N,A*28
20220704 220010+00:00 $IIMDA,29.9,I,1.014,B,11.2,C,,C,95.1,,,C,,T,,M,,N,,M*23
20220704 220010+00:00 $HCHDT,110.1,T*28
20220704 220010+00:00 $GPRMC,220006,A,4819.6698,N,12359.2098,W,9.19,112,040722,11.9,E,A,V*68
20220704 220010+00:00 $WIMWV,0.19,R,5,N,A*00
20220704 220012+00:00 $IIMDA,29.9,I,1.014,B,11.2,C,,C,95.1,,,C,,T,,M,,N,,M*23
20220704 220012+00:00 $HCHDT,110.1,T*28
20220704 220012+00:00 $GPRMC,220008,A,4819.6596,N,12359.1996,W,9.19,112,040722,11.9,E,A,V*6F
20220704 220012+00:00 $WIMWV,354.49,R,3.79,N,A*21
20220704 220014+00:00 $IIMDA,29.9,I,1.014,B,11.2,C,,C,95.1,,,C,,T,,M,,N,,M*23
20220704 220014+00:00 $HCHDT,110.2,T*2B
20220704 220014+00:00 $GPRMC,220010,A,4819.6596,N,12359.1900,W,9.19,112,040722,11.9,E,A,V*69
20220704 220014+00:00 $WIMWV,9.3,R,2.99,N,A*1B
20220704 220016+00:00 $IIMDA,29.9,I,1.014,B,11.2,C,,C,95.1,,,C,,T,,M,,N,,M*23
20220704 220016+00:00 $HCHDT,110.4,T*2D
20220704 220016+00:00 $GPRMC,220012,A,4819.6596,N,12359.1900,W,9.19,112,040722,11.9,E,A,V*6B
20220704 220016+00:00 $WIMWV,351.39,R,8.79,N,A*28
20220704 220018+00:00 $IIMDA,29.9,I,1.014,B,11.2,C,,C,95.1,,,C,,T,,M,,N,,M*23
20220704 220018+00:00 $HCHDT,110.4,T*2D
20220704 220018+00:00 $GPRMC,220014,A,4819.6596,N,12359.1798,W,9.19,112,040722,11.9,E,A,V*62
20220704 220018+00:00 $WIMWV,359.09,R,6.3,N,A*10
20220704 220020+00:00 $IIMDA,29.9,I,1.014,B,11.2,C,,C,95.1,,,C,,T,,M,,N,,M*23
20220704 220020+00:00 $HCHDT,110.2,T*2B
20220704 220020+00:00 $GPRMC,220016,A,4819.6596,N,12359.1696,W,9.19,112,040722,11.9,E,A,V*6F
20220704 220020+00:00 $WIMWV,2.4,R,3.09,N,A*1F
20220704 220022+00:00 $IIMDA,29.9,I,1.014,B,11.2,C,,C,95.1,,,C,,T,,M,,N,,M*23
20220704 220022+00:00 $HCHDT,110.1,T*28
20220704 220022+00:00 $GPRMC,220018,A,4819.6596,N,12359.1600,W,9.19,112,040722,11.9,E,A,V*6E
20220704 220022+00:00 $WIMWV,319.39,R,0.8,N,A*1A
20220704 220024+00:00 $IIMDA,29.9,I,1.014,B,11.2,C,,C,95.1,,,C,,T,,M,,N,,M*23
20220704 220024+00:00 $HCHDT,110.1,T*28
20220704 220024+00:00 $GPRMC,220020,A,4819.6500,N,12359.1600,W,9.19,112,040722,11.9,E,A,V*6A
20220704 220024+00:00 $WIMWV,6,R,1.69,N,A*05
20220704 220026+00:00 $IIMDA,29.9,I,1.014,B,11.2,C,,C,95.1,,,C,,T,,M,,N,,M*23
20220704 220026+00:00 $HCHDT,110.2,T*2B
20220704 220026+00:00 $GPRMC,220022,A,4819.6500,N,12359.1498,W,9.19,111,040722,11.9,E,A,V*68
20220704 220026+00:00 $WIMWV,4.7,R,2.49,N,A*1F
20220704 220028+00:00 $IIMDA,29.9,I,1.014,B,11.2,C,,C,95.1,,,C,,T,,M,,N,,M*23
20220704 220028+00:00 $HCHDT,110.3,T*2A
20220704 220028+00:00 $GPRMC,220024,A,4819.6500,N,12359.1396,W,9.19,111,040722,11.9,E,A,V*67
20220704 220028+00:00 $WIMWV,357.29,R,3.79,N,A*24
20220704 220030+00:00 $IIMDA,29.9,I,1.014,B,11.2,C,,C,95.1,,,C,,T,,M,,N,,M*23
20220704 220030+00:00 $HCHDT,110.2,T*2B
20220704 220030+00:00 $GPRMC,220026,A,4819.6500,N,12359.1396,W,9.19,112,040722,11.9,E,A,V*66
20220704 220030+00:00 $WIMWV,0.19,R,6.4,N,A*19
20220704 220032+00:00 $IIMDA,29.9,I,1.014,B,11.2,C,,C,95.1,,,C,,T,,M,,N,,M*23
20220704 220032+00:00 $HCHDT,110,T*37
20220704 220032+00:00 $GPRMC,220028,A,4819.6500,N,12359.1300,W,9.19,112,040722,11.9,E,A,V*67
20220704 220032+00:00 $WIMWV,341.69,R,4.39,N,A*24
20220704 220034+00:00 $IIMDA,29.9,I,1.014,B,11.2,C,,C,95.1,,,C,,T,,M,,N,,M*23
20220704 220034+00:00 $HCHDT,109.8,T*29
20220704 220034+00:00 $GPRMC,220030,A,4819.6398,N,12359.1198,W,9.19,111,040722,11.9,E,A,V*69
20220704 220034+00:00 $WIMWV,352.79,R,5,N,A*02
20220704 220036+00:00 $IIMDA,29.9,I,1.014,B,11.2,C,,C,95,,,C,,T,,M,,N,,M*3C
20220704 220036+00:00 $HCHDT,109.7,T*26
20220704 220036+00:00 $GPRMC,220032,A,4819.6398,N,12359.1096,W,9.19,111,040722,11.9,E,A,V*64
20220704 220036+00:00 $WIMWV,350.99,R,6.59,N,A*2F
20220704 220038+00:00 $IIMDA,29.9,I,1.014,B,11.2,C,,C,95.1,,,C,,T,,M,,N,,M*23
20220704 220038+00:00 $HCHDT,109.8,T*29
20220704 220038+00:00 $GPRMC,220034,A,4819.6398,N,12359.1096,W,9.19,111,040722,11.9,E,A,V*62
20220704 220038+00:00 $WIMWV,17,R,2.68,N,A*37
20220704 220040+00:00 $IIMDA,29.9,I,1.014,B,11.2,C,,C,95.1,,,C,,T,,M,,N,,M*23
20220704 220040+00:00 $HCHDT,109.9,T*28
20220704 220040+00:00 $GPRMC,220036,A,4819.6398,N,12359.1000,W,9.19,111,040722,11.9,E,A,V*6F
20220704 220040+00:00 $WIMWV,345.09,R,5.6,N,A*1B
20220704 220042+00:00 $IIMDA,29.9,I,1.014,B,11.2,C,,C,95,,,C,,T,,M,,N,,M*3C
20220704 220042+00:00 $HCHDT,109.8,T*29
20220704 220042+00:00 $GPRMC,220038,A,4819.6398,N,12359.0898,W,9.19,111,040722,11.9,E,A,V*69
20220704 220042+00:00 $WIMWV,5.9,R,2.29,N,A*16
20220704 220044+00:00 $IIMDA,29.9,I,1.014,B,11.2,C,,C,95.1,,,C,,T,,M,,N,,M*23
20220704 220044+00:00 $HCHDT,109.7,T*26
20220704 220044+00:00 $GPRMC,220040,A,4819.6296,N,12359.0898,W,9.19,111,040722,11.9,E,A,V*69
20220704 220044+00:00 $WIMWV,350.89,R,4.08,N,A*28
20220704 220046+00:00 $IIMDA,29.9,I,1.014,B,11.2,C,,C,95.1,,,C,,T,,M,,N,,M*23
20220704 220046+00:00 $HCHDT,109.5,T*24
20220704 220046+00:00 $GPRMC,220042,A,4819.6296,N,12359.0796,W,9.19,111,040722,11.9,E,A,V*6A
20220704 220046+00:00 $WIMWV,0.19,R,2.29,N,A*22
20220704 220048+00:00 $IIMDA,29.9,I,1.014,B,11.2,C,,C,95.1,,,C,,T,,M,,N,,M*23
20220704 220048+00:00 $HCHDT,109.2,T*23
20220704 220048+00:00 $GPRMC,220044,A,4819.6296,N,12359.0700,W,9.19,111,040722,11.9,E,A,V*63
20220704 220048+00:00 $WIMWV,336.29,R,1.59,N,A*23
20220704 220050+00:00 $IIMDA,29.9,I,1.014,B,11.2,C,,C,95,,,C,,T,,M,,N,,M*3C
20220704 220050+00:00 $HCHDT,109.2,T*23
20220704 220050+00:00 $GPRMC,220046,A,4819.6296,N,12359.0598,W,9.19,111,040722,11.9,E,A,V*62
20220704 220050+00:00 $WIMWV,326.39,R,2.1,N,A*1D
20220704 220052+00:00 $IIMDA,29.9,I,1.014,B,11.2,C,,C,95.1,,,C,,T,,M,,N,,M*23
20220704 220052+00:00 $HCHDT,109.3,T*22
20220704 220052+00:00 $GPRMC,220048,A,4819.6296,N,12359.0598,W,9.19,111,040722,11.9,E,A,V*6C
20220704 220052+00:00 $WIMWV,269.99,R,0.19,N,A*26
20220704 220054+00:00 $IIMDA,29.9,I,1.014,B,11.2,C,,C,95.1,,,C,,T,,M,,N,,M*23
20220704 220054+00:00 $HCHDT,109.5,T*24
20220704 220054+00:00 $GPRMC,220050,A,4819.6296,N,12359.0496,W,9.19,111,040722,11.9,E,A,V*6A
20220704 220054+00:00 $WIMWV,348.19,R,3.6,N,A*11
20220704 220056+00:00 $IIMDA,29.9,I,1.014,B,11.2,C,,C,95.1,,,C,,T,,M,,N,,M*23
20220704 220056+00:00 $HCHDT,109.7,T*26
20220704 220056+00:00 $GPRMC,220052,A,4819.6200,N,12359.0400,W,9.19,111,040722,11.9,E,A,V*68
20220704 220056+00:00 $WIMWV,356.29,R,5.6,N,A*1B
20220704 220058+00:00 $IIMDA,29.9,I,1.014,B,11.2,C,,C,95.1,,,C,,T,,M,,N,,M*23
20220704 220058+00:00 $HCHDT,109.9,T*28
20220704 220058+00:00 $GPRMC,220054,A,4819.6200,N,12359.0400,W,9.19,111,040722,11.9,E,A,V*6E
20220704 220058+00:00 $WIMWV,10.2,R,4.39,N,A*2E
20220704 220100+00:00 $IIMDA,29.9,I,1.014,B,11.2,C,,C,95.1,,,C,,T,,M,,N,,M*23
20220704 220100+00:00 $HCHDT,110,T*37
20220704 220100+00:00 $GPRMC,220056,A,4819.6200,N,12359.0298,W,9.19,111,040722,11.9,E,A,V*6B
20220704 220100+00:00 $WIMWV,340.19,R,3.38,N,A*24
20220704 220102+00:00 $IIMDA,29.9,I,1.014,B,11.2,C,,C,95.1,,,C,,T,,M,,N,,M*23
20220704 220102+00:00 $HCHDT,110,T*37
20220704 220102+00:00 $GPRMC,220058,A,4819.6200,N,12359.0196,W,9.19,111,040722,11.9,E,A,V*68
20220704 220102+00:00 $WIMWV,5.3,R,2.2,N,A*25
20220704 220104+00:00 $IIMDA,29.9,I,1.014,B,11.2,C,,C,95.1,,,C,,T,,M,,N,,M*23
20220704 220104+00:00 $HCHDT,110.1,T*28
20220704 220104+00:00 $GPRMC,220100,A,4819.6200,N,12359.0100,W,9.19,111,040722,11.9,E,A,V*6B
20220704 220104+00:00 $WIMWV,346.39,R,4.08,N,A*24
20220704 220106+00:00 $IIMDA,29.9,I,1.014,B,11.2,C,,C,95.1,,,C,,T,,M,,N,,M*23
20220704 220106+00:00 $HCHDT,110.3,T*2A
20220704 220106+00:00 $GPRMC,220102,A,4819.6098,N,12359.0100,W,9.19,111,040722,11.9,E,A,V*6A
20220704 220106+00:00 $WIMWV,0.19,R,6.08,N,A*25
20220704 220108+00:00 $IIMDA,29.9,I,1.014,B,11.2,C,,C,95.1,,,C,,T,,M,,N,,M*23
20220704 220108+00:00 $HCHDT,110.6,T*2F
20220704 220108+00:00 $GPRMC,220104,A,4819.6098,N,12358.9998,W,9.19,111,040722,11.9,E,A,V*6D
20220704 220108+00:00 $WIMWV,346.29,R,2.8,N,A*13
20220704 220110+00:00 $IIMDA,29.9,I,1.014,B,11.2,C,,C,95.1,,,C,,T,,M,,N,,M*23
20220704 220110+00:00 $HCHDT,110.8,T*21
20220704 220110+00:00 $GPRMC,220106,A,4819.6098,N,12358.9896,W,9.19,111,040722,11.9,E,A,V*60
20220704 220110+00:00 $WIMWV,354.29,R,4.59,N,A*22
20220704 220112+00:00 $IIMDA,29.9,I,1.014,B,11.2,C,,C,95.1,,,C,,T,,M,,N,,M*23
20220704 220112+00:00 $HCHDT,110.7,T*2E
20220704 220112+00:00 $GPRMC,220108,A,4819.6098,N,12358.9896,W,9.19,112,040722,11.9,E,A,V*6D
20220704 220112+00:00 $WIMWV,2.8,R,3.79,N,A*14
20220704 220114+00:00 $IIMDA,29.9,I,1.014,B,11.2,C,,C,95.1,,,C,,T,,M,,N,,M*23
20220704 220114+00:00 $HCHDT,110.4,T*2D
20220704 220114+00:00 $GPRMC,220110,A,4819.6098,N,12358.9800,W,9.19,112,040722,11.9,E,A,V*6B
20220704 220114+00:00 $WIMWV,2.3,R,5.6,N,A*21
20220704 220116+00:00 $IIMDA,29.9,I,1.014,B,11.2,C,,C,95.1,,,C,,T,,M,,N,,M*23
20220704 220116+00:00 $HCHDT,110.4,T*2D
20220704 220116+00:00 $GPRMC,220112,A,4819.6098,N,12358.9698,W,9.19,112,040722,11.9,E,A,V*66
20220704 220116+00:00 $WIMWV,1.7,R,7.19,N,A*1A
20220704 220118+00:00 $IIMDA,29.9,I,1.014,B,11.2,C,,C,95,,,C,,T,,M,,N,,M*3C
20220704 220118+00:00 $HCHDT,110.4,T*2D
20220704 220118+00:00 $GPRMC,220114,A,4819.5996,N,12358.9596,W,9.19,112,040722,11.9,E,A,V*69
20220704 220118+00:00 $WIMWV,358.69,R,3.6,N,A*17
20220704 220120+00:00 $IIMDA,29.9,I,1.014,B,11.2,C,,C,95,,,C,,T,,M,,N,,M*3C
20220704 220120+00:00 $HCHDT,110.6,T*2F
20220704 220120+00:00 $GPRMC,220116,A,4819.5996,N,12358.9596,W,9.19,112,040722,11.9,E,A,V*6B
20220704 220120+00:00 $WIMWV,15.8,R,3.6,N,A*1A
20220704 220122+00:00 $IIMDA,29.9,I,1.014,B,11.2,C,,C,95,,,C,,T,,M,,N,,M*3C
20220704 220122+00:00 $HCHDT,110.8,T*21
20220704 220122+00:00 $GPRMC,220118,A,4819.5996,N,12358.9500,W,9.19,112,040722,11.9,E,A,V*6A
20220704 220122+00:00 $WIMWV,333.09,R,2.39,N,A*21
20220704 220124+00:00 $IIMDA,29.9,I,1.014,B,11.2,C,,C,95,,,C,,T,,M,,N,,M*3C
20220704 220124+00:00 $HCHDT,110.4,T*2D
20220704 220124+00:00 $GPRMC,220120,A,4819.5996,N,12358.9398,W,9.19,112,040722,11.9,E,A,V*66
20220704 220124+00:00 $WIMWV,1.5,R,8.59,N,A*13
20220704 220126+00:00 $IIMDA,29.9,I,1.014,B,11.2,C,,C,95,,,C,,T,,M,,N,,M*3C
20220704 220126+00:00 $HCHDT,110,T*37
20220704 220126+00:00 $GPRMC,220122,A,4819.5996,N,12358.9398,W,9.19,112,040722,11.9,E,A,V*64
20220704 220126+00:00 $WIMWV,10.2,R,6.3,N,A*15
20220704 220128+00:00 $IIMDA,29.9,I,1.014,B,11.2,C,,C,95,,,C,,T,,M,,N,,M*3C
20220704 220128+00:00 $HCHDT,109.7,T*26
20220704 220128+00:00 $GPRMC,220124,A,4819.5900,N,12358.9296,W,9.19,112,040722,11.9,E,A,V*62
20220704 220128+00:00 $WIMWV,85,R,4.68,N,A*3A
20220704 220130+00:00 $IIMDA,29.9,I,1.014,B,11.2,C,,C,95,,,C,,T,,M,,N,,M*3C
20220704 220130+00:00 $HCHDT,109.8,T*29
20220704 220130+00:00 $GPRMC,220126,A,4819.5900,N,12358.9200,W,9.19,112,040722,11.9,E,A,V*6F
20220704 220130+00:00 $WIMWV,302.59,R,1.09,N,A*26
20220704 220132+00:00 $IIMDA,29.9,I,1.014,B,11.2,C,,C,95,,,C,,T,,M,,N,,M*3C
20220704 220132+00:00 $HCHDT,109.9,T*28
20220704 220132+00:00 $GPRMC,220128,A,4819.5900,N,12358.9098,W,9.19,111,040722,11.9,E,A,V*61
20220704 220132+00:00 $WIMWV,301.89,R,1.4,N,A*15
20220704 220134+00:00 $IIMDA,29.9,I,1.014,B,11.2,C,,C,95,,,C,,T,,M,,N,,M*3C
20220704 220134+00:00 $HCHDT,110,T*37
20220704 220134+00:00 $GPRMC,220130,A,4819.5900,N,12358.9098,W,9.19,111,040722,11.9,E,A,V*68
20220704 220134+00:00 $WIMWV,329.49,R,2.1,N,A*15
20220704 220136+00:00 $IIMDA,29.9,I,1.014,B,11.2,C,,C,95,,,C,,T,,M,,N,,M*3C
20220704 220136+00:00 $HCHDT,109.9,T*28
20220704 220136+00:00 $GPRMC,220132,A,4819.5900,N,12358.8996,W,9.19,111,040722,11.9,E,A,V*6C
20220704 220136+00:00 $WIMWV,22.69,R,2.68,N,A*10
20220704 220138+00:00 $IIMDA,29.9,I,1.014,B,11.2,C,,C,95,,,C,,T,,M,,N,,M*3C
20220704 220138+00:00 $HCHDT,109.7,T*26
20220704 220138+00:00 $GPRMC,220134,A,4819.5798,N,12358.8900,W,9.19,111,040722,11.9,E,A,V*6A
20220704 220138+00:00 $WIMWV,330.69,R,3.09,N,A*26
20220704 220140+00:00 $IIMDA,29.9,I,1.014,B,11.2,C,,C,95,,,C,,T,,M,,N,,M*3C
20220704 220140+00:00 $HCHDT,109.5,T*24
20220704 220140+00:00 $GPRMC,220136,A,4819.5798,N,12358.8900,W,9.19,111,040722,11.9,E,A,V*68
20220704 220140+00:00 $WIMWV,332.69,R,2.2,N,A*1E
20220704 220142+00:00 $IIMDA,29.9,I,1.014,B,11.2,C,,C,95,,,C,,T,,M,,N,,M*3C
20220704 220142+00:00 $HCHDT,109.4,T*25
20220704 220142+00:00 $GPRMC,220138,A,4819.5798,N,12358.8798,W,9.19,111,040722,11.9,E,A,V*69
20220704 220142+00:00 $WIMWV,0.19,R,4.78,N,A*20
20220704 220144+00:00 $IIMDA,29.9,I,1.014,B,11.2,C,,C,95,,,C,,T,,M,,N,,M*3C
20220704 220144+00:00 $HCHDT,109.7,T*26
20220704 220144+00:00 $GPRMC,220140,A,4819.5798,N,12358.8696,W,9.19,111,040722,11.9,E,A,V*69
20220704 220144+00:00 $WIMWV,349.39,R,3.98,N,A*25
20220704 220146+00:00 $IIMDA,29.9,I,1.014,B,11.2,C,,C,95,,,C,,T,,M,,N,,M*3C
20220704 220146+00:00 $HCHDT,109.9,T*28
20220704 220146+00:00 $GPRMC,220142,A,4819.5798,N,12358.8600,W,9.19,111,040722,11.9,E,A,V*64
20220704 220146+00:00 $WIMWV,347.19,R,4.49,N,A*22
20220704 220148+00:00 $IIMDA,29.9,I,1.014,B,11.2,C,,C,94.9,,,C,,T,,M,,N,,M*2A
20220704 220148+00:00 $HCHDT,110,T*37
20220704 220148+00:00 $GPRMC,220144,A,4819.5798,N,12358.8600,W,9.19,111,040722,11.9,E,A,V*62
20220704 220148+00:00 $WIMWV,3.4,R,3.6,N,A*21
20220704 220150+00:00 $IIMDA,29.9,I,1.014,B,11.2,C,,C,94.9,,,C,,T,,M,,N,,M*2A
20220704 220150+00:00 $HCHDT,110.1,T*28
20220704 220150+00:00 $GPRMC,220146,A,4819.5696,N,12358.8498,W,9.19,111,040722,11.9,E,A,V*6C
20220704 220150+00:00 $WIMWV,357.19,R,3.09,N,A*20
20220704 220152+00:00 $IIMDA,29.9,I,1.014,B,11.2,C,,C,94.9,,,C,,T,,M,,N,,M*2A
20220704 220152+00:00 $HCHDT,110.1,T*28
20220704 220152+00:00 $GPRMC,220148,A,4819.5696,N,12358.8396,W,9.19,111,040722,11.9,E,A,V*6B
20220704 220152+00:00 $WIMWV,349.99,R,2.8,N,A*17
20220704 220154+00:00 $IIMDA,29.9,I,1.014,B,11.2,C,,C,94.9,,,C,,T,,M,,N,,M*2A
20220704 220154+00:00 $HCHDT,110,T*37
20220704 220154+00:00 $GPRMC,220150,A,4819.5696,N,12358.8396,W,9.19,111,040722,11.9,E,A,V*62
20220704 220154+00:00 $WIMWV,4.1,R,3.6,N,A*23
20220704 220156+00:00 $IIMDA,29.9,I,1.014,B,11.2,C,,C,94.9,,,C,,T,,M,,N,,M*2A
20220704 220156+00:00 $HCHDT,110.1,T*28
20220704 220156+00:00 $GPRMC,220152,A,4819.5696,N,12358.8300,W,9.19,111,040722,11.9,E,A,V*6F
20220704 220156+00:00 $WIMWV,328.49,R,2.2,N,A*17
20220704 220158+00:00 $IIMDA,29.9,I,1.014,B,11.2,C,,C,94.9,,,C,,T,,M,,N,,M*2A
20220704 220158+00:00 $HCHDT,110,T*37
20220704 220158+00:00 $GPRMC,220154,A,4819.5696,N,12358.8198,W,9.19,111,040722,11.9,E,A,V*6A
20220704 220158+00:00 $WIMWV,336.49,R,2.8,N,A*12
20220704 220200+00:00 $IIMDA,29.9,I,1.014,B,11.2,C,,C,94.9,,,C,,T,,M,,N,,M*2A
20220704 220200+00:00 $HCHDT,110.1,T*28
20220704 220200+00:00 $GPRMC,220156,A,4819.5600,N,12358.8096,W,9.19,111,040722,11.9,E,A,V*68
20220704 220200+00:00 $WIMWV,3.6,R,3.29,N,A*1E
20220704 220202+00:00 $IIMDA,29.9,I,1.014,B,11.2,C,,C,94.9,,,C,,T,,M,,N,,M*2A
20220704 220202+00:00 $HCHDT,110.1,T*28
20220704 220202+00:00 $GPRMC,220158,A,4819.5600,N,12358.8096,W,9.19,111,040722,11.9,E,A,V*66
20220704 220202+00:00 $WIMWV,336.69,R,1.69,N,A*24
20220704 220204+00:00 $IIMDA,29.9,I,1.014,B,11.2,C,,C,94.9,,,C,,T,,M,,N,,M*2A
20220704 220204+00:00 $HCHDT,110.1,T*28
20220704 220204+00:00 $GPRMC,220200,A,4819.5600,N,12358.8000,W,9.19,111,040722,11.9,E,A,V*67
20220704 220204+00:00 $WIMWV,325.39,R,2.49,N,A*22
20220704 220206+00:00 $IIMDA,29.9,I,1.014,B,11.2,C,,C,94.9,,,C,,T,,M,,N,,M*2A
20220704 220206+00:00 $HCHDT,110.2,T*2B
20220704 220206+00:00 $GPRMC,220202,A,4819.5600,N,12358.7898,W,9.19,111,040722,11.9,E,A,V*63
20220704 220206+00:00 $WIMWV,3.1,R,2.8,N,A*2B
20220704 220208+00:00 $IIMDA,29.9,I,1.014,B,11.2,C,,C,94.9,,,C,,T,,M,,N,,M*2A
20220704 220208+00:00 $HCHDT,110.2,T*2B
20220704 220208+00:00 $GPRMC,220204,A,4819.5600,N,12358.7898,W,9.19,111,040722,11.9,E,A,V*65
20220704 220208+00:00 $WIMWV,335.89,R,3.29,N,A*2F
20220704 220210+00:00 $IIMDA,29.9,I,1.014,B,11.2,C,,C,94.9,,,C,,T,,M,,N,,M*2A
20220704 220210+00:00 $HCHDT,110.3,T*2A
20220704 220210+00:00 $GPRMC,220206,A,4819.5600,N,12358.7796,W,9.19,111,040722,11.9,E,A,V*66
20220704 220210+00:00 $WIMWV,353.59,R,3.89,N,A*28
20220704 220212+00:00 $IIMDA,29.9,I,1.014,B,11.2,C,,C,94.9,,,C,,T,,M,,N,,M*2A
20220704 220212+00:00 $HCHDT,110.2,T*2B
20220704 220212+00:00 $GPRMC,220208,A,4819.5498,N,12358.7700,W,9.19,111,040722,11.9,E,A,V*64
20220704 220212+00:00 $WIMWV,351.99,R,1.98,N,A*24
20220704 220214+00:00 $IIMDA,29.9,I,1.014,B,11.2,C,,C,94.9,,,C,,T,,M,,N,,M*2A
20220704 220214+00:00 $HCHDT,110.1,T*28
20220704 220214+00:00 $GPRMC,220210,A,4819.5498,N,12358.7598,W,9.19,111,040722,11.9,E,A,V*6E
20220704 220214+00:00 $WIMWV,354.89,R,2.49,N,A*2F
20220704 220216+00:00 $IIMDA,29.9,I,1.014,B,11.2,C,,C,94.9,,,C,,T,,M,,N,,M*2A
20220704 220216+00:00 $HCHDT,110.2,T*2B
20220704 220216+00:00 $GPRMC,220212,A,4819.5498,N,12358.7598,W,9.19,111,040722,11.9,E,A,V*6C
20220704 220216+00:00 $WIMWV,11.6,R,1.5,N,A*11
20220704 220218+00:00 $IIMDA,29.9,I,1.014,B,11.2,C,,C,94.9,,,C,,T,,M,,N,,M*2A
20220704 220218+00:00 $HCHDT,110.2,T*2B
20220704 220218+00:00 $GPRMC,220214,A,4819.5498,N,12358.7496,W,9.19,111,040722,11.9,E,A,V*65
20220704 220218+00:00 $WIMWV,4.7,R,5.48,N,A*19
20220704 220220+00:00 $IIMDA,29.9,I,1.014,B,11.2,C,,C,94.9,,,C,,T,,M,,N,,M*2A
20220704 220220+00:00 $HCHDT,110.3,T*2A
20220704 220220+00:00 $GPRMC,220216,A,4819.5498,N,12358.7400,W,9.19,111,040722,11.9,E,A,V*68
20220704 220220+00:00 $WIMWV,12.99,R,3.29,N,A*18
20220704 220222+00:00 $IIMDA,29.9,I,1.014,B,11.2,C,,C,94.9,,,C,,T,,M,,N,,M*2A
20220704 220222+00:00 $HCHDT,110.4,T*2D
20220704 220222+00:00 $GPRMC,220218,A,4819.5396,N,12358.7400,W,9.19,111,040722,11.9,E,A,V*6F
20220704 220222+00:00 $WIMWV,350.79,R,4.39,N,A*25
20220704 220224+00:00 $IIMDA,29.9,I,1.014,B,11.2,C,,C,94.9,,,C,,T,,M,,N,,M*2A
20220704 220224+00:00 $HCHDT,110.4,T*2D
20220704 220224+00:00 $GPRMC,220220,A,4819.5396,N,12358.7298,W,9.19,111,040722,11.9,E,A,V*63
20220704 220224+00:00 $WIMWV,336.69,R,3.09,N,A*20
20220704 220226+00:00 $IIMDA,29.9,I,1.014,B,11.2,C,,C,94.8,,,C,,T,,M,,N,,M*2B
20220704 220226+00:00 $HCHDT,110.3,T*2A
20220704 220226+00:00 $GPRMC,220222,A,4819.5396,N,12358.7196,W,9.19,111,040722,11.9,E,A,V*6C
20220704 220226+00:00 $WIMWV,345.09,R,3.38,N,A*20
20220704 220228+00:00 $IIMDA,29.9,I,1.014,B,11.2,C,,C,94.9,,,C,,T,,M,,N,,M*2A
20220704 220228+00:00 $HCHDT,110.2,T*2B
20220704 220228+00:00 $GPRMC,220224,A,4819.5396,N,12358.7100,W,9.19,111,040722,11.9,E,A,V*65
20220704 220228+00:00 $WIMWV,351.69,R,5.89,N,A*2F
20220704 220230+00:00 $IIMDA,29.9,I,1.014,B,11.2,C,,C,94.9,,,C,,T,,M,,N,,M*2A
20220704 220230+00:00 $HCHDT,110.2,T*2B
20220704 220230+00:00 $GPRMC,220226,A,4819.5396,N,12358.7100,W,9.29,112,040722,11.9,E,A,V*67
20220704 220230+00:00 $WIMWV,335.09,R,1.4,N,A*1A
20220704 220232+00:00 $IIMDA,29.9,I,1.014,B,11.2,C,,C,94.9,,,C,,T,,M,,N,,M*2A
20220704 220232+00:00 $HCHDT,110.2,T*2B
20220704 220232+00:00 $GPRMC,220228,A,4819.5300,N,12358.6998,W,9.19,112,040722,11.8,E,A,V*6C
20220704 220232+00:00 $WIMWV,4.5,R,2.9,N,A*29
20220704 220234+00:00 $IIMDA,29.9,I,1.014,B,11.2,C,,C,94.9,,,C,,T,,M,,N,,M*2A
20220704 220234+00:00 $HCHDT,110.3,T*2A
20220704 220234+00:00 $GPRMC,220230,A,4819.5300,N,12358.6896,W,9.19,112,040722,11.8,E,A,V*6A
20220704 220234+00:00 $WIMWV,330.59,R,1.69,N,A*21
20220704 220236+00:00 $IIMDA,29.9,I,1.014,B,11.2,C,,C,94.9,,,C,,T,,M,,N,,M*2A
20220704 220236+00:00 $HCHDT,110.4,T*2D
20220704 220236+00:00 $GPRMC,220232,A,4819.5300,N,12358.6896,W,9.19,112,040722,11.8,E,A,V*68
20220704 220236+00:00 $WIMWV,0.19,R,2.68,N,A*27
20220704 220238+00:00 $IIMDA,29.9,I,1.014,B,11.2,C,,C,94.9,,,C,,T,,M,,N,,M*2A
20220704 220238+00:00 $HCHDT,110.4,T*2D
20220704 220238+00:00 $GPRMC,220234,A,4819.5300,N,12358.6800,W,9.19,112,040722,11.8,E,A,V*61
20220704 220238+00:00 $WIMWV,359.19,R,4.39,N,A*2A
20220704 220240+00:00 $IIMDA,29.9,I,1.014,B,11.2,C,,C,94.9,,,C,,T,,M,,N,,M*2A
20220704 220240+00:00 $HCHDT,110.3,T*2A
20220704 220240+00:00 $GPRMC,220236,A,4819.5300,N,12358.6698,W,9.19,112,040722,11.8,E,A,V*6C
20220704 220240+00:00 $WIMWV,0.8,R,6.88,N,A*1D
20220704 220242+00:00 $IIMDA,29.9,I,1.014,B,11.2,C,,C,94.9,,,C,,T,,M,,N,,M*2A
20220704 220242+00:00 $HCHDT,110.2,T*2B
20220704 220242+00:00 $GPRMC,220238,A,4819.5300,N,12358.6596,W,9.29,112,040722,11.8,E,A,V*6C
20220704 220242+00:00 $WIMWV,294.49,R,0.89,N,A*20
20220704 220244+00:00 $IIMDA,29.9,I,1.014,B,11.2,C,,C,94.9,,,C,,T,,M,,N,,M*2A
20220704 220244+00:00 $HCHDT,110.2,T*2B
20220704 220244+00:00 $GPRMC,220240,A,4819.5198,N,12358.6596,W,9.29,112,040722,11.8,E,A,V*60
20220704 220244+00:00 $WIMWV,356.89,R,3.5,N,A*14
20220704 220246+00:00 $IIMDA,29.9,I,1.014,B,11.2,C,,C,94.9,,,C,,T,,M,,N,,M*2A
20220704 220246+00:00 $HCHDT,110.4,T*2D
20220704 220246+00:00 $GPRMC,220242,A,4819.5198,N,12358.6500,W,9.29,112,040722,11.8,E,A,V*6D
20220704 220246+00:00 $WIMWV,355.19,R,4.39,N,A*26
20220704 220248+00:00 $IIMDA,29.9,I,1.014,B,11.2,C,,C,94.9,,,C,,T,,M,,N,,M*2A
20220704 220248+00:00 $HCHDT,110.4,T*2D
20220704 220248+00:00 $GPRMC,220244,A,4819.5198,N,12358.6398,W,9.19,112,040722,11.8,E,A,V*6F
20220704 220248+00:00 $WIMWV,344.19,R,2.68,N,A*24
20220704 220250+00:00 $IIMDA,29.9,I,1.014,B,11.2,C,,C,94.9,,,C,,T,,M,,N,,M*2A
20220704 220250+00:00 $HCHDT,110.3,T*2A
20220704 220250+00:00 $GPRMC,220246,A,4819.5198,N,12358.6398,W,9.19,112,040722,11.8,E,A,V*6D
20220704 220250+00:00 $WIMWV,350.19,R,2.99,N,A*2F
20220704 220252+00:00 $IIMDA,29.9,I,1.014,B,11.2,C,,C,94.9,,,C,,T,,M,,N,,M*2A
20220704 220252+00:00 $HCHDT,110.2,T*2B
20220704 220252+00:00 $GPRMC,220248,A,4819.5198,N,12358.6296,W,9.19,112,040722,11.8,E,A,V*6C
20220704 220252+00:00 $WIMWV,347.49,R,5.79,N,A*25
20220704 220254+00:00 $IIMDA,29.9,I,1.014,B,11.2,C,,C,94.9,,,C,,T,,M,,N,,M*2A
20220704 220254+00:00 $HCHDT,110.1,T*28
20220704 220254+00:00 $GPRMC,220250,A,4819.5096,N,12358.6200,W,9.19,112,040722,11.8,E,A,V*65
20220704 220254+00:00 $WIMWV,356.29,R,6.08,N,A*26
20220704 220256+00:00 $IIMDA,29.9,I,1.014,B,11.2,C,,C,94.9,,,C,,T,,M,,N,,M*2A
20220704 220256+00:00 $HCHDT,110,T*37
20220704 220256+00:00 $GPRMC,220252,A,4819.5096,N,12358.6098,W,9.29,112,040722,11.8,E,A,V*67
20220704 220256+00:00 $WIMWV,345.79,R,4.08,N,A*23
20220704 220258+00:00 $IIMDA,29.9,I,1.014,B,11.2,C,,C,94.9,,,C,,T,,M,,N,,M*2A
20220704 220258+00:00 $HCHDT,110,T*37
20220704 220258+00:00 $GPRMC,220254,A,4819.5096,N,12358.6098,W,9.29,112,040722,11.8,E,A,V*61
20220704 220258+00:00 $WIMWV,322.69,R,2.39,N,A*27
20220704 220300+00:00 $IIMDA,29.9,I,1.014,B,11.2,C,,C,94.9,,,C,,T,,M,,N,,M*2A
20220704 220300+00:00 $HCHDT,110.2,T*2B
20220704 220300+00:00 $GPRMC,220256,A,4819.5096,N,12358.5996,W,9.29,112,040722,11.8,E,A,V*67
20220704 220300+00:00 $WIMWV,339.19,R,3.29,N,A*2A
20220704 220302+00:00 $IIMDA,29.9,I,1.014,B,11.2,C,,C,94.9,,,C,,T,,M,,N,,M*2A
20220704 220302+00:00 $HCHDT,110.2,T*2B
20220704 220302+00:00 $GPRMC,220258,A,4819.5096,N,12358.5900,W,9.29,112,040722,11.8,E,A,V*66
20220704 220302+00:00 $WIMWV,345.89,R,1.09,N,A*28
20220704 220304+00:00 $IIMDA,29.9,I,1.014,B,11.2,C,,C,94.9,,,C,,T,,M,,N,,M*2A
20220704 220304+00:00 $HCHDT,110.4,T*2D
20220704 220304+00:00 $GPRMC,220300,A,4819.5000,N,12358.5900,W,9.19,112,040722,11.8,E,A,V*66
20220704 220304+00:00 $WIMWV,7.69,R,5.89,N,A*2F
20220704 220306+00:00 $IIMDA,29.9,I,1.014,B,11.2,C,,C,94.9,,,C,,T,,M,,N,,M*2A
20220704 220306+00:00 $HCHDT,110.3,T*2A
20220704 220306+00:00 $GPRMC,220302,A,4819.5000,N,12358.5798,W,9.19,112,040722,11.8,E,A,V*6B
20220704 220306+00:00 $WIMWV,351.89,R,5.29,N,A*2B
20220704 220308+00:00 $IIMDA,29.9,I,1.014,B,11.2,C,,C,94.9,,,C,,T,,M,,N,,M*2A
20220704 220308+00:00 $HCHDT,110.2,T*2B
20220704 220308+00:00 $GPRMC,220304,A,4819.5000,N,12358.5696,W,9.19,112,040722,11.8,E,A,V*62
20220704 220308+00:00 $WIMWV,329.19,R,1.79,N,A*2C
20220704 220310+00:00 $IIMDA,29.9,I,1.014,B,11.2,C,,C,94.9,,,C,,T,,M,,N,,M*2A
20220704 220310+00:00 $HCHDT,110.3,T*2A
20220704 220310+00:00 $GPRMC,220306,A,4819.5000,N,12358.5600,W,9.29,112,040722,11.8,E,A,V*6C
20220704 220310+00:00 $WIMWV,3.29,R,4.68,N,A*21
20220704 220312+00:00 $IIMDA,29.9,I,1.014,B,11.2,C,,C,94.9,,,C,,T,,M,,N,,M*2A
20220704 220312+00:00 $HCHDT,110.3,T*2A
20220704 220312+00:00 $GPRMC,220308,A,4819.5000,N,12358.5600,W,9.29,112,040722,11.8,E,A,V*62
20220704 220312+00:00 $WIMWV,296.89,R,0.89,N,A*2E
20220704 220314+00:00 $IIMDA,29.9,I,1.014,B,11.2,C,,C,94.9,,,C,,T,,M,,N,,M*2A
20220704 220314+00:00 $HCHDT,110.3,T*2A
20220704 220314+00:00 $GPRMC,220310,A,4819.4898,N,12358.5498,W,9.29,112,040722,11.8,E,A,V*60
20220704 220314+00:00 $WIMWV,341.59,R,2.68,N,A*25
20220704 220316+00:00 $IIMDA,29.9,I,1.014,B,11.2,C,,C,94.8,,,C,,T,,M,,N,,M*2B
20220704 220316+00:00 $HCHDT,110.3,T*2A
20220704 220316+00:00 $GPRMC,220312,A,4819.4898,N,12358.5396,W,9.29,112,040722,11.8,E,A,V*6B
20220704 220316+00:00 $WIMWV,349.69,R,1.89,N,A*22
20220704 220318+00:00 $IIMDA,29.9,I,1.014,B,11.2,C,,C,94.9,,,C,,T,,M,,N,,M*2A
20220704 220318+00:00 $HCHDT,110.2,T*2B
20220704 220318+00:00 $GPRMC,220314,A,4819.4898,N,12358.5396,W,9.19,112,040722,11.8,E,A,V*6E
20220704 220318+00:00 $WIMWV,354.39,R,2.39,N,A*23
20220704 220320+00:00 $IIMDA,29.9,I,1.014,B,11.2,C,,C,94.8,,,C,,T,,M,,N,,M*2B
20220704 220320+00:00 $HCHDT,110.2,T*2B
20220704 220320+00:00 $GPRMC,220316,A,4819.4898,N,12358.5300,W,9.19,112,040722,11.8,E,A,V*63
20220704 220320+00:00 $WIMWV,350.89,R,2.29,N,A*2D
20220704 220322+00:00 $IIMDA,29.9,I,1.014,B,11.2,C,,C,94.8,,,C,,T,,M,,N,,M*2B
20220704 220322+00:00 $HCHDT,110.1,T*28
20220704 220322+00:00 $GPRMC,220318,A,4819.4898,N,12358.5198,W,9.19,112,040722,11.8,E,A,V*6E
20220704 220322+00:00 $WIMWV,5.4,R,5.38,N,A*1C
20220704 220324+00:00 $IIMDA,29.9,I,1.014,B,11.2,C,,C,94.8,,,C,,T,,M,,N,,M*2B
20220704 220324+00:00 $HCHDT,110.2,T*2B
20220704 220324+00:00 $GPRMC,220320,A,4819.4796,N,12358.5096,W,9.19,112,040722,11.8,E,A,V*6B
20220704 220324+00:00 $WIMWV,11.1,R,3.29,N,A*2A
20220704 220326+00:00 $IIMDA,29.9,I,1.014,B,11.2,C,,C,94.8,,,C,,T,,M,,N,,M*2B
20220704 220326+00:00 $HCHDT,110.1,T*28
20220704 220326+00:00 $GPRMC,220322,A,4819.4796,N,12358.5096,W,9.29,112,040722,11.8,E,A,V*6A
20220704 220326+00:00 $WIMWV,351.99,R,2.8,N,A*1E
20220704 220328+00:00 $IIMDA,29.9,I,1.014,B,11.2,C,,C,94.8,,,C,,T,,M,,N,,M*2B
20220704 220328+00:00 $HCHDT,110.1,T*28
20220704 220328+00:00 $GPRMC,220324,A,4819.4796,N,12358.5000,W,9.29,112,040722,11.8,E,A,V*63
20220704 220328+00:00 $WIMWV,357.49,R,3.6,N,A*1A
20220704 220330+00:00 $IIMDA,29.9,I,1.014,B,11.2,C,,C,94.8,,,C,,T,,M,,N,,M*2B
20220704 220330+00:00 $HCHDT,110.1,T*28
20220704 220330+00:00 $GPRMC,220326,A,4819.4796,N,12358.4898,W,9.29,112,040722,11.8,E,A,V*69
20220704 220330+00:00 $WIMWV,356.19,R,3.19,N,A*20
20220704 220332+00:00 $IIMDA,29.9,I,1.014,B,11.2,C,,C,94.8,,,C,,T,,M,,N,,M*2B
20220704 220332+00:00 $HCHDT,110,T*37
20220704 220332+00:00 $GPRMC,220328,A,4819.4796,N,12358.4898,W,9.19,112,040722,11.8,E,A,V*64
20220704 220332+00:00 $WIMWV,337.69,R,5,N,A*00
20220704 220334+00:00 $IIMDA,29.9,I,1.014,B,11.2,C,,C,94.8,,,C,,T,,M,,N,,M*2B
20220704 220334+00:00 $HCHDT,110,T*37
20220704 220334+00:00 $GPRMC,220330,A,4819.4796,N,12358.4796,W,9.19,112,040722,11.8,E,A,V*6C
20220704 220334+00:00 $WIMWV,350.89,R,2.8,N,A*1E
20220704 220336+00:00 $IIMDA,29.9,I,1.014,B,11.2,C,,C,94.8,,,C,,T,,M,,N,,M*2B
20220704 220336+00:00 $HCHDT,110.2,T*2B
20220704 220336+00:00 $GPRMC,220332,A,4819.4700,N,12358.4700,W,9.19,112,040722,11.8,E,A,V*6E
20220704 220336+00:00 $WIMWV,4.7,R,4.9,N,A*2D
20220704 220338+00:00 $IIMDA,29.9,I,1.014,B,11.2,C,,C,94.8,,,C,,T,,M,,N,,M*2B
20220704 220338+00:00 $HCHDT,110.2,T*2B
20220704 220338+00:00 $GPRMC,220334,A,4819.4700,N,12358.4598,W,9.19,112,040722,11.8,E,A,V*6B
20220704 220338+00:00 $WIMWV,355.39,R,4.9,N,A*17
20220704 220340+00:00 $IIMDA,29.9,I,1.014,B,11.2,C,,C,94.8,,,C,,T,,M,,N,,M*2B
20220704 220340+00:00 $HCHDT,110.2,T*2B
20220704 220340+00:00 $GPRMC,220336,A,4819.4700,N,12358.4598,W,9.29,112,040722,11.8,E,A,V*6A
20220704 220340+00:00 $WIMWV,352.49,R,5.99,N,A*2F
20220704 220342+00:00 $IIMDA,29.9,I,1.014,B,11.2,C,,C,94.8,,,C,,T,,M,,N,,M*2B
20220704 220342+00:00 $HCHDT,110,T*37
20220704 220342+00:00 $GPRMC,220338,A,4819.4700,N,12358.4496,W,9.29,112,040722,11.8,E,A,V*6B
20220704 220342+00:00 $WIMWV,1.8,R,6.08,N,A*14
20220704 220344+00:00 $IIMDA,29.9,I,1.014,B,11.2,C,,C,94.8,,,C,,T,,M,,N,,M*2B
20220704 220344+00:00 $HCHDT,109.9,T*28
20220704 220344+00:00 $GPRMC,220340,A,4819.4700,N,12358.4400,W,9.29,112,040722,11.8,E,A,V*6B
20220704 220344+00:00 $WIMWV,350.09,R,2.9,N,A*17
20220704 220346+00:00 $IIMDA,29.9,I,1.014,B,11.2,C,,C,94.8,,,C,,T,,M,,N,,M*2B
20220704 220346+00:00 $HCHDT,109.8,T*29
20220704 220346+00:00 $GPRMC,220342,A,4819.4598,N,12358.4400,W,9.19,112,040722,11.8,E,A,V*69
20220704 220346+00:00 $WIMWV,335.59,R,5.7,N,A*18
20220704 220348+00:00 $IIMDA,29.9,I,1.014,B,11.2,C,,C,94.8,,,C,,T,,M,,N,,M*2B
20220704 220348+00:00 $HCHDT,110,T*37
20220704 220348+00:00 $GPRMC,220344,A,4819.4598,N,12358.4298,W,9.19,112,040722,11.8,E,A,V*68
20220704 220348+00:00 $WIMWV,345.09,R,3.09,N,A*22
20220704 220350+00:00 $IIMDA,29.9,I,1.014,B,11.2,C,,C,94.8,,,C,,T,,M,,N,,M*2B
20220704 220350+00:00 $HCHDT,110.1,T*28
20220704 220350+00:00 $GPRMC,220346,A,4819.4598,N,12358.4196,W,9.19,112,040722,11.8,E,A,V*67
20220704 220350+00:00 $WIMWV,0.19,R,4.78,N,A*20
20220704 220352+00:00 $IIMDA,29.9,I,1.014,B,11.2,C,,C,94.8,,,C,,T,,M,,N,,M*2B
20220704 220352+00:00 $HCHDT,110.2,T*2B
20220704 220352+00:00 $GPRMC,220348,A,4819.4598,N,12358.4100,W,9.19,112,040722,11.8,E,A,V*66
20220704 220352+00:00 $WIMWV,356.89,R,5.38,N,A*2C
20220704 220354+00:00 $IIMDA,29.9,I,1.014,B,11.2,C,,C,94.8,,,C,,T,,M,,N,,M*2B
20220704 220354+00:00 $HCHDT,110,T*37
20220704 220354+00:00 $GPRMC,220350,A,4819.4598,N,12358.4100,W,9.29,112,040722,11.8,E,A,V*6C
20220704 220354+00:00 $WIMWV,6.1,R,6.69,N,A*1D
20220704 220356+00:00 $IIMDA,29.9,I,1.014,B,11.2,C,,C,94.8,,,C,,T,,M,,N,,M*2B
20220704 220356+00:00 $HCHDT,109.8,T*29
20220704 220356+00:00 $GPRMC,220352,A,4819.4496,N,12358.3998,W,9.29,112,040722,11.8,E,A,V*6F
20220704 220356+00:00 $WIMWV,338.79,R,5.19,N,A*28
20220704 220358+00:00 $IIMDA,29.9,I,1.014,B,11.2,C,,C,94.8,,,C,,T,,M,,N,,M*2B
20220704 220358+00:00 $HCHDT,109.6,T*27
20220704 220358+00:00 $GPRMC,220354,A,4819.4496,N,12358.3896,W,9.29,112,040722,11.8,E,A,V*66
20220704 220358+00:00 $WIMWV,351.99,R,6.49,N,A*2F
20220704 220400+00:00 $IIMDA,29.9,I,1.014,B,11.2,C,,C,94.8,,,C,,T,,M,,N,,M*2B
20220704 220400+00:00 $HCHDT,109.8,T*29
20220704 220400+00:00 $GPRMC,220356,A,4819.4496,N,12358.3896,W,9.29,112,040722,11.8,E,A,V*64
20220704 220400+00:00 $WIMWV,349.39,R,5.48,N,A*2E
20220704 220402+00:00 $IIMDA,29.9,I,1.014,B,11.2,C,,C,94.8,,,C,,T,,M,,N,,M*2B
20220704 220402+00:00 $HCHDT,109.9,T*28
20220704 220402+00:00 $GPRMC,220358,A,4819.4496,N,12358.3800,W,9.19,112,040722,11.8,E,A,V*66
20220704 220402+00:00 $WIMWV,2.6,R,4.9,N,A*2A
20220704 220404+00:00 $IIMDA,29.9,I,1.014,B,11.2,C,,C,94.8,,,C,,T,,M,,N,,M*2B
20220704 220404+00:00 $HCHDT,109.9,T*28
20220704 220404+00:00 $GPRMC,220400,A,4819.4496,N,12358.3698,W,9.19,112,040722,11.8,E,A,V*63
20220704 220404+00:00 $WIMWV,7,R,5.99,N,A*0F
20220704 220406+00:00 $IIMDA,29.9,I,1.014,B,11.2,C,,C,94.8,,,C,,T,,M,,N,,M*2B
20220704 220406+00:00 $HCHDT,109.9,T*28
20220704 220406+00:00 $GPRMC,220402,A,4819.4400,N,12358.3596,W,9.19,112,040722,11.8,E,A,V*63
20220704 220406+00:00 $WIMWV,3.8,R,5,N,A*33
20220704 220408+00:00 $IIMDA,29.9,I,1.014,B,11.2,C,,C,94.7,,,C,,T,,M,,N,,M*24
20220704 220408+00:00 $HCHDT,109.7,T*26
20220704 220408+00:00 $GPRMC,220404,A,4819.4400,N,12358.3596,W,9.19,112,040722,11.8,E,A,V*65
20220704 220408+00:00 $WIMWV,357.19,R,5.79,N,A*21
20220704 220410+00:00 $IIMDA,29.9,I,1.014,B,11.2,C,,C,94.8,,,C,,T,,M,,N,,M*2B
20220704 220410+00:00 $HCHDT,109.6,T*27
20220704 220410+00:00 $GPRMC,220406,A,4819.4400,N,12358.3500,W,9.29,112,040722,11.8,E,A,V*6B
20220704 220410+00:00 $WIMWV,8.3,R,3.19,N,A*13
20220704 220412+00:00 $IIMDA,29.9,I,1.014,B,11.2,C,,C,94.8,,,C,,T,,M,,N,,M*2B
20220704 220412+00:00 $HCHDT,109.7,T*26
20220704 220412+00:00 $GPRMC,220408,A,4819.4400,N,12358.3398,W,9.29,112,040722,11.8,E,A,V*62
20220704 220412+00:00 $WIMWV,346.29,R,3.69,N,A*25
20220704 220414+00:00 $IIMDA,29.9,I,1.014,B,11.2,C,,C,94.8,,,C,,T,,M,,N,,M*2B
20220704 220414+00:00 $HCHDT,109.9,T*28
20220704 220414+00:00 $GPRMC,220410,A,4819.4400,N,12358.3398,W,9.19,112,040722,11.8,E,A,V*68
20220704 220414+00:00 $WIMWV,342.59,R,1.19,N,A*23
20220704 220416+00:00 $IIMDA,29.9,I,1.014,B,11.2,C,,C,94.8,,,C,,T,,M,,N,,M*2B
20220704 220416+00:00 $HCHDT,110.2,T*2B
20220704 220416+00:00 $GPRMC,220412,A,4819.4298,N,12358.3296,W,9.19,112,040722,11.8,E,A,V*62
20220704 220416+00:00 $WIMWV,350.19,R,5.6,N,A*1E
20220704 220418+00:00 $IIMDA,29.9,I,1.014,B,11.2,C,,C,94.8,,,C,,T,,M,,N,,M*2B
20220704 220418+00:00 $HCHDT,110.5,T*2C
20220704 220418+00:00 $GPRMC,220414,A,4819.4298,N,12358.3200,W,9.19,112,040722,11.8,E,A,V*6B
20220704 220418+00:00 $WIMWV,359.59,R,7.89,N,A*26
20220704 220420+00:00 $IIMDA,29.9,I,1.014,B,11.2,C,,C,94.8,,,C,,T,,M,,N,,M*2B
20220704 220420+00:00 $HCHDT,110.7,T*2E
20220704 220420+00:00 $GPRMC,220416,A,4819.4298,N,12358.3098,W,9.19,112,040722,11.8,E,A,V*6A
20220704 220420+00:00 $WIMWV,344.39,R,4.08,N,A*26
20220704 220422+00:00 $IIMDA,29.9,I,1.014,B,11.2,C,,C,94.8,,,C,,T,,M,,N,,M*2B
20220704 220422+00:00 $HCHDT,110.8,T*21
20220704 220422+00:00 $GPRMC,220418,A,4819.4298,N,12358.3098,W,9.19,112,040722,11.8,E,A,V*64
20220704 220422+00:00 $WIMWV,345.09,R,2.2,N,A*18
20220704 220424+00:00 $IIMDA,29.9,I,1.014,B,11.2,C,,C,94.8,,,C,,T,,M,,N,,M*2B
20220704 220424+00:00 $HCHDT,110.9,T*20
20220704 220424+00:00 $GPRMC,220420,A,4819.4298,N,12358.2996,W,9.19,113,040722,11.8,E,A,V*68
20220704 220424+00:00 $WIMWV,338.49,R,3.98,N,A*24
20220704 220426+00:00 $IIMDA,29.9,I,1.014,B,11.2,C,,C,94.7,,,C,,T,,M,,N,,M*24
20220704 220426+00:00 $HCHDT,111.1,T*29
20220704 220426+00:00 $GPRMC,220422,A,4819.4196,N,12358.2900,W,9.19,113,040722,11.8,E,A,V*68
20220704 220426+00:00 $WIMWV,347.69,R,3.89,N,A*2E
20220704 220428+00:00 $IIMDA,29.9,I,1.014,B,11.2,C,,C,94.8,,,C,,T,,M,,N,,M*2B
20220704 220428+00:00 $HCHDT,111.3,T*2B
20220704 220428+00:00 $GPRMC,220424,A,4819.4196,N,12358.2900,W,9.19,113,040722,11.8,E,A,V*6E
20220704 220428+00:00 $WIMWV,328.49,R,2.8,N,A*1D
20220704 220430+00:00 $IIMDA,29.9,I,1.014,B,11.2,C,,C,94.8,,,C,,T,,M,,N,,M*2B
20220704 220430+00:00 $HCHDT,111.3,T*2B
20220704 220430+00:00 $GPRMC,220426,A,4819.4196,N,12358.2798,W,9.19,113,040722,11.8,E,A,V*63
20220704 220430+00:00 $WIMWV,1.6,R,7.39,N,A*19
20220704 220432+00:00 $IIMDA,29.9,I,1.014,B,11.2,C,,C,94.8,,,C,,T,,M,,N,,M*2B
20220704 220432+00:00 $HCHDT,111.1,T*29
20220704 220432+00:00 $GPRMC,220428,A,4819.4196,N,12358.2696,W,9.19,113,040722,11.8,E,A,V*62
20220704 220432+00:00 $WIMWV,357.19,R,5.48,N,A*23
20220704 220434+00:00 $IIMDA,29.9,I,1.014,B,11.2,C,,C,94.8,,,C,,T,,M,,N,,M*2B
20220704 220434+00:00 $HCHDT,110.5,T*2C
20220704 220434+00:00 $GPRMC,220430,A,4819.4196,N,12358.2600,W,9.19,113,040722,11.8,E,A,V*64
20220704 220434+00:00 $WIMWV,358.09,R,4.2,N,A*12
20220704 220436+00:00 $IIMDA,29.9,I,1.014,B,11.2,C,,C,94.7,,,C,,T,,M,,N,,M*24
20220704 220436+00:00 $HCHDT,110.2,T*2B
20220704 220436+00:00 $GPRMC,220432,A,4819.4100,N,12358.2600,W,9.29,113,040722,11.8,E,A,V*6A
20220704 220436+00:00 $WIMWV,342.59,R,2.99,N,A*28
20220704 220438+00:00 $IIMDA,29.9,I,1.014,B,11.2,C,,C,94.8,,,C,,T,,M,,N,,M*2B
20220704 220438+00:00 $HCHDT,110.1,T*28
20220704 220438+00:00 $GPRMC,220434,A,4819.4100,N,12358.2498,W,9.29,113,040722,11.8,E,A,V*6F
20220704 220438+00:00 $WIMWV,7.1,R,1.89,N,A*15
20220704 220440+00:00 $IIMDA,29.9,I,1.014,B,11.2,C,,C,94.8,,,C,,T,,M,,N,,M*2B
20220704 220440+00:00 $HCHDT,110.2,T*2B
20220704 220440+00:00 $GPRMC,220436,A,4819.4100,N,12358.2396,W,9.29,113,040722,11.8,E,A,V*64
20220704 220440+00:00 $WIMWV,331.59,R,2.59,N,A*20
20220704 220442+00:00 $IIMDA,29.9,I,1.014,B,11.2,C,,C,94.7,,,C,,T,,M,,N,,M*24
20220704 220442+00:00 $HCHDT,110.3,T*2A
20220704 220442+00:00 $GPRMC,220438,A,4819.4100,N,12358.2396,W,9.29,113,040722,11.8,E,A,V*6A
20220704 220442+00:00 $WIMWV,357.29,R,4.3,N,A*1E
20220704 220444+00:00 $IIMDA,29.9,I,1.014,B,11.2,C,,C,94.8,,,C,,T,,M,,N,,M*2B
20220704 220444+00:00 $HCHDT,110.2,T*2B
20220704 220444+00:00 $GPRMC,220440,A,4819.4100,N,12358.2300,W,9.19,113,040722,11.8,E,A,V*69
20220704 220444+00:00 $WIMWV,353.59,R,2.59,N,A*24
20220704 220446+00:00 $IIMDA,29.9,I,1.014,B,11.2,C,,C,94.7,,,C,,T,,M,,N,,M*24
20220704 220446+00:00 $HCHDT,110.1,T*28
20220704 220446+00:00 $GPRMC,220442,A,4819.3998,N,12358.2198,W,9.19,113,040722,11.8,E,A,V*66
20220704 220446+00:00 $WIMWV,3.4,R,4.08,N,A*18
20220704 220448+00:00 $IIMDA,29.9,I,1.014,B,11.2,C,,C,94.7,,,C,,T,,M,,N,,M*24
20220704 220448+00:00 $HCHDT,110,T*37
20220704 220448+00:00 $GPRMC,220444,A,4819.3998,N,12358.2096,W,9.29,112,040722,11.8,E,A,V*6D
20220704 220448+00:00 $WIMWV,353.19,R,1.4,N,A*1B
20220704 220450+00:00 $IIMDA,29.9,I,1.014,B,11.2,C,,C,94.7,,,C,,T,,M,,N,,M*24
20220704 220450+00:00 $HCHDT,110,T*37
20220704 220450+00:00 $GPRMC,220446,A,4819.3998,N,12358.2096,W,9.29,112,040722,11.8,E,A,V*6F
20220704 220450+00:00 $WIMWV,10.5,R,2.39,N,A*2F
20220704 220452+00:00 $IIMDA,29.9,I,1.014,B,11.2,C,,C,94.7,,,C,,T,,M,,N,,M*24
20220704 220452+00:00 $HCHDT,110.2,T*2B
20220704 220452+00:00 $GPRMC,220448,A,4819.3998,N,12358.2000,W,9.29,112,040722,11.8,E,A,V*6E
20220704 220452+00:00 $WIMWV,289.19,R,1.89,N,A*28
20220704 220454+00:00 $IIMDA,29.9,I,1.014,B,11.2,C,,C,94.7,,,C,,T,,M,,N,,M*24
20220704 220454+00:00 $HCHDT,110.6,T*2F
20220704 220454+00:00 $GPRMC,220450,A,4819.3998,N,12358.1898,W,9.29,112,040722,11.8,E,A,V*6D
20220704 220454+00:00 $WIMWV,355.89,R,4.39,N,A*2F
20220704 220456+00:00 $IIMDA,29.9,I,1.014,B,11.2,C,,C,94.7,,,C,,T,,M,,N,,M*24
20220704 220456+00:00 $HCHDT,110.6,T*2F
20220704 220456+00:00 $GPRMC,220452,A,4819.3896,N,12358.1898,W,9.19,112,040722,11.8,E,A,V*63
20220704 220456+00:00 $WIMWV,354.29,R,6.08,N,A*24
20220704 220458+00:00 $IIMDA,29.9,I,1.014,B,11.2,C,,C,94.7,,,C,,T,,M,,N,,M*24
20220704 220458+00:00 $HCHDT,110.5,T*2C
20220704 220458+00:00 $GPRMC,220454,A,4819.3896,N,12358.1796,W,9.19,112,040722,11.8,E,A,V*64
20220704 220458+00:00 $WIMWV,350.79,R,2.9,N,A*10
20220704 220500+00:00 $IIMDA,29.9,I,1.014,B,11.2,C,,C,94.7,,,C,,T,,M,,N,,M*24
20220704 220500+00:00 $HCHDT,110.3,T*2A
20220704 220500+00:00 $GPRMC,220456,A,4819.3896,N,12358.1700,W,9.19,112,040722,11.8,E,A,V*69
20220704 220500+00:00 $WIMWV,347.19,R,2.39,N,A*23
20220704 220502+00:00 $IIMDA,29.9,I,1.014,B,11.2,C,,C,94.7,,,C,,T,,M,,N,,M*24
20220704 220502+00:00 $HCHDT,110.4,T*2D
20220704 220502+00:00 $GPRMC,220458,A,4819.3896,N,12358.1700,W,9.19,112,040722,11.8,E,A,V*67
20220704 220502+00:00 $WIMWV,352.49,R,8.49,N,A*2F
20220704 220504+00:00 $IIMDA,29.9,I,1.014,B,11.2,C,,C,94.7,,,C,,T,,M,,N,,M*24
20220704 220504+00:00 $HCHDT,110.7,T*2E
20220704 220504+00:00 $GPRMC,220500,A,4819.3896,N,12358.1598,W,9.19,112,040722,11.8,E,A,V*68
20220704 220504+00:00 $WIMWV,8.5,R,6.18,N,A*11
20220704 220506+00:00 $IIMDA,29.9,I,1.014,B,11.2,C,,C,94.7,,,C,,T,,M,,N,,M*24
20220704 220506+00:00 $HCHDT,110.8,T*21
20220704 220506+00:00 $GPRMC,220502,A,4819.3896,N,12358.1496,W,9.19,112,040722,11.8,E,A,V*65
20220704 220506+00:00 $WIMWV,343.49,R,5.19,N,A*27
20220704 220508+00:00 $IIMDA,29.9,I,1.014,B,11.2,C,,C,94.7,,,C,,T,,M,,N,,M*24
20220704 220508+00:00 $HCHDT,110.7,T*2E
20220704 220508+00:00 $GPRMC,220504,A,4819.3800,N,12358.1400,W,9.19,112,040722,11.8,E,A,V*63
20220704 220508+00:00 $WIMWV,3.1,R,5,N,A*3A
20220704 220510+00:00 $IIMDA,29.9,I,1.014,B,11.2,C,,C,94.7,,,C,,T,,M,,N,,M*24
20220704 220510+00:00 $HCHDT,110.6,T*2F
20220704 220510+00:00 $GPRMC,220506,A,4819.3800,N,12358.1400,W,9.19,112,040722,11.8,E,A,V*61
20220704 220510+00:00 $WIMWV,0.19,R,0.99,N,A*2B
20220704 220512+00:00 $IIMDA,29.9,I,1.014,B,11.2,C,,C,94.7,,,C,,T,,M,,N,,M*24
20220704 220512+00:00 $HCHDT,110.2,T*2B
20220704 220512+00:00 $GPRMC,220508,A,4819.3800,N,12358.1298,W,9.19,112,040722,11.8,E,A,V*68
20220704 220512+00:00 $WIMWV,327.69,R,5.09,N,A*26
20220704 220514+00:00 $IIMDA,29.9,I,1.014,B,11.2,C,,C,94.7,,,C,,T,,M,,N,,M*24
20220704 220514+00:00 $HCHDT,110.1,T*28
20220704 220514+00:00 $GPRMC,220510,A,4819.3800,N,12358.1196,W,9.19,112,040722,11.8,E,A,V*6C
20220704 220514+00:00 $WIMWV,336.29,R,0.8,N,A*16
20220704 220516+00:00 $IIMDA,29.9,I,1.014,B,11.2,C,,C,94.7,,,C,,T,,M,,N,,M*24
20220704 220516+00:00 $HCHDT,110.2,T*2B
20220704 220516+00:00 $GPRMC,220512,A,4819.3800,N,12358.1196,W,9.19,112,040722,11.8,E,A,V*6E
20220704 220516+00:00 $WIMWV,357.49,R,4.2,N,A*19
20220704 220518+00:00 $IIMDA,29.9,I,1.014,B,11.2,C,,C,94.7,,,C,,T,,M,,N,,M*24
20220704 220518+00:00 $HCHDT,110.4,T*2D
20220704 220518+00:00 $GPRMC,220514,A,4819.3698,N,12358.1100,W,9.19,112,040722,11.8,E,A,V*68
20220704 220518+00:00 $WIMWV,355.49,R,2.39,N,A*25
20220704 220520+00:00 $IIMDA,29.9,I,1.014,B,11.2,C,,C,94.7,,,C,,T,,M,,N,,M*24
20220704 220520+00:00 $HCHDT,110.5,T*2C
20220704 220520+00:00 $GPRMC,220516,A,4819.3698,N,12358.0998,W,9.29,112,040722,11.8,E,A,V*61
20220704 220520+00:00 $WIMWV,269.99,R,0.8,N,A*16
20220704 220522+00:00 $IIMDA,29.9,I,1.014,B,11.2,C,,C,94.7,,,C,,T,,M,,N,,M*24
20220704 220522+00:00 $HCHDT,110.4,T*2D
20220704 220522+00:00 $GPRMC,220518,A,4819.3698,N,12358.0896,W,9.29,112,040722,11.8,E,A,V*60
20220704 220522+00:00 $WIMWV,8.79,R,5.29,N,A*2B
20220704 220524+00:00 $IIMDA,29.9,I,1.014,B,11.2,C,,C,94.6,,,C,,T,,M,,N,,M*25
20220704 220524+00:00 $HCHDT,110.3,T*2A
20220704 220524+00:00 $GPRMC,220520,A,4819.3698,N,12358.0896,W,9.19,112,040722,11.8,E,A,V*68
20220704 220524+00:00 $WIMWV,346.99,R,2.39,N,A*2A
20220704 220526+00:00 $IIMDA,29.9,I,1.014,B,11.2,C,,C,94.7,,,C,,T,,M,,N,,M*24
20220704 220526+00:00 $HCHDT,110.2,T*2B
20220704 220526+00:00 $GPRMC,220522,A,4819.3698,N,12358.0800,W,9.19,112,040722,11.8,E,A,V*65
20220704 220526+00:00 $WIMWV,327.29,R,1.89,N,A*2E
20220704 220528+00:00 $IIMDA,29.9,I,1.014,B,11.2,C,,C,94.7,,,C,,T,,M,,N,,M*24
20220704 220528+00:00 $HCHDT,110.4,T*2D
20220704 220528+00:00 $GPRMC,220524,A,4819.3596,N,12358.0698,W,9.19,112,040722,11.8,E,A,V*61
20220704 220528+00:00 $WIMWV,349.29,R,3.79,N,A*2B
20220704 220530+00:00 $IIMDA,29.9,I,1.014,B,11.2,C,,C,94.7,,,C,,T,,M,,N,,M*24
20220704 220530+00:00 $HCHDT,110.4,T*2D
20220704 220530+00:00 $GPRMC,220526,A,4819.3596,N,12358.0698,W,9.19,112,040722,11.8,E,A,V*63
20220704 220530+00:00 $WIMWV,358.89,R,4.08,N,A*20
20220704 220532+00:00 $IIMDA,29.9,I,1.014,B,11.2,C,,C,94.7,,,C,,T,,M,,N,,M*24
20220704 220532+00:00 $HCHDT,110.6,T*2F
20220704 220532+00:00 $GPRMC,220528,A,4819.3596,N,12358.0596,W,9.19,112,040722,11.8,E,A,V*60
20220704 220532+00:00 $WIMWV,0.19,R,2.29,N,A*22
20220704 220534+00:00 $IIMDA,29.9,I,1.014,B,11.2,C,,C,94.7,,,C,,T,,M,,N,,M*24
20220704 220534+00:00 $HCHDT,110.7,T*2E
20220704 220534+00:00 $GPRMC,220530,A,4819.3596,N,12358.0500,W,9.29,112,040722,11.8,E,A,V*65
20220704 220534+00:00 $WIMWV,357.09,R,3.6,N,A*1E
20220704 220536+00:00 $IIMDA,29.9,I,1.014,B,11.2,C,,C,94.7,,,C,,T,,M,,N,,M*24
20220704 220536+00:00 $HCHDT,110.6,T*2F
20220704 220536+00:00 $GPRMC,220532,A,4819.3596,N,12358.0398,W,9.29,112,040722,11.8,E,A,V*60
20220704 220536+00:00 $WIMWV,0.19,R,1.89,N,A*2B
20220704 220538+00:00 $IIMDA,29.9,I,1.014,B,11.2,C,,C,94.7,,,C,,T,,M,,N,,M*24
20220704 220538+00:00 $HCHDT,110.5,T*2C
20220704 220538+00:00 $GPRMC,220534,A,4819.3500,N,12358.0398,W,9.19,112,040722,11.8,E,A,V*6A
20220704 220538+00:00 $WIMWV,350.89,R,3.89,N,A*26
20220704 220540+00:00 $IIMDA,29.9,I,1.014,B,11.2,C,,C,94.7,,,C,,T,,M,,N,,M*24
20220704 220540+00:00 $HCHDT,110.3,T*2A
20220704 220540+00:00 $GPRMC,220536,A,4819.3500,N,12358.0296,W,9.19,112,040722,11.8,E,A,V*67
20220704 220540+00:00 $WIMWV,351.79,R,3.98,N,A*28
20220704 220542+00:00 $IIMDA,29.9,I,1.014,B,11.2,C,,C,94.7,,,C,,T,,M,,N,,M*24
20220704 220542+00:00 $HCHDT,110.2,T*2B
20220704 220542+00:00 $GPRMC,220538,A,4819.3500,N,12358.0200,W,9.19,112,040722,11.8,E,A,V*66
20220704 220542+00:00 $WIMWV,357.89,R,4.59,N,A*2B
20220704 220544+00:00 $IIMDA,29.9,I,1.014,B,11.2,C,,C,94.7,,,C,,T,,M,,N,,M*24
20220704 220544+00:00 $HCHDT,110.2,T*2B
20220704 220544+00:00 $GPRMC,220540,A,4819.3500,N,12358.0200,W,9.19,112,040722,11.8,E,A,V*69
20220704 220544+00:00 $WIMWV,350.69,R,2.29,N,A*23
20220704 220546+00:00 $IIMDA,29.9,I,1.014,B,11.2,C,,C,94.7,,,C,,T,,M,,N,,M*24
20220704 220546+00:00 $HCHDT,110.3,T*2A
20220704 220546+00:00 $GPRMC,220542,A,4819.3500,N,12358.0098,W,9.19,112,040722,11.8,E,A,V*68
20220704 220546+00:00 $WIMWV,337.99,R,1.69,N,A*2A
20220704 220548+00:00 $IIMDA,29.9,I,1.014,B,11.2,C,,C,94.7,,,C,,T,,M,,N,,M*24
20220704 220548+00:00 $HCHDT,110.2,T*2B
20220704 220548+00:00 $GPRMC,220544,A,4819.3398,N,12357.9996,W,9.29,112,040722,11.8,E,A,V*6B
20220704 220548+00:00 $WIMWV,227.99,R,1.09,N,A*2C
20220704 220550+00:00 $IIMDA,29.9,I,1.014,B,11.2,C,,C,94.7,,,C,,T,,M,,N,,M*24
20220704 220550+00:00 $HCHDT,110,T*37
20220704 220550+00:00 $GPRMC,220546,A,4819.3398,N,12357.9900,W,9.29,112,040722,11.8,E,A,V*66
20220704 220550+00:00 $WIMWV,357.29,R,4.39,N,A*27
20220704 220552+00:00 $IIMDA,29.9,I,1.014,B,11.2,C,,C,94.7,,,C,,T,,M,,N,,M*24
20220704 220552+00:00 $HCHDT,109.9,T*28
20220704 220552+00:00 $GPRMC,220548,A,4819.3398,N,12357.9900,W,9.19,112,040722,11.8,E,A,V*6B
20220704 220552+00:00 $WIMWV,350.49,R,1.89,N,A*28
20220704 220554+00:00 $IIMDA,29.9,I,1.014,B,11.2,C,,C,94.7,,,C,,T,,M,,N,,M*24
20220704 220554+00:00 $HCHDT,110,T*37
20220704 220554+00:00 $GPRMC,220550,A,4819.3398,N,12357.9798,W,9.19,112,040722,11.8,E,A,V*6D
20220704 220554+00:00 $WIMWV,351.39,R,2.59,N,A*20
20220704 220556+00:00 $IIMDA,29.9,I,1.014,B,11.2,C,,C,94.7,,,C,,T,,M,,N,,M*24
20220704 220556+00:00 $HCHDT,110.3,T*2A
20220704 220556+00:00 $GPRMC,220552,A,4819.3398,N,12357.9696,W,9.19,112,040722,11.8,E,A,V*60
20220704 220556+00:00 $WIMWV,260.89,R,1.28,N,A*2D
20220704 220558+00:00 $IIMDA,29.9,I,1.014,B,11.2,C,,C,94.7,,,C,,T,,M,,N,,M*24
20220704 220558+00:00 $HCHDT,110.5,T*2C
20220704 220558+00:00 $GPRMC,220554,A,4819.3296,N,12357.9696,W,9.19,112,040722,11.8,E,A,V*69
20220704 220558+00:00 $WIMWV,269.99,R,0.39,N,A*24
20220704 220600+00:00 $IIMDA,29.9,I,1.014,B,11.2,C,,C,94.7,,,C,,T,,M,,N,,M*24
20220704 220600+00:00 $HCHDT,110.5,T*2C
20220704 220600+00:00 $GPRMC,220556,A,4819.3296,N,12357.9600,W,9.19,112,040722,11.8,E,A,V*64
20220704 220600+00:00 $WIMWV,344.99,R,4.49,N,A*29
20220704 220602+00:00 $IIMDA,29.9,I,1.014,B,11.2,C,,C,94.8,,,C,,T,,M,,N,,M*2B
20220704 220602+00:00 $HCHDT,110.4,T*2D
20220704 220602+00:00 $GPRMC,220558,A,4819.3296,N,12357.9498,W,9.19,112,040722,11.8,E,A,V*69
20220704 220602+00:00 $WIMWV,32.9,R,2.49,N,A*24
20220704 220604+00:00 $IIMDA,29.9,I,1.014,B,11.2,C,,C,94.7,,,C,,T,,M,,N,,M*24
20220704 220604+00:00 $HCHDT,110.2,T*2B
20220704 220604+00:00 $GPRMC,220600,A,4819.3296,N,12357.9396,W,9.19,112,040722,11.8,E,A,V*6E
20220704 220604+00:00 $WIMWV,5.6,R,6.49,N,A*1B
20220704 220606+00:00 $IIMDA,29.9,I,1.014,B,11.2,C,,C,94.7,,,C,,T,,M,,N,,M*24
20220704 220606+00:00 $HCHDT,110,T*37
20220704 220606+00:00 $GPRMC,220602,A,4819.3296,N,12357.9396,W,9.19,112,040722,11.8,E,A,V*6C
20220704 220606+00:00 $WIMWV,342.09,R,2.8,N,A*15
20220704 220608+00:00 $IIMDA,29.9,I,1.014,B,11.2,C,,C,94.7,,,C,,T,,M,,N,,M*24
20220704 220608+00:00 $HCHDT,110,T*37
20220704 220608+00:00 $GPRMC,220604,A,4819.3296,N,12357.9300,W,9.19,112,040722,11.8,E,A,V*65
20220704 220608+00:00 $WIMWV,336.09,R,2.29,N,A*25
20220704 220610+00:00 $IIMDA,29.9,I,1.014,B,11.2,C,,C,94.7,,,C,,T,,M,,N,,M*24
20220704 220610+00:00 $HCHDT,110.2,T*2B
20220704 220610+00:00 $GPRMC,220606,A,4819.3200,N,12357.9198,W,9.19,112,040722,11.8,E,A,V*6B
20220704 220610+00:00 $WIMWV,328.89,R,0.39,N,A*21
20220704 220612+00:00 $IIMDA,29.9,I,1.014,B,11.2,C,,C,94.7,,,C,,T,,M,,N,,M*24
20220704 220612+00:00 $HCHDT,110.2,T*2B
20220704 220612+00:00 $GPRMC,220608,A,4819.3200,N,12357.9198,W,9.19,112,040722,11.8,E,A,V*65
20220704 220612+00:00 $WIMWV,358.19,R,3.38,N,A*2D
20220704 220614+00:00 $IIMDA,29.9,I,1.014,B,11.2,C,,C,94.7,,,C,,T,,M,,N,,M*24
20220704 220614+00:00 $HCHDT,110,T*37
20220704 220614+00:00 $GPRMC,220610,A,4819.3200,N,12357.9096,W,9.19,112,040722,11.8,E,A,V*63
20220704 220614+00:00 $WIMWV,231.29,R,1.98,N,A*28
20220704 220616+00:00 $IIMDA,29.9,I,1.014,B,11.2,C,,C,94.7,,,C,,T,,M,,N,,M*24
20220704 220616+00:00 $HCHDT,109.8,T*29
20220704 220616+00:00 $GPRMC,220612,A,4819.3200,N,12357.9000,W,9.19,112,040722,11.8,E,A,V*6E
20220704 220616+00:00 $WIMWV,354.99,R,2.29,N,A*28
20220704 220618+00:00 $IIMDA,29.9,I,1.014,B,11.2,C,,C,94.7,,,C,,T,,M,,N,,M*24
20220704 220618+00:00 $HCHDT,109.8,T*29
20220704 220618+00:00 $GPRMC,220614,A,4819.3200,N,12357.8898,W,9.19,112,040722,11.8,E,A,V*60
20220704 220618+00:00 $WIMWV,9.4,R,5.38,N,A*10
20220704 220620+00:00 $IIMDA,29.9,I,1.014,B,11.2,C,,C,94.7,,,C,,T,,M,,N,,M*24
20220704 220620+00:00 $HCHDT,109.8,T*29
20220704 220620+00:00 $GPRMC,220616,A,4819.3098,N,12357.8898,W,9.19,112,040722,11.8,E,A,V*61
20220704 220620+00:00 $WIMWV,1.29,R,5.7,N,A*1B
20220704 220622+00:00 $IIMDA,29.9,I,1.014,B,11.2,C,,C,94.7,,,C,,T,,M,,N,,M*24
20220704 220622+00:00 $HCHDT,110,T*37
20220704 220622+00:00 $GPRMC,220618,A,4819.3098,N,12357.8796,W,9.19,112,040722,11.8,E,A,V*6E
20220704 220622+00:00 $WIMWV,8.3,R,5.7,N,A*2A
20220704 220624+00:00 $IIMDA,29.9,I,1.014,B,11.2,C,,C,94.7,,,C,,T,,M,,N,,M*24
20220704 220624+00:00 $HCHDT,110,T*37
20220704 220624+00:00 $GPRMC,220620,A,4819.3098,N,12357.8700,W,9.19,112,040722,11.8,E,A,V*6A
20220704 220624+00:00 $WIMWV,4.1,R,2.2,N,A*26
20220704 220626+00:00 $IIMDA,29.9,I,1.014,B,11.2,C,,C,94.7,,,C,,T,,M,,N,,M*24
20220704 220626+00:00 $HCHDT,110,T*37
20220704 220626+00:00 $GPRMC,220622,A,4819.3098,N,12357.8700,W,9.19,112,040722,11.8,E,A,V*68
20220704 220626+00:00 $WIMWV,241.69,R,1.69,N,A*25
20220704 220628+00:00 $IIMDA,29.9,I,1.014,B,11.2,C,,C,94.7,,,C,,T,,M,,N,,M*24
20220704 220628+00:00 $HCHDT,110,T*37
20220704 220628+00:00 $GPRMC,220624,A,4819.3098,N,12357.8598,W,9.19,112,040722,11.8,E,A,V*6D
20220704 220628+00:00 $WIMWV,340.39,R,2.2,N,A*1E
20220704 220630+00:00 $IIMDA,29.9,I,1.014,B,11.2,C,,C,94.7,,,C,,T,,M,,N,,M*24
20220704 220630+00:00 $HCHDT,110,T*37
20220704 220630+00:00 $GPRMC,220626,A,4819.2996,N,12357.8496,W,9.19,111,040722,11.8,E,A,V*65
20220704 220630+00:00 $WIMWV,0.19,R,1.79,N,A*24
20220704 220632+00:00 $IIMDA,29.9,I,1.014,B,11.2,C,,C,94.7,,,C,,T,,M,,N,,M*24
20220704 220632+00:00 $HCHDT,110.1,T*28
20220704 220632+00:00 $GPRMC,220628,A,4819.2996,N,12357.8496,W,9.19,111,040722,11.8,E,A,V*6B
20220704 220632+00:00 $WIMWV,3.4,R,3.89,N,A*16
20220704 220634+00:00 $IIMDA,29.9,I,1.014,B,11.2,C,,C,94.7,,,C,,T,,M,,N,,M*24
20220704 220634+00:00 $HCHDT,110.2,T*2B
20220704 220634+00:00 $GPRMC,220630,A,4819.2996,N,12357.8400,W,9.19,112,040722,11.8,E,A,V*6E
20220704 220634+00:00 $WIMWV,6.2,R,4.2,N,A*21
20220704 220636+00:00 $IIMDA,29.9,I,1.014,B,11.2,C,,C,94.7,,,C,,T,,M,,N,,M*24
20220704 220636+00:00 $HCHDT,110.2,T*2B
20220704 220636+00:00 $GPRMC,220632,A,4819.2996,N,12357.8298,W,9.19,112,040722,11.8,E,A,V*6B
20220704 220636+00:00 $WIMWV,353.09,R,4.59,N,A*27
20220704 220638+00:00 $IIMDA,29.9,I,1.014,B,11.2,C,,C,94.7,,,C,,T,,M,,N,,M*24
20220704 220638+00:00 $HCHDT,110,T*37
20220704 220638+00:00 $GPRMC,220634,A,4819.2996,N,12357.8196,W,9.19,112,040722,11.8,E,A,V*60
20220704 220638+00:00 $WIMWV,351.39,R,2.59,N,A*20
20220704 220640+00:00 $IIMDA,29.9,I,1.014,B,11.2,C,,C,94.6,,,C,,T,,M,,N,,M*25
20220704 220640+00:00 $HCHDT,109.8,T*29
20220704 220640+00:00 $GPRMC,220636,A,4819.2996,N,12357.8196,W,9.19,112,040722,11.8,E,A,V*62
20220704 220640+00:00 $WIMWV,348.99,R,1.89,N,A*2C
20220704 220642+00:00 $IIMDA,29.9,I,1.014,B,11.2,C,,C,94.7,,,C,,T,,M,,N,,M*24
20220704 220642+00:00 $HCHDT,109.8,T*29
20220704 220642+00:00 $GPRMC,220638,A,4819.2900,N,12357.8100,W,9.19,111,040722,11.8,E,A,V*6F
20220704 220642+00:00 $WIMWV,340.39,R,4.9,N,A*13
20220704 220644+00:00 $IIMDA,29.9,I,1.014,B,11.2,C,,C,94.7,,,C,,T,,M,,N,,M*24
20220704 220644+00:00 $HCHDT,109.8,T*29
20220704 220644+00:00 $GPRMC,220640,A,4819.2900,N,12357.7998,W,9.19,111,040722,11.8,E,A,V*66
20220704 220644+00:00 $WIMWV,357.39,R,2.8,N,A*12
20220704 220646+00:00 $IIMDA,29.9,I,1.014,B,11.2,C,,C,94.7,,,C,,T,,M,,N,,M*24
20220704 220646+00:00 $HCHDT,109.9,T*28
20220704 220646+00:00 $GPRMC,220642,A,4819.2900,N,12357.7998,W,9.19,111,040722,11.8,E,A,V*64
20220704 220646+00:00 $WIMWV,352.19,R,4.2,N,A*19
20220704 220648+00:00 $IIMDA,29.9,I,1.014,B,11.2,C,,C,94.6,,,C,,T,,M,,N,,M*25
20220704 220648+00:00 $HCHDT,109.9,T*28
20220704 220648+00:00 $GPRMC,220644,A,4819.2900,N,12357.7896,W,9.19,111,040722,11.8,E,A,V*6D
20220704 220648+00:00 $WIMWV,355.79,R,5.38,N,A*20
20220704 220650+00:00 $IIMDA,29.9,I,1.014,B,11.2,C,,C,94.7,,,C,,T,,M,,N,,M*24
20220704 220650+00:00 $HCHDT,109.8,T*29
20220704 220650+00:00 $GPRMC,220646,A,4819.2900,N,12357.7800,W,9.19,111,040722,11.8,E,A,V*60
20220704 220650+00:00 $WIMWV,355.49,R,3.38,N,A*25
20220704 220652+00:00 $IIMDA,29.9,I,1.014,B,11.2,C,,C,94.7,,,C,,T,,M,,N,,M*24
20220704 220652+00:00 $HCHDT,109.7,T*26
20220704 220652+00:00 $GPRMC,220648,A,4819.2798,N,12357.7698,W,9.19,111,040722,11.8,E,A,V*6E
20220704 220652+00:00 $WIMWV,336.49,R,0.58,N,A*25
20220704 220654+00:00 $IIMDA,29.9,I,1.014,B,11.2,C,,C,94.7,,,C,,T,,M,,N,,M*24
20220704 220654+00:00 $HCHDT,109.9,T*28
20220704 220654+00:00 $GPRMC,220650,A,4819.2798,N,12357.7698,W,9.19,111,040722,11.8,E,A,V*67
20220704 220654+00:00 $WIMWV,348.59,R,3.98,N,A*22
20220704 220656+00:00 $IIMDA,29.9,I,1.014,B,11.2,C,,C,94.7,,,C,,T,,M,,N,,M*24
20220704 220656+00:00 $HCHDT,110.1,T*28
20220704 220656+00:00 $GPRMC,220652,A,4819.2798,N,12357.7596,W,9.19,111,040722,11.8,E,A,V*68
20220704 220656+00:00 $WIMWV,317.79,R,1.4,N,A*1D
20220704 220658+00:00 $IIMDA,29.9,I,1.014,B,11.2,C,,C,94.7,,,C,,T,,M,,N,,M*24
20220704 220658+00:00 $HCHDT,110.3,T*2A
20220704 220658+00:00 $GPRMC,220654,A,4819.2798,N,12357.7500,W,9.19,111,040722,11.8,E,A,V*61
20220704 220658+00:00 $WIMWV,331.99,R,1.59,N,A*2F
20220704 220700+00:00 $IIMDA,29.9,I,1.014,B,11.2,C,,C,94.7,,,C,,T,,M,,N,,M*24
20220704 220700+00:00 $HCHDT,110.2,T*2B
20220704 220700+00:00 $GPRMC,220656,A,4819.2798,N,12357.7500,W,9.19,111,040722,11.8,E,A,V*63
20220704 220700+00:00 $WIMWV,355.39,R,4.59,N,A*22
20220704 220702+00:00 $IIMDA,29.9,I,1.014,B,11.2,C,,C,94.7,,,C,,T,,M,,N,,M*24
20220704 220702+00:00 $HCHDT,110,T*37
20220704 220702+00:00 $GPRMC,220658,A,4819.2696,N,12357.7398,W,9.19,111,040722,11.8,E,A,V*65
20220704 220702+00:00 $WIMWV,23.5,R,1.69,N,A*29
20220704 220704+00:00 $IIMDA,29.9,I,1.014,B,11.2,C,,C,94.7,,,C,,T,,M,,N,,M*24
20220704 220704+00:00 $HCHDT,109.8,T*29
20220704 220704+00:00 $GPRMC,220700,A,4819.2696,N,12357.7296,W,9.19,111,040722,11.8,E,A,V*66
20220704 220704+00:00 $WIMWV,0.19,R,1.59,N,A*26
20220704 220706+00:00 $IIMDA,29.9,I,1.014,B,11.2,C,,C,94.7,,,C,,T,,M,,N,,M*24
20220704 220706+00:00 $HCHDT,109.9,T*28
20220704 220706+00:00 $GPRMC,220702,A,4819.2696,N,12357.7200,W,9.19,111,040722,11.8,E,A,V*6B
20220704 220706+00:00 $WIMWV,345.09,R,2.68,N,A*24
20220704 220708+00:00 $IIMDA,29.9,I,1.014,B,11.2,C,,C,94.7,,,C,,T,,M,,N,,M*24
20220704 220708+00:00 $HCHDT,110,T*37
20220704 220708+00:00 $GPRMC,220704,A,4819.2696,N,12357.7200,W,9.19,111,040722,11.8,E,A,V*6D
20220704 220708+00:00 $WIMWV,285.99,R,1.28,N,A*27
20220704 220710+00:00 $IIMDA,29.9,I,1.014,B,11.2,C,,C,94.7,,,C,,T,,M,,N,,M*24
20220704 220710+00:00 $HCHDT,110.2,T*2B
20220704 220710+00:00 $GPRMC,220706,A,4819.2696,N,12357.7098,W,9.19,111,040722,11.8,E,A,V*6C
20220704 220710+00:00 $WIMWV,3,R,2.59,N,A*00
20220704 220712+00:00 $IIMDA,29.9,I,1.014,B,11.2,C,,C,94.7,,,C,,T,,M,,N,,M*24
20220704 220712+00:00 $HCHDT,110.4,T*2D
20220704 220712+00:00 $GPRMC,220708,A,4819.2696,N,12357.6996,W,9.19,111,040722,11.8,E,A,V*64
20220704 220712+00:00 $WIMWV,348.49,R,4.68,N,A*2B
20220704 220714+00:00 $IIMDA,29.9,I,1.014,B,11.2,C,,C,94.7,,,C,,T,,M,,N,,M*24
20220704 220714+00:00 $HCHDT,110.3,T*2A
20220704 220714+00:00 $GPRMC,220710,A,4819.2600,N,12357.6996,W,9.19,111,040722,11.8,E,A,V*62
20220704 220714+00:00 $WIMWV,357.99,R,4.08,N,A*2E
20220704 220716+00:00 $IIMDA,29.9,I,1.014,B,11.2,C,,C,94.7,,,C,,T,,M,,N,,M*24
20220704 220716+00:00 $HCHDT,110.2,T*2B
20220704 220716+00:00 $GPRMC,220712,A,4819.2600,N,12357.6900,W,9.19,111,040722,11.8,E,A,V*6F
20220704 220716+00:00 $WIMWV,24.2,R,1.89,N,A*27
20220704 220718+00:00 $IIMDA,29.9,I,1.014,B,11.2,C,,C,94.6,,,C,,T,,M,,N,,M*25
20220704 220718+00:00 $HCHDT,110,T*37
20220704 220718+00:00 $GPRMC,220714,A,4819.2600,N,12357.6798,W,9.19,111,040722,11.8,E,A,V*66
20220704 220718+00:00 $WIMWV,322.99,R,0.99,N,A*20
20220704 220720+00:00 $IIMDA,29.9,I,1.014,B,11.2,C,,C,94.7,,,C,,T,,M,,N,,M*24
20220704 220720+00:00 $HCHDT,110.1,T*28
20220704 220720+00:00 $GPRMC,220716,A,4819.2600,N,12357.6696,W,9.19,111,040722,11.8,E,A,V*6B
20220704 220720+00:00 $WIMWV,334.49,R,0.58,N,A*27
20220704 220722+00:00 $IIMDA,29.9,I,1.014,B,11.2,C,,C,94.7,,,C,,T,,M,,N,,M*24
20220704 220722+00:00 $HCHDT,110.3,T*2A
20220704 220722+00:00 $GPRMC,220718,A,4819.2600,N,12357.6696,W,9.19,111,040722,11.8,E,A,V*65
20220704 220722+00:00 $WIMWV,337.59,R,1.89,N,A*28
20220704 220724+00:00 $IIMDA,29.9,I,1.014,B,11.2,C,,C,94.7,,,C,,T,,M,,N,,M*24
20220704 220724+00:00 $HCHDT,110.5,T*2C
20220704 220724+00:00 $GPRMC,220720,A,4819.2498,N,12357.6600,W,9.19,112,040722,11.8,E,A,V*61
20220704 220724+00:00 $WIMWV,8.59,R,6.08,N,A*29
20220704 220726+00:00 $IIMDA,29.9,I,1.014,B,11.2,C,,C,94.7,,,C,,T,,M,,N,,M*24
20220704 220726+00:00 $HCHDT,110.6,T*2F
20220704 220726+00:00 $GPRMC,220722,A,4819.2498,N,12357.6498,W,9.19,112,040722,11.8,E,A,V*60
20220704 220726+00:00 $WIMWV,354.89,R,4.68,N,A*2A
20220704 220728+00:00 $IIMDA,29.9,I,1.014,B,11.2,C,,C,94.7,,,C,,T,,M,,N,,M*24
20220704 220728+00:00 $HCHDT,110.4,T*2D
20220704 220728+00:00 $GPRMC,220724,A,4819.2498,N,12357.6498,W,9.19,112,040722,11.8,E,A,V*66
20220704 220728+00:00 $WIMWV,1.8,R,3.5,N,A*2C
20220704 220730+00:00 $IIMDA,29.9,I,1.014,B,11.2,C,,C,94.7,,,C,,T,,M,,N,,M*24
20220704 220730+00:00 $HCHDT,110.1,T*28
20220704 220730+00:00 $GPRMC,220726,A,4819.2498,N,12357.6396,W,9.19,112,040722,11.8,E,A,V*6D
20220704 220730+00:00 $WIMWV,4,R,3.38,N,A*01
20220704 220732+00:00 $IIMDA,29.9,I,1.014,B,11.2,C,,C,94.7,,,C,,T,,M,,N,,M*24
20220704 220732+00:00 $HCHDT,109.9,T*28
20220704 220732+00:00 $GPRMC,220728,A,4819.2498,N,12357.6300,W,9.19,112,040722,11.8,E,A,V*6C
20220704 220732+00:00 $WIMWV,7.1,R,6.4,N,A*27
20220704 220734+00:00 $IIMDA,29.9,I,1.014,B,11.2,C,,C,94.6,,,C,,T,,M,,N,,M*25
20220704 220734+00:00 $HCHDT,109.9,T*28
20220704 220734+00:00 $GPRMC,220730,A,4819.2396,N,12357.6198,W,9.19,112,040722,11.8,E,A,V*6F
20220704 220734+00:00 $WIMWV,9.5,R,5,N,A*34
20220704 220736+00:00 $IIMDA,29.9,I,1.014,B,11.2,C,,C,94.7,,,C,,T,,M,,N,,M*24
20220704 220736+00:00 $HCHDT,110.1,T*28
20220704 220736+00:00 $GPRMC,220732,A,4819.2396,N,12357.6198,W,9.19,112,040722,11.8,E,A,V*6D
20220704 220736+00:00 $WIMWV,1.9,R,3.69,N,A*17
20220704 220738+00:00 $IIMDA,29.9,I,1.014,B,11.2,C,,C,94.7,,,C,,T,,M,,N,,M*24
20220704 220738+00:00 $HCHDT,110.2,T*2B
20220704 220738+00:00 $GPRMC,220734,A,4819.2396,N,12357.6096,W,9.19,112,040722,11.8,E,A,V*64
20220704 220738+00:00 $WIMWV,354.69,R,3.38,N,A*26
20220704 220740+00:00 $IIMDA,29.9,I,1.014,B,11.2,C,,C,94.7,,,C,,T,,M,,N,,M*24
20220704 220740+00:00 $HCHDT,110.1,T*28
20220704 220740+00:00 $GPRMC,220736,A,4819.2396,N,12357.6000,W,9.19,112,040722,11.8,E,A,V*69
20220704 220740+00:00 $WIMWV,355.69,R,7.79,N,A*26
20220704 220742+00:00 $IIMDA,29.9,I,1.014,B,11.2,C,,C,94.7,,,C,,T,,M,,N,,M*24
