20220705 040000+00:00 $IIMDA,29.9,I,1.013,B,11.1,C,,C,85.9,,,C,,T,,M,,N,,M*2E
20220705 040000+00:00 $HCHDT,60.3,T*1C
20220705 040000+00:00 $GPRMC,035956,A,4842.1800,N,12314.0100,W,9,58,050722,11.8,E,A,V*76
20220705 040000+00:00 $WIMWV,355.99,R,11.9,N,A*29
20220705 040002+00:00 $IIMDA,29.9,I,1.013,B,11.1,C,,C,85.9,,,C,,T,,M,,N,,M*2E
20220705 040002+00:00 $HCHDT,60.4,T*1B
20220705 040002+00:00 $GPRMC,035958,A,4842.1800,N,12314.0100,W,9,58,050722,11.8,E,A,V*78
20220705 040002+00:00 $WIMWV,356.49,R,11.39,N,A*14
20220705 040004+00:00 $IIMDA,29.9,I,1.013,B,11.1,C,,C,85.9,,,C,,T,,M,,N,,M*2E
20220705 040004+00:00 $HCHDT,60.5,T*1A
20220705 040004+00:00 $GPRMC,040000,A,4842.1896,N,12313.9998,W,9,58,050722,11.8,E,A,V*76
20220705 040004+00:00 $WIMWV,355.29,R,10.98,N,A*1B
20220705 040006+00:00 $IIMDA,29.9,I,1.013,B,11.1,C,,C,85.9,,,C,,T,,M,,N,,M*2E
20220705 040006+00:00 $HCHDT,60.5,T*1A
20220705 040006+00:00 $GPRMC,040002,A,4842.1896,N,12313.9998,W,9,58,050722,11.8,E,A,V*74
20220705 040006+00:00 $WIMWV,356.19,R,11.78,N,A*14
20220705 040008+00:00 $IIMDA,29.9,I,1.013,B,11.1,C,,C,85.9,,,C,,T,,M,,N,,M*2E
20220705 040008+00:00 $HCHDT,60.4,T*1B
20220705 040008+00:00 $GPRMC,040004,A,4842.1896,N,12313.9896,W,9,58,050722,11.8,E,A,V*7D
20220705 040008+00:00 $WIMWV,355.99,R,11.39,N,A*1A
20220705 040010+00:00 $IIMDA,29.9,I,1.013,B,11.1,C,,C,85.9,,,C,,T,,M,,N,,M*2E
20220705 040010+00:00 $HCHDT,60.3,T*1C
20220705 040010+00:00 $GPRMC,040006,A,4842.1998,N,12313.9800,W,9,58,050722,11.8,E,A,V*7F
20220705 040010+00:00 $WIMWV,355.09,R,11.59,N,A*15
20220705 040012+00:00 $IIMDA,29.9,I,1.013,B,11.1,C,,C,86,,,C,,T,,M,,N,,M*3A
20220705 040012+00:00 $HCHDT,60.3,T*1C
20220705 040012+00:00 $GPRMC,040008,A,4842.1998,N,12313.9800,W,9,58,050722,11.8,E,A,V*71
20220705 040012+00:00 $WIMWV,354.49,R,11.2,N,A*2E
20220705 040014+00:00 $IIMDA,29.9,I,1.013,B,11.1,C,,C,86,,,C,,T,,M,,N,,M*3A
20220705 040014+00:00 $HCHDT,60.5,T*1A
20220705 040014+00:00 $GPRMC,040010,A,4842.1998,N,12313.9698,W,9,58,050722,11.8,E,A,V*77
20220705 040014+00:00 $WIMWV,356.99,R,11.39,N,A*19
20220705 040016+00:00 $IIMDA,29.9,I,1.013,B,11.1,C,,C,86,,,C,,T,,M,,N,,M*3A
20220705 040016+00:00 $HCHDT,60.5,T*1A
20220705 040016+00:00 $GPRMC,040012,A,4842.1998,N,12313.9596,W,9,58,050722,11.8,E,A,V*78
20220705 040016+00:00 $WIMWV,355.99,R,11.39,N,A*1A
20220705 040018+00:00 $IIMDA,29.9,I,1.013,B,11.1,C,,C,85.9,,,C,,T,,M,,N,,M*2E
20220705 040018+00:00 $HCHDT,60.5,T*1A
20220705 040018+00:00 $GPRMC,040014,A,4842.2100,N,12313.9596,W,8.9,58,050722,11.8,E,A,V*62
20220705 040018+00:00 $WIMWV,355.89,R,11.68,N,A*1F
20220705 040020+00:00 $IIMDA,29.9,I,1.013,B,11.1,C,,C,86,,,C,,T,,M,,N,,M*3A
20220705 040020+00:00 $HCHDT,60.6,T*19
20220705 040020+00:00 $GPRMC,040016,A,4842.2100,N,12313.9500,W,8.9,58,050722,11.8,E,A,V*6F
20220705 040020+00:00 $WIMWV,358.79,R,11.59,N,A*1F
20220705 040022+00:00 $IIMDA,29.9,I,1.013,B,11.1,C,,C,86,,,C,,T,,M,,N,,M*3A
20220705 040022+00:00 $HCHDT,60.7,T*18
20220705 040022+00:00 $GPRMC,040018,A,4842.2100,N,12313.9398,W,8.9,58,050722,11.8,E,A,V*66
20220705 040022+00:00 $WIMWV,357.59,R,11.2,N,A*2C
20220705 040024+00:00 $IIMDA,29.9,I,1.013,B,11.1,C,,C,86,,,C,,T,,M,,N,,M*3A
20220705 040024+00:00 $HCHDT,61,T*00
20220705 040024+00:00 $GPRMC,040020,A,4842.2100,N,12313.9398,W,8.9,59,050722,11.8,E,A,V*6C
20220705 040024+00:00 $WIMWV,355.99,R,11.2,N,A*22
20220705 040026+00:00 $IIMDA,29.9,I,1.013,B,11.1,C,,C,86,,,C,,T,,M,,N,,M*3A
20220705 040026+00:00 $HCHDT,61.3,T*1D
20220705 040026+00:00 $GPRMC,040022,A,4842.2196,N,12313.9296,W,8.9,59,050722,11.8,E,A,V*6E
20220705 040026+00:00 $WIMWV,356.09,R,11.2,N,A*28
20220705 040028+00:00 $IIMDA,29.9,I,1.013,B,11.1,C,,C,86,,,C,,T,,M,,N,,M*3A
20220705 040028+00:00 $HCHDT,61.4,T*1A
20220705 040028+00:00 $GPRMC,040024,A,4842.2196,N,12313.9200,W,8.9,59,050722,11.8,E,A,V*67
20220705 040028+00:00 $WIMWV,357.59,R,10.98,N,A*1E
20220705 040030+00:00 $IIMDA,29.9,I,1.013,B,11.1,C,,C,86,,,C,,T,,M,,N,,M*3A
20220705 040030+00:00 $HCHDT,61.5,T*1B
20220705 040030+00:00 $GPRMC,040026,A,4842.2196,N,12313.9200,W,8.9,60,050722,11.8,E,A,V*6F
20220705 040030+00:00 $WIMWV,356.69,R,10.5,N,A*28
20220705 040032+00:00 $IIMDA,29.9,I,1.013,B,11.1,C,,C,86,,,C,,T,,M,,N,,M*3A
20220705 040032+00:00 $HCHDT,61.4,T*1A
20220705 040032+00:00 $GPRMC,040028,A,4842.2196,N,12313.9098,W,8.9,60,050722,11.8,E,A,V*62
20220705 040032+00:00 $WIMWV,357.59,R,10.79,N,A*11
20220705 040034+00:00 $IIMDA,29.9,I,1.013,B,11.1,C,,C,86,,,C,,T,,M,,N,,M*3A
20220705 040034+00:00 $HCHDT,61.1,T*1F
20220705 040034+00:00 $GPRMC,040030,A,4842.2298,N,12313.9098,W,8.9,61,050722,11.8,E,A,V*67
20220705 040034+00:00 $WIMWV,358.89,R,9.99,N,A*25
20220705 040036+00:00 $IIMDA,29.9,I,1.013,B,11.1,C,,C,86,,,C,,T,,M,,N,,M*3A
20220705 040036+00:00 $HCHDT,60.7,T*18
20220705 040036+00:00 $GPRMC,040032,A,4842.2298,N,12313.8996,W,8.9,61,050722,11.8,E,A,V*63
20220705 040036+00:00 $WIMWV,355.49,R,10.5,N,A*29
20220705 040038+00:00 $IIMDA,29.9,I,1.013,B,11.1,C,,C,86,,,C,,T,,M,,N,,M*3A
20220705 040038+00:00 $HCHDT,60.2,T*1D
20220705 040038+00:00 $GPRMC,040034,A,4842.2298,N,12313.8900,W,8.9,61,050722,11.8,E,A,V*6A
20220705 040038+00:00 $WIMWV,359.29,R,10.5,N,A*23
20220705 040040+00:00 $IIMDA,29.9,I,1.013,B,11,C,,C,86.1,,,C,,T,,M,,N,,M*3A
20220705 040040+00:00 $HCHDT,59.8,T*1D
20220705 040040+00:00 $GPRMC,040036,A,4842.2298,N,12313.8900,W,8.9,61,050722,11.8,E,A,V*68
20220705 040040+00:00 $WIMWV,356.09,R,10.09,N,A*12
20220705 040042+00:00 $IIMDA,29.9,I,1.013,B,11,C,,C,86.1,,,C,,T,,M,,N,,M*3A
20220705 040042+00:00 $HCHDT,59.7,T*12
20220705 040042+00:00 $GPRMC,040038,A,4842.2298,N,12313.8798,W,8.81,61,050722,11.8,E,A,V*59
20220705 040042+00:00 $WIMWV,358.39,R,6.49,N,A*2C
20220705 040044+00:00 $IIMDA,29.9,I,1.013,B,11,C,,C,86.1,,,C,,T,,M,,N,,M*3A
20220705 040044+00:00 $HCHDT,59.7,T*12
20220705 040044+00:00 $GPRMC,040040,A,4842.2400,N,12313.8696,W,8.81,61,050722,11.8,E,A,V*5E
20220705 040044+00:00 $WIMWV,357.69,R,10.59,N,A*10
20220705 040046+00:00 $IIMDA,29.9,I,1.013,B,11,C,,C,86.1,,,C,,T,,M,,N,,M*3A
20220705 040046+00:00 $HCHDT,59.7,T*12
20220705 040046+00:00 $GPRMC,040042,A,4842.2400,N,12313.8696,W,8.81,61,050722,11.8,E,A,V*5C
20220705 040046+00:00 $WIMWV,358.59,R,10.89,N,A*11
20220705 040048+00:00 $IIMDA,29.9,I,1.013,B,11,C,,C,86.2,,,C,,T,,M,,N,,M*39
20220705 040048+00:00 $HCHDT,59.6,T*13
20220705 040048+00:00 $GPRMC,040044,A,4842.2400,N,12313.8600,W,8.81,61,050722,11.8,E,A,V*55
20220705 040048+00:00 $WIMWV,358.49,R,9.99,N,A*29
20220705 040050+00:00 $IIMDA,29.9,I,1.013,B,11,C,,C,86.2,,,C,,T,,M,,N,,M*39
20220705 040050+00:00 $HCHDT,59.5,T*10
20220705 040050+00:00 $GPRMC,040046,A,4842.2400,N,12313.8498,W,8.81,60,050722,11.8,E,A,V*55
20220705 040050+00:00 $WIMWV,358.09,R,9.68,N,A*23
20220705 040052+00:00 $IIMDA,29.9,I,1.013,B,11,C,,C,86.2,,,C,,T,,M,,N,,M*39
20220705 040052+00:00 $HCHDT,59.5,T*10
20220705 040052+00:00 $GPRMC,040048,A,4842.2496,N,12313.8498,W,8.81,60,050722,11.8,E,A,V*54
20220705 040052+00:00 $WIMWV,359.79,R,9.58,N,A*26
20220705 040054+00:00 $IIMDA,29.9,I,1.013,B,11,C,,C,86.2,,,C,,T,,M,,N,,M*39
20220705 040054+00:00 $HCHDT,59.7,T*12
20220705 040054+00:00 $GPRMC,040050,A,4842.2496,N,12313.8396,W,8.81,61,050722,11.8,E,A,V*55
20220705 040054+00:00 $WIMWV,358.19,R,9.89,N,A*2D
20220705 040056+00:00 $IIMDA,29.9,I,1.013,B,11,C,,C,86.2,,,C,,T,,M,,N,,M*39
20220705 040056+00:00 $HCHDT,59.8,T*1D
20220705 040056+00:00 $GPRMC,040052,A,4842.2496,N,12313.8300,W,8.71,61,050722,11.8,E,A,V*57
20220705 040056+00:00 $WIMWV,359.29,R,9.8,N,A*16
20220705 040058+00:00 $IIMDA,29.9,I,1.013,B,11,C,,C,86.2,,,C,,T,,M,,N,,M*39
20220705 040058+00:00 $HCHDT,59.8,T*1D
20220705 040058+00:00 $GPRMC,040054,A,4842.2496,N,12313.8300,W,8.71,61,050722,11.8,E,A,V*51
20220705 040058+00:00 $WIMWV,357.89,R,9.99,N,A*2A
20220705 040100+00:00 $IIMDA,29.9,I,1.013,B,11,C,,C,86.2,,,C,,T,,M,,N,,M*39
20220705 040100+00:00 $HCHDT,59.7,T*12
20220705 040100+00:00 $GPRMC,040056,A,4842.2598,N,12313.8198,W,8.71,61,050722,11.8,E,A,V*5F
20220705 040100+00:00 $WIMWV,355.69,R,8.88,N,A*27
20220705 040102+00:00 $IIMDA,29.9,I,1.013,B,11,C,,C,86.2,,,C,,T,,M,,N,,M*39
20220705 040102+00:00 $HCHDT,59.8,T*1D
20220705 040102+00:00 $GPRMC,040058,A,4842.2598,N,12313.8198,W,8.71,61,050722,11.8,E,A,V*51
20220705 040102+00:00 $WIMWV,357.29,R,10.59,N,A*14
20220705 040104+00:00 $IIMDA,29.9,I,1.013,B,11,C,,C,86.2,,,C,,T,,M,,N,,M*39
20220705 040104+00:00 $HCHDT,59.7,T*12
20220705 040104+00:00 $GPRMC,040100,A,4842.2598,N,12313.8096,W,8.71,61,050722,11.8,E,A,V*52
20220705 040104+00:00 $WIMWV,356.99,R,9.68,N,A*24
20220705 040106+00:00 $IIMDA,29.9,I,1.013,B,11,C,,C,86.2,,,C,,T,,M,,N,,M*39
20220705 040106+00:00 $HCHDT,59.6,T*13
20220705 040106+00:00 $GPRMC,040102,A,4842.2598,N,12313.8000,W,8.59,61,050722,11.8,E,A,V*55
20220705 040106+00:00 $WIMWV,358.79,R,8.49,N,A*26
20220705 040108+00:00 $IIMDA,29.9,I,1.013,B,11,C,,C,86.2,,,C,,T,,M,,N,,M*39
20220705 040108+00:00 $HCHDT,59.5,T*10
20220705 040108+00:00 $GPRMC,040104,A,4842.2700,N,12313.8000,W,8.59,61,050722,11.8,E,A,V*50
20220705 040108+00:00 $WIMWV,357.89,R,10.09,N,A*1B
20220705 040110+00:00 $IIMDA,29.9,I,1.013,B,11,C,,C,86.2,,,C,,T,,M,,N,,M*39
20220705 040110+00:00 $HCHDT,59.4,T*11
20220705 040110+00:00 $GPRMC,040106,A,4842.2700,N,12313.7898,W,8.59,62,050722,11.8,E,A,V*57
20220705 040110+00:00 $WIMWV,359.49,R,8.18,N,A*20
20220705 040112+00:00 $IIMDA,29.9,I,1.013,B,11,C,,C,86.2,,,C,,T,,M,,N,,M*39
20220705 040112+00:00 $HCHDT,59.5,T*10
20220705 040112+00:00 $GPRMC,040108,A,4842.2700,N,12313.7796,W,8.59,62,050722,11.8,E,A,V*58
20220705 040112+00:00 $WIMWV,355.89,R,8.09,N,A*20
20220705 040114+00:00 $IIMDA,29.9,I,1.013,B,11,C,,C,86.3,,,C,,T,,M,,N,,M*38
20220705 040114+00:00 $HCHDT,60,T*01
20220705 040114+00:00 $GPRMC,040110,A,4842.2700,N,12313.7796,W,8.49,62,050722,11.8,E,A,V*50
20220705 040114+00:00 $WIMWV,356.49,R,6.4,N,A*1C
20220705 040116+00:00 $IIMDA,29.9,I,1.013,B,11,C,,C,86.3,,,C,,T,,M,,N,,M*38
20220705 040116+00:00 $HCHDT,60.8,T*17
20220705 040116+00:00 $GPRMC,040112,A,4842.2700,N,12313.7700,W,8.49,62,050722,11.8,E,A,V*5D
20220705 040116+00:00 $WIMWV,0.19,R,7.7,N,A*1B
20220705 040118+00:00 $IIMDA,29.9,I,1.013,B,11,C,,C,86.3,,,C,,T,,M,,N,,M*38
20220705 040118+00:00 $HCHDT,62.1,T*1C
20220705 040118+00:00 $GPRMC,040114,A,4842.2796,N,12313.7700,W,8.49,62,050722,11.8,E,A,V*54
20220705 040118+00:00 $WIMWV,357.89,R,3.5,N,A*15
20220705 040120+00:00 $IIMDA,29.9,I,1.013,B,11,C,,C,86.4,,,C,,T,,M,,N,,M*3F
20220705 040120+00:00 $HCHDT,63.5,T*19
20220705 040120+00:00 $GPRMC,040116,A,4842.2796,N,12313.7598,W,8.49,62,050722,11.8,E,A,V*55
20220705 040120+00:00 $WIMWV,18.6,R,1.09,N,A*24
20220705 040122+00:00 $IIMDA,29.9,I,1.013,B,11,C,,C,86.4,,,C,,T,,M,,N,,M*3F
20220705 040122+00:00 $HCHDT,64.7,T*1C
20220705 040122+00:00 $GPRMC,040118,A,4842.2796,N,12313.7496,W,8.4,63,050722,11.8,E,A,V*6C
20220705 040122+00:00 $WIMWV,343.59,R,5.89,N,A*2F
20220705 040124+00:00 $IIMDA,29.9,I,1.013,B,11,C,,C,86.5,,,C,,T,,M,,N,,M*3E
20220705 040124+00:00 $HCHDT,65.9,T*13
20220705 040124+00:00 $GPRMC,040120,A,4842.2796,N,12313.7496,W,8.4,64,050722,11.8,E,A,V*60
20220705 040124+00:00 $WIMWV,43.3,R,2.29,N,A*2E
20220705 040126+00:00 $IIMDA,29.9,I,1.013,B,11,C,,C,86.5,,,C,,T,,M,,N,,M*3E
20220705 040126+00:00 $HCHDT,66.7,T*1E
20220705 040126+00:00 $GPRMC,040122,A,4842.2796,N,12313.7400,W,8.4,65,050722,11.8,E,A,V*6C
20220705 040126+00:00 $WIMWV,354.59,R,7.7,N,A*1D
20220705 040128+00:00 $IIMDA,29.9,I,1.013,B,11,C,,C,86.6,,,C,,T,,M,,N,,M*3D
20220705 040128+00:00 $HCHDT,67.1,T*19
20220705 040128+00:00 $GPRMC,040124,A,4842.2898,N,12313.7298,W,8.4,66,050722,11.8,E,A,V*6F
20220705 040128+00:00 $WIMWV,1.9,R,5.89,N,A*1F
20220705 040130+00:00 $IIMDA,29.9,I,1.013,B,11,C,,C,86.7,,,C,,T,,M,,N,,M*3C
20220705 040130+00:00 $HCHDT,67.3,T*1B
20220705 040130+00:00 $GPRMC,040126,A,4842.2898,N,12313.7298,W,8.4,66,050722,11.8,E,A,V*6D
20220705 040130+00:00 $WIMWV,358.89,R,7.29,N,A*20
20220705 040132+00:00 $IIMDA,29.9,I,1.013,B,11,C,,C,86.8,,,C,,T,,M,,N,,M*33
20220705 040132+00:00 $HCHDT,67,T*06
20220705 040132+00:00 $GPRMC,040128,A,4842.2898,N,12313.7196,W,8.4,67,050722,11.8,E,A,V*6F
20220705 040132+00:00 $WIMWV,3.2,R,4.2,N,A*24
20220705 040134+00:00 $IIMDA,29.9,I,1.013,B,11,C,,C,86.8,,,C,,T,,M,,N,,M*33
20220705 040134+00:00 $HCHDT,66.5,T*1C
20220705 040134+00:00 $GPRMC,040130,A,4842.2898,N,12313.7100,W,8.4,68,050722,11.8,E,A,V*66
20220705 040134+00:00 $WIMWV,354.49,R,3.69,N,A*20
20220705 040136+00:00 $IIMDA,29.9,I,1.013,B,11,C,,C,86.9,,,C,,T,,M,,N,,M*32
20220705 040136+00:00 $HCHDT,66,T*07
20220705 040136+00:00 $GPRMC,040132,A,4842.2898,N,12313.7100,W,8.4,68,050722,11.8,E,A,V*64
20220705 040136+00:00 $WIMWV,357.59,R,4.49,N,A*27
20220705 040138+00:00 $IIMDA,29.9,I,1.013,B,11,C,,C,87,,,C,,T,,M,,N,,M*24
20220705 040138+00:00 $HCHDT,65.5,T*1F
20220705 040138+00:00 $GPRMC,040134,A,4842.2898,N,12313.6998,W,8.4,68,050722,11.8,E,A,V*6A
20220705 040138+00:00 $WIMWV,6.2,R,3.29,N,A*1F
20220705 040140+00:00 $IIMDA,29.9,I,1.013,B,11,C,,C,87,,,C,,T,,M,,N,,M*24
20220705 040140+00:00 $HCHDT,65,T*04
20220705 040140+00:00 $GPRMC,040136,A,4842.3000,N,12313.6896,W,8.4,68,050722,11.8,E,A,V*6F
20220705 040140+00:00 $WIMWV,54.2,R,3.98,N,A*22
20220705 040142+00:00 $IIMDA,29.9,I,1.013,B,11.1,C,,C,87.1,,,C,,T,,M,,N,,M*24
20220705 040142+00:00 $HCHDT,64.6,T*1D
20220705 040142+00:00 $GPRMC,040138,A,4842.3000,N,12313.6896,W,8.4,68,050722,11.8,E,A,V*61
20220705 040142+00:00 $WIMWV,11.6,R,3.89,N,A*27
20220705 040144+00:00 $IIMDA,29.9,I,1.013,B,11.1,C,,C,87.2,,,C,,T,,M,,N,,M*27
20220705 040144+00:00 $HCHDT,64.5,T*1E
20220705 040144+00:00 $GPRMC,040140,A,4842.3000,N,12313.6800,W,8.4,67,050722,11.8,E,A,V*6E
20220705 040144+00:00 $WIMWV,359.09,R,6.4,N,A*17
20220705 040146+00:00 $IIMDA,29.9,I,1.013,B,11.1,C,,C,87.3,,,C,,T,,M,,N,,M*26
20220705 040146+00:00 $HCHDT,64.4,T*1F
20220705 040146+00:00 $GPRMC,040142,A,4842.3000,N,12313.6698,W,8.4,67,050722,11.8,E,A,V*63
20220705 040146+00:00 $WIMWV,345.39,R,2.8,N,A*11
20220705 040148+00:00 $IIMDA,29.9,I,1.013,B,11.1,C,,C,87.4,,,C,,T,,M,,N,,M*21
20220705 040148+00:00 $HCHDT,64.2,T*19
20220705 040148+00:00 $GPRMC,040144,A,4842.3000,N,12313.6698,W,8.4,67,050722,11.8,E,A,V*65
20220705 040148+00:00 $WIMWV,0.19,R,4.2,N,A*1D
20220705 040150+00:00 $IIMDA,29.9,I,1.013,B,11.1,C,,C,87.4,,,C,,T,,M,,N,,M*21
20220705 040150+00:00 $HCHDT,64,T*05
20220705 040150+00:00 $GPRMC,040146,A,4842.3096,N,12313.6596,W,8.4,67,050722,11.8,E,A,V*65
20220705 040150+00:00 $WIMWV,358.19,R,4.59,N,A*2D
20220705 040152+00:00 $IIMDA,29.9,I,1.013,B,11.1,C,,C,87.5,,,C,,T,,M,,N,,M*20
20220705 040152+00:00 $HCHDT,64,T*05
20220705 040152+00:00 $GPRMC,040148,A,4842.3096,N,12313.6500,W,8.4,66,050722,11.8,E,A,V*65
20220705 040152+00:00 $WIMWV,28.6,R,2.8,N,A*15
20220705 040154+00:00 $IIMDA,29.9,I,1.013,B,11.1,C,,C,87.5,,,C,,T,,M,,N,,M*20
20220705 040154+00:00 $HCHDT,64.2,T*19
20220705 040154+00:00 $GPRMC,040150,A,4842.3096,N,12313.6500,W,8.4,66,050722,11.8,E,A,V*6C
20220705 040154+00:00 $WIMWV,3.4,R,4.59,N,A*1C
20220705 040156+00:00 $IIMDA,29.9,I,1.013,B,11.1,C,,C,87.6,,,C,,T,,M,,N,,M*23
20220705 040156+00:00 $HCHDT,64.5,T*1E
20220705 040156+00:00 $GPRMC,040152,A,4842.3096,N,12313.6398,W,8.4,66,050722,11.8,E,A,V*69
20220705 040156+00:00 $WIMWV,353.29,R,3.19,N,A*26
20220705 040158+00:00 $IIMDA,29.9,I,1.013,B,11.1,C,,C,87.6,,,C,,T,,M,,N,,M*23
20220705 040158+00:00 $HCHDT,65,T*04
20220705 040158+00:00 $GPRMC,040154,A,4842.3096,N,12313.6398,W,8.4,66,050722,11.8,E,A,V*6F
20220705 040158+00:00 $WIMWV,356.89,R,5.38,N,A*2C
20220705 040200+00:00 $IIMDA,29.9,I,1.013,B,11.1,C,,C,87.7,,,C,,T,,M,,N,,M*22
20220705 040200+00:00 $HCHDT,65.2,T*18
20220705 040200+00:00 $GPRMC,040156,A,4842.3096,N,12313.6296,W,8.4,66,050722,11.8,E,A,V*62
20220705 040200+00:00 $WIMWV,351.99,R,4.49,N,A*2D
20220705 040202+00:00 $IIMDA,29.9,I,1.013,B,11.1,C,,C,87.8,,,C,,T,,M,,N,,M*2D
20220705 040202+00:00 $HCHDT,65.2,T*18
20220705 040202+00:00 $GPRMC,040158,A,4842.3198,N,12313.6200,W,8.3,67,050722,11.8,E,A,V*6A
20220705 040202+00:00 $WIMWV,0.19,R,2.59,N,A*25
20220705 040204+00:00 $IIMDA,29.9,I,1.013,B,11.1,C,,C,87.9,,,C,,T,,M,,N,,M*2C
20220705 040204+00:00 $HCHDT,65.4,T*1E
20220705 040204+00:00 $GPRMC,040200,A,4842.3198,N,12313.6200,W,8.3,67,050722,11.8,E,A,V*64
20220705 040204+00:00 $WIMWV,7.4,R,5.89,N,A*14
20220705 040206+00:00 $IIMDA,29.9,I,1.013,B,11.1,C,,C,87.9,,,C,,T,,M,,N,,M*2C
20220705 040206+00:00 $HCHDT,65.4,T*1E
20220705 040206+00:00 $GPRMC,040202,A,4842.3198,N,12313.6098,W,8.3,67,050722,11.8,E,A,V*65
20220705 040206+00:00 $WIMWV,3.6,R,5.19,N,A*1B
20220705 040208+00:00 $IIMDA,29.9,I,1.013,B,11.1,C,,C,88,,,C,,T,,M,,N,,M*34
20220705 040208+00:00 $HCHDT,65.6,T*1C
20220705 040208+00:00 $GPRMC,040204,A,4842.3198,N,12313.5996,W,8.3,67,050722,11.8,E,A,V*67
20220705 040208+00:00 $WIMWV,356.19,R,9.1,N,A*13
20220705 040210+00:00 $IIMDA,29.9,I,1.013,B,11.2,C,,C,88.1,,,C,,T,,M,,N,,M*28
20220705 040210+00:00 $HCHDT,65.8,T*12
20220705 040210+00:00 $GPRMC,040206,A,4842.3198,N,12313.5996,W,8.3,68,050722,11.8,E,A,V*6A
20220705 040210+00:00 $WIMWV,357.89,R,6.4,N,A*11
20220705 040212+00:00 $IIMDA,29.9,I,1.013,B,11.2,C,,C,88.2,,,C,,T,,M,,N,,M*2B
20220705 040212+00:00 $HCHDT,65.8,T*12
20220705 040212+00:00 $GPRMC,040208,A,4842.3300,N,12313.5900,W,8.3,68,050722,11.8,E,A,V*68
20220705 040212+00:00 $WIMWV,358.49,R,8.59,N,A*24
20220705 040214+00:00 $IIMDA,29.9,I,1.013,B,11.2,C,,C,88.3,,,C,,T,,M,,N,,M*2A
20220705 040214+00:00 $HCHDT,65.9,T*13
20220705 040214+00:00 $GPRMC,040210,A,4842.3300,N,12313.5798,W,8.3,68,050722,11.8,E,A,V*6E
20220705 040214+00:00 $WIMWV,3.4,R,5.29,N,A*1A
20220705 040216+00:00 $IIMDA,29.9,I,1.013,B,11.2,C,,C,88.4,,,C,,T,,M,,N,,M*2D
20220705 040216+00:00 $HCHDT,65.8,T*12
20220705 040216+00:00 $GPRMC,040212,A,4842.3300,N,12313.5798,W,8.3,68,050722,11.8,E,A,V*6C
20220705 040216+00:00 $WIMWV,11,R,2.99,N,A*3F
20220705 040218+00:00 $IIMDA,29.9,I,1.013,B,11.2,C,,C,88.5,,,C,,T,,M,,N,,M*2C
20220705 040218+00:00 $HCHDT,65.7,T*1D
20220705 040218+00:00 $GPRMC,040214,A,4842.3300,N,12313.5696,W,8.3,68,050722,11.8,E,A,V*65
20220705 040218+00:00 $WIMWV,2.5,R,7.1,N,A*22
20220705 040220+00:00 $IIMDA,29.9,I,1.013,B,11.2,C,,C,88.6,,,C,,T,,M,,N,,M*2F
20220705 040220+00:00 $HCHDT,65.7,T*1D
20220705 040220+00:00 $GPRMC,040216,A,4842.3300,N,12313.5600,W,8.3,68,050722,11.8,E,A,V*68
20220705 040220+00:00 $WIMWV,355.29,R,7.29,N,A*27
20220705 040222+00:00 $IIMDA,29.9,I,1.013,B,11.2,C,,C,88.6,,,C,,T,,M,,N,,M*2F
20220705 040222+00:00 $HCHDT,65.4,T*1E
20220705 040222+00:00 $GPRMC,040218,A,4842.3300,N,12313.5600,W,8.3,68,050722,11.8,E,A,V*66
20220705 040222+00:00 $WIMWV,356.09,R,6.78,N,A*23
20220705 040224+00:00 $IIMDA,29.9,I,1.013,B,11.2,C,,C,88.7,,,C,,T,,M,,N,,M*2E
20220705 040224+00:00 $HCHDT,65.4,T*1E
20220705 040224+00:00 $GPRMC,040220,A,4842.3396,N,12313.5498,W,8.3,69,050722,11.8,E,A,V*60
20220705 040224+00:00 $WIMWV,359.09,R,6.4,N,A*17
20220705 040226+00:00 $IIMDA,29.9,I,1.013,B,11.2,C,,C,88.7,,,C,,T,,M,,N,,M*2E
20220705 040226+00:00 $HCHDT,65.6,T*1C
20220705 040226+00:00 $GPRMC,040222,A,4842.3396,N,12313.5498,W,8.3,69,050722,11.8,E,A,V*62
20220705 040226+00:00 $WIMWV,358.99,R,7.29,N,A*21
20220705 040228+00:00 $IIMDA,29.9,I,1.013,B,11.2,C,,C,88.8,,,C,,T,,M,,N,,M*21
20220705 040228+00:00 $HCHDT,66.1,T*18
20220705 040228+00:00 $GPRMC,040224,A,4842.3396,N,12313.5396,W,8.3,69,050722,11.8,E,A,V*6D
20220705 040228+00:00 $WIMWV,355.19,R,8.28,N,A*2A
20220705 040230+00:00 $IIMDA,29.9,I,1.013,B,11.2,C,,C,88.9,,,C,,T,,M,,N,,M*20
20220705 040230+00:00 $HCHDT,66.9,T*10
20220705 040230+00:00 $GPRMC,040226,A,4842.3396,N,12313.5300,W,8.3,69,050722,11.8,E,A,V*60
20220705 040230+00:00 $WIMWV,0.19,R,5.79,N,A*20
20220705 040232+00:00 $IIMDA,29.9,I,1.013,B,11.2,C,,C,88.9,,,C,,T,,M,,N,,M*20
20220705 040232+00:00 $HCHDT,67.9,T*11
20220705 040232+00:00 $GPRMC,040228,A,4842.3396,N,12313.5300,W,8.3,69,050722,11.8,E,A,V*6E
20220705 040232+00:00 $WIMWV,358.49,R,7.48,N,A*2B
20220705 040234+00:00 $IIMDA,29.9,I,1.013,B,11.2,C,,C,89,,,C,,T,,M,,N,,M*36
20220705 040234+00:00 $HCHDT,68.5,T*12
20220705 040234+00:00 $GPRMC,040230,A,4842.3396,N,12313.5198,W,8.3,69,050722,11.8,E,A,V*64
20220705 040234+00:00 $WIMWV,353.39,R,7.48,N,A*27
20220705 040236+00:00 $IIMDA,29.9,I,1.013,B,11.2,C,,C,89.1,,,C,,T,,M,,N,,M*29
20220705 040236+00:00 $HCHDT,69.1,T*17
20220705 040236+00:00 $GPRMC,040232,A,4842.3498,N,12313.5096,W,8.3,70,050722,11.8,E,A,V*68
20220705 040236+00:00 $WIMWV,354.89,R,9.29,N,A*22
20220705 040238+00:00 $IIMDA,29.9,I,1.013,B,11.2,C,,C,89.1,,,C,,T,,M,,N,,M*29
20220705 040238+00:00 $HCHDT,69.5,T*13
20220705 040238+00:00 $GPRMC,040234,A,4842.3498,N,12313.5096,W,8.3,70,050722,11.8,E,A,V*6E
20220705 040238+00:00 $WIMWV,0.19,R,5.09,N,A*27
20220705 040240+00:00 $IIMDA,29.9,I,1.013,B,11.2,C,,C,89.1,,,C,,T,,M,,N,,M*29
20220705 040240+00:00 $HCHDT,69.7,T*11
20220705 040240+00:00 $GPRMC,040236,A,4842.3498,N,12313.5000,W,8.3,71,050722,11.8,E,A,V*62
20220705 040240+00:00 $WIMWV,355.19,R,7.7,N,A*18
20220705 040242+00:00 $IIMDA,29.9,I,1.013,B,11.3,C,,C,89.2,,,C,,T,,M,,N,,M*2B
20220705 040242+00:00 $HCHDT,69.6,T*10
20220705 040242+00:00 $GPRMC,040238,A,4842.3498,N,12313.4898,W,8.3,71,050722,11.8,E,A,V*64
20220705 040242+00:00 $WIMWV,1.2,R,8.79,N,A*16
20220705 040244+00:00 $IIMDA,29.9,I,1.013,B,11.3,C,,C,89.3,,,C,,T,,M,,N,,M*2A
20220705 040244+00:00 $HCHDT,69.4,T*12
20220705 040244+00:00 $GPRMC,040240,A,4842.3498,N,12313.4898,W,8.4,72,050722,11.8,E,A,V*6F
20220705 040244+00:00 $WIMWV,356.09,R,9.58,N,A*2E
20220705 040246+00:00 $IIMDA,29.9,I,1.013,B,11.3,C,,C,89.3,,,C,,T,,M,,N,,M*2A
20220705 040246+00:00 $HCHDT,69.2,T*14
20220705 040246+00:00 $GPRMC,040242,A,4842.3498,N,12313.4796,W,8.4,72,050722,11.8,E,A,V*6C
20220705 040246+00:00 $WIMWV,2,R,6.18,N,A*00
20220705 040248+00:00 $IIMDA,29.9,I,1.013,B,11.3,C,,C,89.3,,,C,,T,,M,,N,,M*2A
20220705 040248+00:00 $HCHDT,69,T*08
20220705 040248+00:00 $GPRMC,040244,A,4842.3498,N,12313.4700,W,8.4,72,050722,11.8,E,A,V*65
20220705 040248+00:00 $WIMWV,358.49,R,7.39,N,A*2D
20220705 040250+00:00 $IIMDA,29.9,I,1.013,B,11.3,C,,C,89.3,,,C,,T,,M,,N,,M*2A
20220705 040250+00:00 $HCHDT,68.7,T*10
20220705 040250+00:00 $GPRMC,040246,A,4842.3600,N,12313.4700,W,8.4,72,050722,11.8,E,A,V*64
20220705 040250+00:00 $WIMWV,356.39,R,6.59,N,A*23
20220705 040252+00:00 $IIMDA,29.9,I,1.013,B,11.3,C,,C,89.4,,,C,,T,,M,,N,,M*2D
20220705 040252+00:00 $HCHDT,68.4,T*13
20220705 040252+00:00 $GPRMC,040248,A,4842.3600,N,12313.4598,W,8.4,72,050722,11.8,E,A,V*69
20220705 040252+00:00 $WIMWV,356.19,R,5.09,N,A*27
20220705 040254+00:00 $IIMDA,29.9,I,1.013,B,11.3,C,,C,89.3,,,C,,T,,M,,N,,M*2A
20220705 040254+00:00 $HCHDT,68.1,T*16
20220705 040254+00:00 $GPRMC,040250,A,4842.3600,N,12313.4496,W,8.4,72,050722,11.8,E,A,V*6F
20220705 040254+00:00 $WIMWV,351.39,R,6.78,N,A*27
20220705 040256+00:00 $IIMDA,29.9,I,1.013,B,11.3,C,,C,89.4,,,C,,T,,M,,N,,M*2D
20220705 040256+00:00 $HCHDT,68,T*09
20220705 040256+00:00 $GPRMC,040252,A,4842.3600,N,12313.4496,W,8.4,72,050722,11.8,E,A,V*6D
20220705 040256+00:00 $WIMWV,357.19,R,4.9,N,A*17
20220705 040258+00:00 $IIMDA,29.9,I,1.013,B,11.3,C,,C,89.4,,,C,,T,,M,,N,,M*2D
20220705 040258+00:00 $HCHDT,68.1,T*16
20220705 040258+00:00 $GPRMC,040254,A,4842.3600,N,12313.4400,W,8.4,72,050722,11.8,E,A,V*64
20220705 040258+00:00 $WIMWV,335.49,R,5.6,N,A*18
20220705 040300+00:00 $IIMDA,29.9,I,1.013,B,11.3,C,,C,89.4,,,C,,T,,M,,N,,M*2D
20220705 040300+00:00 $HCHDT,68.3,T*14
20220705 040300+00:00 $GPRMC,040256,A,4842.3600,N,12313.4298,W,8.4,71,050722,11.8,E,A,V*62
20220705 040300+00:00 $WIMWV,354.09,R,7.7,N,A*18
20220705 040302+00:00 $IIMDA,29.9,I,1.013,B,11.3,C,,C,89.4,,,C,,T,,M,,N,,M*2D
20220705 040302+00:00 $HCHDT,68.4,T*13
20220705 040302+00:00 $GPRMC,040258,A,4842.3600,N,12313.4298,W,8.4,71,050722,11.8,E,A,V*6C
20220705 040302+00:00 $WIMWV,3.8,R,7.19,N,A*17
20220705 040304+00:00 $IIMDA,29.9,I,1.013,B,11.3,C,,C,89.4,,,C,,T,,M,,N,,M*2D
20220705 040304+00:00 $HCHDT,68.6,T*11
20220705 040304+00:00 $GPRMC,040300,A,4842.3696,N,12313.4196,W,8.49,72,050722,11.8,E,A,V*58
20220705 040304+00:00 $WIMWV,350.09,R,5.89,N,A*28
20220705 040306+00:00 $IIMDA,29.9,I,1.013,B,11.3,C,,C,89.4,,,C,,T,,M,,N,,M*2D
20220705 040306+00:00 $HCHDT,68.9,T*1E
20220705 040306+00:00 $GPRMC,040302,A,4842.3696,N,12313.4100,W,8.49,72,050722,11.8,E,A,V*55
20220705 040306+00:00 $WIMWV,354.39,R,6.4,N,A*19
20220705 040308+00:00 $IIMDA,29.9,I,1.013,B,11.3,C,,C,89.4,,,C,,T,,M,,N,,M*2D
20220705 040308+00:00 $HCHDT,69.1,T*17
20220705 040308+00:00 $GPRMC,040304,A,4842.3696,N,12313.3998,W,8.49,72,050722,11.8,E,A,V*5D
20220705 040308+00:00 $WIMWV,356.09,R,3.79,N,A*27
20220705 040310+00:00 $IIMDA,29.9,I,1.013,B,11.3,C,,C,89.4,,,C,,T,,M,,N,,M*2D
20220705 040310+00:00 $HCHDT,69.4,T*12
20220705 040310+00:00 $GPRMC,040306,A,4842.3696,N,12313.3998,W,8.49,72,050722,11.8,E,A,V*5F
20220705 040310+00:00 $WIMWV,354.09,R,6.49,N,A*23
20220705 040312+00:00 $IIMDA,29.9,I,1.013,B,11.3,C,,C,89.4,,,C,,T,,M,,N,,M*2D
20220705 040312+00:00 $HCHDT,69.6,T*10
20220705 040312+00:00 $GPRMC,040308,A,4842.3696,N,12313.3896,W,8.49,72,050722,11.8,E,A,V*5E
20220705 040312+00:00 $WIMWV,358.09,R,4.39,N,A*2A
20220705 040314+00:00 $IIMDA,29.9,I,1.013,B,11.3,C,,C,89.4,,,C,,T,,M,,N,,M*2D
20220705 040314+00:00 $HCHDT,69.6,T*10
20220705 040314+00:00 $GPRMC,040310,A,4842.3696,N,12313.3800,W,8.49,73,050722,11.8,E,A,V*59
20220705 040314+00:00 $WIMWV,357.89,R,4.08,N,A*2F
20220705 040316+00:00 $IIMDA,29.9,I,1.013,B,11.3,C,,C,89.5,,,C,,T,,M,,N,,M*2C
20220705 040316+00:00 $HCHDT,69.6,T*10
20220705 040316+00:00 $GPRMC,040312,A,4842.3696,N,12313.3800,W,8.49,73,050722,11.8,E,A,V*5B
20220705 040316+00:00 $WIMWV,356.09,R,8.98,N,A*23
20220705 040318+00:00 $IIMDA,29.9,I,1.013,B,11.3,C,,C,89.4,,,C,,T,,M,,N,,M*2D
20220705 040318+00:00 $HCHDT,69.6,T*10
20220705 040318+00:00 $GPRMC,040314,A,4842.3798,N,12313.3698,W,8.49,73,050722,11.8,E,A,V*5D
20220705 040318+00:00 $WIMWV,14.6,R,5.89,N,A*24
20220705 040320+00:00 $IIMDA,29.9,I,1.013,B,11.3,C,,C,89.5,,,C,,T,,M,,N,,M*2C
20220705 040320+00:00 $HCHDT,69.6,T*10
20220705 040320+00:00 $GPRMC,040316,A,4842.3798,N,12313.3596,W,8.49,73,050722,11.8,E,A,V*52
20220705 040320+00:00 $WIMWV,357.89,R,6.88,N,A*25
20220705 040322+00:00 $IIMDA,29.9,I,1.013,B,11.3,C,,C,89.5,,,C,,T,,M,,N,,M*2C
20220705 040322+00:00 $HCHDT,69.5,T*13
20220705 040322+00:00 $GPRMC,040318,A,4842.3798,N,12313.3596,W,8.59,73,050722,11.8,E,A,V*5D
20220705 040322+00:00 $WIMWV,8.59,R,8.49,N,A*22
20220705 040324+00:00 $IIMDA,29.9,I,1.013,B,11.3,C,,C,89.5,,,C,,T,,M,,N,,M*2C
20220705 040324+00:00 $HCHDT,69.4,T*12
20220705 040324+00:00 $GPRMC,040320,A,4842.3798,N,12313.3500,W,8.59,73,050722,11.8,E,A,V*59
20220705 040324+00:00 $WIMWV,355.19,R,8.59,N,A*2C
20220705 040326+00:00 $IIMDA,29.9,I,1.013,B,11.3,C,,C,89.5,,,C,,T,,M,,N,,M*2C
20220705 040326+00:00 $HCHDT,69.4,T*12
20220705 040326+00:00 $GPRMC,040322,A,4842.3798,N,12313.3398,W,8.59,74,050722,11.8,E,A,V*5B
20220705 040326+00:00 $WIMWV,359.79,R,8.79,N,A*24
20220705 040328+00:00 $IIMDA,29.9,I,1.013,B,11.3,C,,C,89.6,,,C,,T,,M,,N,,M*2F
20220705 040328+00:00 $HCHDT,69.3,T*15
20220705 040328+00:00 $GPRMC,040324,A,4842.3798,N,12313.3398,W,8.59,74,050722,11.8,E,A,V*5D
20220705 040328+00:00 $WIMWV,1.4,R,7.89,N,A*10
20220705 040330+00:00 $IIMDA,29.9,I,1.013,B,11.3,C,,C,89.6,,,C,,T,,M,,N,,M*2F
20220705 040330+00:00 $HCHDT,69.4,T*12
20220705 040330+00:00 $GPRMC,040326,A,4842.3798,N,12313.3296,W,8.59,74,050722,11.8,E,A,V*50
20220705 040330+00:00 $WIMWV,1.09,R,9.29,N,A*29
20220705 040332+00:00 $IIMDA,29.9,I,1.013,B,11.3,C,,C,89.6,,,C,,T,,M,,N,,M*2F
20220705 040332+00:00 $HCHDT,69.6,T*10
20220705 040332+00:00 $GPRMC,040328,A,4842.3798,N,12313.3200,W,8.59,74,050722,11.8,E,A,V*51
20220705 040332+00:00 $WIMWV,358.09,R,9.19,N,A*25
20220705 040334+00:00 $IIMDA,29.9,I,1.013,B,11.3,C,,C,89.6,,,C,,T,,M,,N,,M*2F
20220705 040334+00:00 $HCHDT,69.5,T*13
20220705 040334+00:00 $GPRMC,040330,A,4842.3900,N,12313.3200,W,8.59,74,050722,11.8,E,A,V*57
20220705 040334+00:00 $WIMWV,14.9,R,5.7,N,A*1D
20220705 040336+00:00 $IIMDA,29.9,I,1.013,B,11.3,C,,C,89.7,,,C,,T,,M,,N,,M*2E
20220705 040336+00:00 $HCHDT,69.4,T*12
20220705 040336+00:00 $GPRMC,040332,A,4842.3900,N,12313.3098,W,8.59,74,050722,11.8,E,A,V*56
20220705 040336+00:00 $WIMWV,356.79,R,6.78,N,A*24
20220705 040338+00:00 $IIMDA,29.9,I,1.013,B,11.3,C,,C,89.7,,,C,,T,,M,,N,,M*2E
20220705 040338+00:00 $HCHDT,69.5,T*13
20220705 040338+00:00 $GPRMC,040334,A,4842.3900,N,12313.2996,W,8.59,74,050722,11.8,E,A,V*56
20220705 040338+00:00 $WIMWV,3.9,R,4.39,N,A*17
20220705 040340+00:00 $IIMDA,29.9,I,1.013,B,11.3,C,,C,89.7,,,C,,T,,M,,N,,M*2E
20220705 040340+00:00 $HCHDT,69.6,T*10
20220705 040340+00:00 $GPRMC,040336,A,4842.3900,N,12313.2900,W,8.59,74,050722,11.8,E,A,V*5B
20220705 040340+00:00 $WIMWV,355.49,R,5.29,N,A*23
20220705 040342+00:00 $IIMDA,29.9,I,1.013,B,11.3,C,,C,89.7,,,C,,T,,M,,N,,M*2E
20220705 040342+00:00 $HCHDT,69.5,T*13
20220705 040342+00:00 $GPRMC,040338,A,4842.3900,N,12313.2900,W,8.59,74,050722,11.8,E,A,V*55
20220705 040342+00:00 $WIMWV,333.79,R,4.08,N,A*22
20220705 040344+00:00 $IIMDA,29.9,I,1.013,B,11.3,C,,C,89.7,,,C,,T,,M,,N,,M*2E
20220705 040344+00:00 $HCHDT,69.4,T*12
20220705 040344+00:00 $GPRMC,040340,A,4842.3900,N,12313.2798,W,8.71,74,050722,11.8,E,A,V*5F
20220705 040344+00:00 $WIMWV,352.19,R,1.19,N,A*26
20220705 040346+00:00 $IIMDA,29.9,I,1.013,B,11.3,C,,C,89.7,,,C,,T,,M,,N,,M*2E
20220705 040346+00:00 $HCHDT,69.4,T*12
20220705 040346+00:00 $GPRMC,040342,A,4842.3900,N,12313.2696,W,8.71,74,050722,11.8,E,A,V*52
20220705 040346+00:00 $WIMWV,357.49,R,7.99,N,A*28
20220705 040348+00:00 $IIMDA,29.9,I,1.013,B,11.3,C,,C,89.7,,,C,,T,,M,,N,,M*2E
20220705 040348+00:00 $HCHDT,69.3,T*15
20220705 040348+00:00 $GPRMC,040344,A,4842.3996,N,12313.2696,W,8.71,74,050722,11.8,E,A,V*5B
20220705 040348+00:00 $WIMWV,354.39,R,8.88,N,A*23
20220705 040350+00:00 $IIMDA,29.9,I,1.013,B,11.3,C,,C,89.7,,,C,,T,,M,,N,,M*2E
20220705 040350+00:00 $HCHDT,69.4,T*12
20220705 040350+00:00 $GPRMC,040346,A,4842.3996,N,12313.2600,W,8.71,74,050722,11.8,E,A,V*56
20220705 040350+00:00 $WIMWV,2.7,R,6.18,N,A*19
20220705 040352+00:00 $IIMDA,29.9,I,1.013,B,11.3,C,,C,89.7,,,C,,T,,M,,N,,M*2E
20220705 040352+00:00 $HCHDT,69.4,T*12
20220705 040352+00:00 $GPRMC,040348,A,4842.3996,N,12313.2498,W,8.71,74,050722,11.8,E,A,V*5B
20220705 040352+00:00 $WIMWV,27.9,R,5.79,N,A*24
20220705 040354+00:00 $IIMDA,29.9,I,1.013,B,11.3,C,,C,89.7,,,C,,T,,M,,N,,M*2E
20220705 040354+00:00 $HCHDT,69.1,T*17
20220705 040354+00:00 $GPRMC,040350,A,4842.3996,N,12313.2498,W,8.71,74,050722,11.8,E,A,V*52
20220705 040354+00:00 $WIMWV,16.29,R,7.29,N,A*13
20220705 040356+00:00 $IIMDA,29.9,I,1.013,B,11.3,C,,C,89.7,,,C,,T,,M,,N,,M*2E
20220705 040356+00:00 $HCHDT,69.2,T*14
20220705 040356+00:00 $GPRMC,040352,A,4842.3996,N,12313.2396,W,8.71,74,050722,11.8,E,A,V*59
20220705 040356+00:00 $WIMWV,349.79,R,7.58,N,A*29
20220705 040358+00:00 $IIMDA,29.9,I,1.013,B,11.3,C,,C,89.7,,,C,,T,,M,,N,,M*2E
20220705 040358+00:00 $HCHDT,69.3,T*15
20220705 040358+00:00 $GPRMC,040354,A,4842.3996,N,12313.2300,W,8.71,74,050722,11.8,E,A,V*50
20220705 040358+00:00 $WIMWV,18.5,R,6.88,N,A*29
20220705 040400+00:00 $IIMDA,29.9,I,1.013,B,11.4,C,,C,89.7,,,C,,T,,M,,N,,M*29
20220705 040400+00:00 $HCHDT,69,T*08
20220705 040400+00:00 $GPRMC,040356,A,4842.3996,N,12313.2198,W,8.71,73,050722,11.8,E,A,V*56
20220705 040400+00:00 $WIMWV,356.19,R,7.99,N,A*2C
20220705 040402+00:00 $IIMDA,29.9,I,1.013,B,11.4,C,,C,89.7,,,C,,T,,M,,N,,M*29
20220705 040402+00:00 $HCHDT,68.9,T*1E
20220705 040402+00:00 $GPRMC,040358,A,4842.4098,N,12313.2198,W,8.71,73,050722,11.8,E,A,V*58
20220705 040402+00:00 $WIMWV,352.09,R,8.18,N,A*2F
20220705 040404+00:00 $IIMDA,29.9,I,1.013,B,11.4,C,,C,89.7,,,C,,T,,M,,N,,M*29
20220705 040404+00:00 $HCHDT,68.9,T*1E
20220705 040404+00:00 $GPRMC,040400,A,4842.4098,N,12313.2096,W,8.81,73,050722,11.8,E,A,V*52
20220705 040404+00:00 $WIMWV,356.19,R,4.2,N,A*1D
20220705 040406+00:00 $IIMDA,29.9,I,1.013,B,11.4,C,,C,89.8,,,C,,T,,M,,N,,M*26
20220705 040406+00:00 $HCHDT,69.1,T*17
20220705 040406+00:00 $GPRMC,040402,A,4842.4098,N,12313.2000,W,8.81,73,050722,11.8,E,A,V*5F
20220705 040406+00:00 $WIMWV,359.59,R,6.78,N,A*29
20220705 040408+00:00 $IIMDA,29.9,I,1.013,B,11.4,C,,C,89.8,,,C,,T,,M,,N,,M*26
20220705 040408+00:00 $HCHDT,69.4,T*12
20220705 040408+00:00 $GPRMC,040404,A,4842.4098,N,12313.2000,W,8.81,73,050722,11.8,E,A,V*59
20220705 040408+00:00 $WIMWV,354.89,R,9.19,N,A*21
20220705 040410+00:00 $IIMDA,29.9,I,1.013,B,11.4,C,,C,89.8,,,C,,T,,M,,N,,M*26
20220705 040410+00:00 $HCHDT,69.7,T*11
20220705 040410+00:00 $GPRMC,040406,A,4842.4098,N,12313.1898,W,8.81,73,050722,11.8,E,A,V*51
20220705 040410+00:00 $WIMWV,351.99,R,7.99,N,A*23
20220705 040412+00:00 $IIMDA,29.9,I,1.013,B,11.4,C,,C,89.9,,,C,,T,,M,,N,,M*27
20220705 040412+00:00 $HCHDT,70,T*00
20220705 040412+00:00 $GPRMC,040408,A,4842.4098,N,12313.1796,W,8.81,73,050722,11.8,E,A,V*5E
20220705 040412+00:00 $WIMWV,359.59,R,8.09,N,A*21
20220705 040414+00:00 $IIMDA,29.9,I,1.013,B,11.4,C,,C,89.9,,,C,,T,,M,,N,,M*27
20220705 040414+00:00 $HCHDT,70,T*00
20220705 040414+00:00 $GPRMC,040410,A,4842.4098,N,12313.1700,W,8.81,73,050722,11.8,E,A,V*58
20220705 040414+00:00 $WIMWV,343.99,R,5.48,N,A*2E
20220705 040416+00:00 $IIMDA,29.9,I,1.013,B,11.4,C,,C,90,,,C,,T,,M,,N,,M*38
20220705 040416+00:00 $HCHDT,70.1,T*1F
20220705 040416+00:00 $GPRMC,040412,A,4842.4200,N,12313.1700,W,8.81,73,050722,11.8,E,A,V*59
20220705 040416+00:00 $WIMWV,356.19,R,7.89,N,A*2D
20220705 040418+00:00 $IIMDA,29.9,I,1.013,B,11.4,C,,C,90,,,C,,T,,M,,N,,M*38
20220705 040418+00:00 $HCHDT,70.1,T*1F
20220705 040418+00:00 $GPRMC,040414,A,4842.4200,N,12313.1598,W,8.81,74,050722,11.8,E,A,V*5B
20220705 040418+00:00 $WIMWV,3.4,R,7.79,N,A*1D
20220705 040420+00:00 $IIMDA,29.9,I,1.013,B,11.4,C,,C,90,,,C,,T,,M,,N,,M*38
20220705 040420+00:00 $HCHDT,69.9,T*1F
20220705 040420+00:00 $GPRMC,040416,A,4842.4200,N,12313.1496,W,8.81,74,050722,11.8,E,A,V*56
20220705 040420+00:00 $WIMWV,13.3,R,3.09,N,A*28
20220705 040422+00:00 $IIMDA,29.9,I,1.013,B,11.4,C,,C,90,,,C,,T,,M,,N,,M*38
20220705 040422+00:00 $HCHDT,70,T*00
20220705 040422+00:00 $GPRMC,040418,A,4842.4200,N,12313.1496,W,8.81,74,050722,11.8,E,A,V*58
20220705 040422+00:00 $WIMWV,359.19,R,4.2,N,A*12
20220705 040424+00:00 $IIMDA,29.9,I,1.013,B,11.4,C,,C,90,,,C,,T,,M,,N,,M*38
20220705 040424+00:00 $HCHDT,70.1,T*1F
20220705 040424+00:00 $GPRMC,040420,A,4842.4200,N,12313.1400,W,8.81,74,050722,11.8,E,A,V*5C
20220705 040424+00:00 $WIMWV,355.79,R,5.48,N,A*27
20220705 040426+00:00 $IIMDA,29.9,I,1.013,B,11.4,C,,C,90,,,C,,T,,M,,N,,M*38
20220705 040426+00:00 $HCHDT,69.9,T*1F
20220705 040426+00:00 $GPRMC,040422,A,4842.4200,N,12313.1298,W,8.9,74,050722,11.8,E,A,V*69
20220705 040426+00:00 $WIMWV,354.29,R,2.39,N,A*22
20220705 040428+00:00 $IIMDA,29.9,I,1.013,B,11.4,C,,C,90.1,,,C,,T,,M,,N,,M*27
20220705 040428+00:00 $HCHDT,69.9,T*1F
20220705 040428+00:00 $GPRMC,040424,A,4842.4200,N,12313.1196,W,8.9,74,050722,11.8,E,A,V*62
20220705 040428+00:00 $WIMWV,2.7,R,5.89,N,A*12
20220705 040430+00:00 $IIMDA,29.9,I,1.013,B,11.4,C,,C,90.1,,,C,,T,,M,,N,,M*27
20220705 040430+00:00 $HCHDT,69.9,T*1F
20220705 040430+00:00 $GPRMC,040426,A,4842.4200,N,12313.1196,W,8.9,74,050722,11.8,E,A,V*60
20220705 040430+00:00 $WIMWV,5.9,R,5,N,A*34
20220705 040432+00:00 $IIMDA,29.9,I,1.013,B,11.4,C,,C,90.1,,,C,,T,,M,,N,,M*27
20220705 040432+00:00 $HCHDT,69.9,T*1F
20220705 040432+00:00 $GPRMC,040428,A,4842.4296,N,12313.1100,W,8.9,74,050722,11.8,E,A,V*6E
20220705 040432+00:00 $WIMWV,0.19,R,5,N,A*00
20220705 040434+00:00 $IIMDA,29.9,I,1.013,B,11.4,C,,C,90.1,,,C,,T,,M,,N,,M*27
20220705 040434+00:00 $HCHDT,70.1,T*1F
20220705 040434+00:00 $GPRMC,040430,A,4842.4296,N,12313.0998,W,8.9,74,050722,11.8,E,A,V*6F
20220705 040434+00:00 $WIMWV,22.69,R,1.09,N,A*14
20220705 040436+00:00 $IIMDA,29.9,I,1.013,B,11.4,C,,C,90.1,,,C,,T,,M,,N,,M*27
20220705 040436+00:00 $HCHDT,70,T*00
20220705 040436+00:00 $GPRMC,040432,A,4842.4296,N,12313.0998,W,8.9,74,050722,11.8,E,A,V*6D
20220705 040436+00:00 $WIMWV,25.2,R,2.68,N,A*2A
20220705 040438+00:00 $IIMDA,29.9,I,1.013,B,11.4,C,,C,90.1,,,C,,T,,M,,N,,M*27
20220705 040438+00:00 $HCHDT,70.2,T*1C
20220705 040438+00:00 $GPRMC,040434,A,4842.4296,N,12313.0896,W,8.9,74,050722,11.8,E,A,V*64
20220705 040438+00:00 $WIMWV,5,R,5.29,N,A*06
20220705 040440+00:00 $IIMDA,29.9,I,1.013,B,11.4,C,,C,90.1,,,C,,T,,M,,N,,M*27
20220705 040440+00:00 $HCHDT,70.3,T*1D
20220705 040440+00:00 $GPRMC,040436,A,4842.4296,N,12313.0800,W,8.9,74,050722,11.8,E,A,V*69
20220705 040440+00:00 $WIMWV,0.19,R,6.08,N,A*25
20220705 040442+00:00 $IIMDA,29.9,I,1.013,B,11.4,C,,C,90.1,,,C,,T,,M,,N,,M*27
20220705 040442+00:00 $HCHDT,70.4,T*1A
20220705 040442+00:00 $GPRMC,040438,A,4842.4296,N,12313.0698,W,8.9,75,050722,11.8,E,A,V*69
20220705 040442+00:00 $WIMWV,22,R,1.98,N,A*3D
20220705 040444+00:00 $IIMDA,29.9,I,1.013,B,11.4,C,,C,90.1,,,C,,T,,M,,N,,M*27
20220705 040444+00:00 $HCHDT,70.5,T*1B
20220705 040444+00:00 $GPRMC,040440,A,4842.4296,N,12313.0698,W,8.9,75,050722,11.8,E,A,V*66
20220705 040444+00:00 $WIMWV,2.8,R,6.3,N,A*2C
20220705 040446+00:00 $IIMDA,29.9,I,1.013,B,11.4,C,,C,90.1,,,C,,T,,M,,N,,M*27
20220705 040446+00:00 $HCHDT,70.6,T*18
20220705 040446+00:00 $GPRMC,040442,A,4842.4398,N,12313.0596,W,8.9,75,050722,11.8,E,A,V*66
20220705 040446+00:00 $WIMWV,3.29,R,4.68,N,A*21
20220705 040448+00:00 $IIMDA,29.9,I,1.013,B,11.4,C,,C,90.2,,,C,,T,,M,,N,,M*24
20220705 040448+00:00 $HCHDT,70.7,T*19
20220705 040448+00:00 $GPRMC,040444,A,4842.4398,N,12313.0500,W,8.9,75,050722,11.8,E,A,V*6F
20220705 040448+00:00 $WIMWV,1.8,R,6.49,N,A*11
20220705 040450+00:00 $IIMDA,29.9,I,1.013,B,11.4,C,,C,90.2,,,C,,T,,M,,N,,M*24
20220705 040450+00:00 $HCHDT,70.9,T*17
20220705 040450+00:00 $GPRMC,040446,A,4842.4398,N,12313.0500,W,9,75,050722,11.8,E,A,V*7B
20220705 040450+00:00 $WIMWV,4.39,R,5.7,N,A*1F
20220705 040452+00:00 $IIMDA,29.9,I,1.013,B,11.4,C,,C,90.3,,,C,,T,,M,,N,,M*25
20220705 040452+00:00 $HCHDT,70.9,T*17
20220705 040452+00:00 $GPRMC,040448,A,4842.4398,N,12313.0398,W,9,75,050722,11.8,E,A,V*72
20220705 040452+00:00 $WIMWV,38.59,R,4.08,N,A*18
20220705 040454+00:00 $IIMDA,29.9,I,1.013,B,11.4,C,,C,90.3,,,C,,T,,M,,N,,M*25
20220705 040454+00:00 $HCHDT,70.9,T*17
20220705 040454+00:00 $GPRMC,040450,A,4842.4398,N,12313.0296,W,9,75,050722,11.8,E,A,V*74
20220705 040454+00:00 $WIMWV,356.69,R,8.4,N,A*10
20220705 040456+00:00 $IIMDA,29.9,I,1.013,B,11.4,C,,C,90.3,,,C,,T,,M,,N,,M*25
20220705 040456+00:00 $HCHDT,70.7,T*19
20220705 040456+00:00 $GPRMC,040452,A,4842.4398,N,12313.0200,W,9,75,050722,11.8,E,A,V*79
20220705 040456+00:00 $WIMWV,359.59,R,4.49,N,A*29
20220705 040458+00:00 $IIMDA,29.9,I,1.013,B,11.4,C,,C,90.3,,,C,,T,,M,,N,,M*25
20220705 040458+00:00 $HCHDT,70.3,T*1D
20220705 040458+00:00 $GPRMC,040454,A,4842.4398,N,12313.0200,W,9,75,050722,11.8,E,A,V*7F
20220705 040458+00:00 $WIMWV,1.4,R,7.48,N,A*1D
20220705 040500+00:00 $IIMDA,29.9,I,1.013,B,11.5,C,,C,90.4,,,C,,T,,M,,N,,M*23
20220705 040500+00:00 $HCHDT,69.9,T*1F
20220705 040500+00:00 $GPRMC,040456,A,4842.4398,N,12313.0098,W,9,75,050722,11.8,E,A,V*7E
20220705 040500+00:00 $WIMWV,356.19,R,5.7,N,A*19
20220705 040502+00:00 $IIMDA,29.9,I,1.013,B,11.5,C,,C,90.4,,,C,,T,,M,,N,,M*23
20220705 040502+00:00 $HCHDT,69.7,T*11
20220705 040502+00:00 $GPRMC,040458,A,4842.4500,N,12312.9996,W,9,75,050722,11.8,E,A,V*78
20220705 040502+00:00 $WIMWV,0.19,R,3.69,N,A*27
20220705 040504+00:00 $IIMDA,29.9,I,1.013,B,11.5,C,,C,90.4,,,C,,T,,M,,N,,M*23
20220705 040504+00:00 $HCHDT,69.5,T*13
20220705 040504+00:00 $GPRMC,040500,A,4842.4500,N,12312.9900,W,9,75,050722,11.8,E,A,V*7B
20220705 040504+00:00 $WIMWV,32.5,R,2.49,N,A*28
20220705 040506+00:00 $IIMDA,29.9,I,1.013,B,11.5,C,,C,90.4,,,C,,T,,M,,N,,M*23
20220705 040506+00:00 $HCHDT,69.5,T*13
20220705 040506+00:00 $GPRMC,040502,A,4842.4500,N,12312.9900,W,9,75,050722,11.8,E,A,V*79
20220705 040506+00:00 $WIMWV,348.49,R,6.18,N,A*2E
20220705 040508+00:00 $IIMDA,29.9,I,1.013,B,11.5,C,,C,90.4,,,C,,T,,M,,N,,M*23
20220705 040508+00:00 $HCHDT,69.5,T*13
20220705 040508+00:00 $GPRMC,040504,A,4842.4500,N,12312.9798,W,9,75,050722,11.8,E,A,V*70
20220705 040508+00:00 $WIMWV,358.39,R,3.6,N,A*12
20220705 040510+00:00 $IIMDA,29.9,I,1.013,B,11.5,C,,C,90.5,,,C,,T,,M,,N,,M*22
20220705 040510+00:00 $HCHDT,69.6,T*10
20220705 040510+00:00 $GPRMC,040506,A,4842.4500,N,12312.9696,W,9,75,050722,11.8,E,A,V*7D
20220705 040510+00:00 $WIMWV,323.49,R,3.09,N,A*26
20220705 040512+00:00 $IIMDA,29.9,I,1.013,B,11.5,C,,C,90.5,,,C,,T,,M,,N,,M*22
20220705 040512+00:00 $HCHDT,69.5,T*13
20220705 040512+00:00 $GPRMC,040508,A,4842.4500,N,12312.9696,W,9,75,050722,11.8,E,A,V*73
20220705 040512+00:00 $WIMWV,352.29,R,6.49,N,A*27
20220705 040514+00:00 $IIMDA,29.9,I,1.013,B,11.5,C,,C,90.5,,,C,,T,,M,,N,,M*22
20220705 040514+00:00 $HCHDT,69.5,T*13
20220705 040514+00:00 $GPRMC,040510,A,4842.4500,N,12312.9600,W,9,75,050722,11.8,E,A,V*75
20220705 040514+00:00 $WIMWV,357.09,R,5.89,N,A*2F
20220705 040516+00:00 $IIMDA,29.9,I,1.013,B,11.5,C,,C,90.5,,,C,,T,,M,,N,,M*22
20220705 040516+00:00 $HCHDT,69.4,T*12
20220705 040516+00:00 $GPRMC,040512,A,4842.4500,N,12312.9498,W,9,75,050722,11.8,E,A,V*74
20220705 040516+00:00 $WIMWV,0.19,R,5.89,N,A*2F
20220705 040518+00:00 $IIMDA,29.9,I,1.013,B,11.5,C,,C,90.4,,,C,,T,,M,,N,,M*23
20220705 040518+00:00 $HCHDT,69.3,T*15
20220705 040518+00:00 $GPRMC,040514,A,4842.4596,N,12312.9396,W,9.1,75,050722,11.7,E,A,V*64
20220705 040518+00:00 $WIMWV,358.39,R,7,N,A*0E
20220705 040520+00:00 $IIMDA,29.9,I,1.013,B,11.5,C,,C,90.4,,,C,,T,,M,,N,,M*23
20220705 040520+00:00 $HCHDT,69.3,T*15
20220705 040520+00:00 $GPRMC,040516,A,4842.4596,N,12312.9396,W,9.1,75,050722,11.7,E,A,V*66
20220705 040520+00:00 $WIMWV,1.7,R,6.08,N,A*1B
20220705 040522+00:00 $IIMDA,29.9,I,1.013,B,11.5,C,,C,90.4,,,C,,T,,M,,N,,M*23
20220705 040522+00:00 $HCHDT,69.4,T*12
20220705 040522+00:00 $GPRMC,040518,A,4842.4596,N,12312.9300,W,9.1,75,050722,11.7,E,A,V*67
20220705 040522+00:00 $WIMWV,33.09,R,3.29,N,A*12
20220705 040524+00:00 $IIMDA,29.9,I,1.013,B,11.5,C,,C,90.4,,,C,,T,,M,,N,,M*23
20220705 040524+00:00 $HCHDT,69.4,T*12
20220705 040524+00:00 $GPRMC,040520,A,4842.4596,N,12312.9198,W,9.1,75,050722,11.7,E,A,V*6F
20220705 040524+00:00 $WIMWV,351.29,R,5.29,N,A*21
20220705 040526+00:00 $IIMDA,29.9,I,1.013,B,11.5,C,,C,90.4,,,C,,T,,M,,N,,M*23
20220705 040526+00:00 $HCHDT,69.4,T*12
20220705 040526+00:00 $GPRMC,040522,A,4842.4596,N,12312.9096,W,9.1,75,050722,11.7,E,A,V*62
20220705 040526+00:00 $WIMWV,353.19,R,5.6,N,A*1D
20220705 040528+00:00 $IIMDA,29.9,I,1.013,B,11.5,C,,C,90.4,,,C,,T,,M,,N,,M*23
20220705 040528+00:00 $HCHDT,69.4,T*12
20220705 040528+00:00 $GPRMC,040524,A,4842.4596,N,12312.9096,W,9.1,75,050722,11.7,E,A,V*64
20220705 040528+00:00 $WIMWV,24.2,R,3.79,N,A*2A
20220705 040530+00:00 $IIMDA,29.9,I,1.013,B,11.5,C,,C,90.3,,,C,,T,,M,,N,,M*24
20220705 040530+00:00 $HCHDT,69.4,T*12
20220705 040530+00:00 $GPRMC,040526,A,4842.4596,N,12312.9000,W,9.1,75,050722,11.7,E,A,V*69
20220705 040530+00:00 $WIMWV,29.3,R,2.29,N,A*22
20220705 040532+00:00 $IIMDA,29.9,I,1.013,B,11.5,C,,C,90.2,,,C,,T,,M,,N,,M*25
20220705 040532+00:00 $HCHDT,69.4,T*12
20220705 040532+00:00 $GPRMC,040528,A,4842.4698,N,12312.8898,W,9.1,75,050722,11.7,E,A,V*62
20220705 040532+00:00 $WIMWV,337.89,R,1.98,N,A*25
20220705 040534+00:00 $IIMDA,29.9,I,1.013,B,11.5,C,,C,90.2,,,C,,T,,M,,N,,M*25
20220705 040534+00:00 $HCHDT,69.3,T*15
20220705 040534+00:00 $GPRMC,040530,A,4842.4698,N,12312.8796,W,9.1,75,050722,11.7,E,A,V*6A
20220705 040534+00:00 $WIMWV,359.39,R,7.29,N,A*2A
20220705 040536+00:00 $IIMDA,29.9,I,1.013,B,11.5,C,,C,90.2,,,C,,T,,M,,N,,M*25
20220705 040536+00:00 $HCHDT,69.1,T*17
20220705 040536+00:00 $GPRMC,040532,A,4842.4698,N,12312.8796,W,9.1,75,050722,11.7,E,A,V*68
20220705 040536+00:00 $WIMWV,333.09,R,3.19,N,A*22
20220705 040538+00:00 $IIMDA,29.9,I,1.013,B,11.5,C,,C,90.1,,,C,,T,,M,,N,,M*26
20220705 040538+00:00 $HCHDT,69.4,T*12
20220705 040538+00:00 $GPRMC,040534,A,4842.4698,N,12312.8700,W,9.1,75,050722,11.7,E,A,V*61
20220705 040538+00:00 $WIMWV,16.29,R,1.28,N,A*14
20220705 040540+00:00 $IIMDA,29.9,I,1.013,B,11.5,C,,C,90,,,C,,T,,M,,N,,M*39
20220705 040540+00:00 $HCHDT,69.4,T*12
20220705 040540+00:00 $GPRMC,040536,A,4842.4698,N,12312.8598,W,9.1,75,050722,11.7,E,A,V*60
20220705 040540+00:00 $WIMWV,234.19,R,2.39,N,A*26
20220705 040542+00:00 $IIMDA,29.9,I,1.013,B,11.5,C,,C,90,,,C,,T,,M,,N,,M*39
20220705 040542+00:00 $HCHDT,69.1,T*17
20220705 040542+00:00 $GPRMC,040538,A,4842.4698,N,12312.8496,W,9.1,75,050722,11.7,E,A,V*61
20220705 040542+00:00 $WIMWV,6.1,R,2.68,N,A*18
20220705 040544+00:00 $IIMDA,29.9,I,1.013,B,11.5,C,,C,89.9,,,C,,T,,M,,N,,M*26
20220705 040544+00:00 $HCHDT,69.2,T*14
20220705 040544+00:00 $GPRMC,040540,A,4842.4698,N,12312.8496,W,9.1,75,050722,11.7,E,A,V*6E
20220705 040544+00:00 $WIMWV,1.2,R,6.4,N,A*22
20220705 040546+00:00 $IIMDA,29.9,I,1.013,B,11.5,C,,C,89.9,,,C,,T,,M,,N,,M*26
20220705 040546+00:00 $HCHDT,69.3,T*15
20220705 040546+00:00 $GPRMC,040542,A,4842.4698,N,12312.8400,W,9.1,75,050722,11.7,E,A,V*63
20220705 040546+00:00 $WIMWV,350.49,R,2.9,N,A*13
20220705 040548+00:00 $IIMDA,29.9,I,1.013,B,11.5,C,,C,89.8,,,C,,T,,M,,N,,M*27
20220705 040548+00:00 $HCHDT,69.2,T*14
20220705 040548+00:00 $GPRMC,040544,A,4842.4800,N,12312.8298,W,9.19,75,050722,11.7,E,A,V*54
20220705 040548+00:00 $WIMWV,338.09,R,3.6,N,A*17
20220705 040550+00:00 $IIMDA,29.9,I,1.013,B,11.5,C,,C,89.8,,,C,,T,,M,,N,,M*27
20220705 040550+00:00 $HCHDT,69.3,T*15
20220705 040550+00:00 $GPRMC,040546,A,4842.4800,N,12312.8196,W,9.19,75,050722,11.7,E,A,V*5B
20220705 040550+00:00 $WIMWV,44.09,R,3.79,N,A*17
20220705 040552+00:00 $IIMDA,29.9,I,1.013,B,11.4,C,,C,89.8,,,C,,T,,M,,N,,M*26
20220705 040552+00:00 $HCHDT,69.5,T*13
20220705 040552+00:00 $GPRMC,040548,A,4842.4800,N,12312.8196,W,9.19,75,050722,11.7,E,A,V*55
20220705 040552+00:00 $WIMWV,339.19,R,4.68,N,A*28
20220705 040554+00:00 $IIMDA,29.9,I,1.013,B,11.4,C,,C,89.7,,,C,,T,,M,,N,,M*29
20220705 040554+00:00 $HCHDT,69.4,T*12
20220705 040554+00:00 $GPRMC,040550,A,4842.4800,N,12312.8100,W,9.19,75,050722,11.7,E,A,V*53
20220705 040554+00:00 $WIMWV,35.4,R,1.89,N,A*21
20220705 040556+00:00 $IIMDA,29.9,I,1.013,B,11.4,C,,C,89.7,,,C,,T,,M,,N,,M*29
20220705 040556+00:00 $HCHDT,69.5,T*13
20220705 040556+00:00 $GPRMC,040552,A,4842.4800,N,12312.7998,W,9.19,75,050722,11.7,E,A,V*57
20220705 040556+00:00 $WIMWV,337.89,R,4.68,N,A*2F
20220705 040558+00:00 $IIMDA,29.9,I,1.013,B,11.4,C,,C,89.7,,,C,,T,,M,,N,,M*29
20220705 040558+00:00 $HCHDT,69.7,T*11
20220705 040558+00:00 $GPRMC,040554,A,4842.4800,N,12312.7998,W,9.19,76,050722,11.7,E,A,V*52
20220705 040558+00:00 $WIMWV,336.99,R,4.49,N,A*2C
20220705 040600+00:00 $IIMDA,29.9,I,1.013,B,11.4,C,,C,89.7,,,C,,T,,M,,N,,M*29
20220705 040600+00:00 $HCHDT,69.8,T*1E
20220705 040600+00:00 $GPRMC,040556,A,4842.4800,N,12312.7896,W,9.19,76,050722,11.7,E,A,V*5F
20220705 040600+00:00 $WIMWV,333.59,R,1.59,N,A*21
20220705 040602+00:00 $IIMDA,29.9,I,1.013,B,11.4,C,,C,89.8,,,C,,T,,M,,N,,M*26
20220705 040602+00:00 $HCHDT,70,T*00
20220705 040602+00:00 $GPRMC,040558,A,4842.4800,N,12312.7800,W,9.19,76,050722,11.7,E,A,V*5E
20220705 040602+00:00 $WIMWV,4.6,R,6.49,N,A*1A
20220705 040604+00:00 $IIMDA,29.9,I,1.013,B,11.4,C,,C,89.8,,,C,,T,,M,,N,,M*26
20220705 040604+00:00 $HCHDT,70.2,T*1C
20220705 040604+00:00 $GPRMC,040600,A,4842.4896,N,12312.7698,W,9.19,76,050722,11.7,E,A,V*50
20220705 040604+00:00 $WIMWV,3,R,6.49,N,A*05
20220705 040606+00:00 $IIMDA,29.9,I,1.013,B,11.4,C,,C,89.9,,,C,,T,,M,,N,,M*27
20220705 040606+00:00 $HCHDT,70.5,T*1B
20220705 040606+00:00 $GPRMC,040602,A,4842.4896,N,12312.7596,W,9.19,76,050722,11.7,E,A,V*5F
20220705 040606+00:00 $WIMWV,18.9,R,4.78,N,A*28
20220705 040608+00:00 $IIMDA,29.9,I,1.013,B,11.4,C,,C,89.9,,,C,,T,,M,,N,,M*27
20220705 040608+00:00 $HCHDT,70.6,T*18
20220705 040608+00:00 $GPRMC,040604,A,4842.4896,N,12312.7596,W,9.19,76,050722,11.7,E,A,V*59
20220705 040608+00:00 $WIMWV,352.79,R,7.29,N,A*25
20220705 040610+00:00 $IIMDA,29.9,I,1.013,B,11.5,C,,C,90,,,C,,T,,M,,N,,M*39
20220705 040610+00:00 $HCHDT,70.6,T*18
20220705 040610+00:00 $GPRMC,040606,A,4842.4896,N,12312.7500,W,9.29,76,050722,11.7,E,A,V*57
20220705 040610+00:00 $WIMWV,22.2,R,6.3,N,A*14
20220705 040612+00:00 $IIMDA,29.9,I,1.013,B,11.5,C,,C,90.1,,,C,,T,,M,,N,,M*26
20220705 040612+00:00 $HCHDT,70.4,T*1A
20220705 040612+00:00 $GPRMC,040608,A,4842.4896,N,12312.7398,W,9.29,76,050722,11.7,E,A,V*5E
20220705 040612+00:00 $WIMWV,354.19,R,6.69,N,A*20
20220705 040614+00:00 $IIMDA,29.9,I,1.013,B,11.5,C,,C,90.2,,,C,,T,,M,,N,,M*25
20220705 040614+00:00 $HCHDT,70.1,T*1F
20220705 040614+00:00 $GPRMC,040610,A,4842.4896,N,12312.7296,W,9.29,76,050722,11.7,E,A,V*58
20220705 040614+00:00 $WIMWV,11.1,R,3.69,N,A*2E
20220705 040616+00:00 $IIMDA,29.9,I,1.013,B,11.5,C,,C,90.3,,,C,,T,,M,,N,,M*24
20220705 040616+00:00 $HCHDT,69.9,T*1F
20220705 040616+00:00 $GPRMC,040612,A,4842.4896,N,12312.7296,W,9.29,76,050722,11.7,E,A,V*5A
20220705 040616+00:00 $WIMWV,2,R,5.99,N,A*0A
20220705 040618+00:00 $IIMDA,29.9,I,1.013,B,11.5,C,,C,90.3,,,C,,T,,M,,N,,M*24
20220705 040618+00:00 $HCHDT,69.5,T*13
20220705 040618+00:00 $GPRMC,040614,A,4842.4896,N,12312.7200,W,9.29,76,050722,11.7,E,A,V*53
20220705 040618+00:00 $WIMWV,353.89,R,5.19,N,A*2A
20220705 040620+00:00 $IIMDA,29.9,I,1.013,B,11.5,C,,C,90.4,,,C,,T,,M,,N,,M*23
20220705 040620+00:00 $HCHDT,69.2,T*14
20220705 040620+00:00 $GPRMC,040616,A,4842.4998,N,12312.7098,W,9.29,76,050722,11.7,E,A,V*5D
20220705 040620+00:00 $WIMWV,22.6,R,5.48,N,A*2C
20220705 040622+00:00 $IIMDA,29.9,I,1.013,B,11.5,C,,C,90.5,,,C,,T,,M,,N,,M*22
20220705 040622+00:00 $HCHDT,69.2,T*14
20220705 040622+00:00 $GPRMC,040618,A,4842.4998,N,12312.6996,W,9.29,76,050722,11.7,E,A,V*55
20220705 040622+00:00 $WIMWV,10.79,R,4.78,N,A*17
20220705 040624+00:00 $IIMDA,29.9,I,1.013,B,11.5,C,,C,90.5,,,C,,T,,M,,N,,M*22
20220705 040624+00:00 $HCHDT,69.3,T*15
20220705 040624+00:00 $GPRMC,040620,A,4842.4998,N,12312.6996,W,9.29,76,050722,11.7,E,A,V*5E
20220705 040624+00:00 $WIMWV,25.2,R,4.68,N,A*2C
20220705 040626+00:00 $IIMDA,29.9,I,1.013,B,11.5,C,,C,90.6,,,C,,T,,M,,N,,M*21
20220705 040626+00:00 $HCHDT,69.2,T*14
20220705 040626+00:00 $GPRMC,040622,A,4842.4998,N,12312.6900,W,9.29,76,050722,11.7,E,A,V*53
20220705 040626+00:00 $WIMWV,357.99,R,4.78,N,A*29
20220705 040628+00:00 $IIMDA,29.9,I,1.013,B,11.5,C,,C,90.7,,,C,,T,,M,,N,,M*20
20220705 040628+00:00 $HCHDT,69.2,T*14
20220705 040628+00:00 $GPRMC,040624,A,4842.4998,N,12312.6798,W,9.29,76,050722,11.7,E,A,V*5A
20220705 040628+00:00 $WIMWV,2.1,R,7.29,N,A*1C
20220705 040630+00:00 $IIMDA,29.9,I,1.013,B,11.5,C,,C,90.7,,,C,,T,,M,,N,,M*20
20220705 040630+00:00 $HCHDT,69.2,T*14
20220705 040630+00:00 $GPRMC,040626,A,4842.4998,N,12312.6696,W,9.29,76,050722,11.7,E,A,V*57
20220705 040630+00:00 $WIMWV,15.1,R,2.99,N,A*24
20220705 040632+00:00 $IIMDA,29.9,I,1.013,B,11.5,C,,C,90.8,,,C,,T,,M,,N,,M*2F
20220705 040632+00:00 $HCHDT,69.2,T*14
20220705 040632+00:00 $GPRMC,040628,A,4842.4998,N,12312.6696,W,9.29,76,050722,11.7,E,A,V*59
20220705 040632+00:00 $WIMWV,351.59,R,5.38,N,A*26
20220705 040634+00:00 $IIMDA,29.9,I,1.013,B,11.5,C,,C,90.9,,,C,,T,,M,,N,,M*2E
20220705 040634+00:00 $HCHDT,69.3,T*15
20220705 040634+00:00 $GPRMC,040630,A,4842.4998,N,12312.6600,W,9.29,76,050722,11.7,E,A,V*5F
20220705 040634+00:00 $WIMWV,359.19,R,6.3,N,A*11
20220705 040636+00:00 $IIMDA,29.9,I,1.013,B,11.5,C,,C,90.9,,,C,,T,,M,,N,,M*2E
20220705 040636+00:00 $HCHDT,69.3,T*15
20220705 040636+00:00 $GPRMC,040632,A,4842.5100,N,12312.6498,W,9.29,76,050722,11.7,E,A,V*56
20220705 040636+00:00 $WIMWV,0.19,R,4.2,N,A*1D
20220705 040638+00:00 $IIMDA,29.9,I,1.013,B,11.6,C,,C,90.9,,,C,,T,,M,,N,,M*2D
20220705 040638+00:00 $HCHDT,69.3,T*15
20220705 040638+00:00 $GPRMC,040634,A,4842.5100,N,12312.6396,W,9.41,77,050722,11.7,E,A,V*56
20220705 040638+00:00 $WIMWV,80.99,R,1.28,N,A*10
20220705 040640+00:00 $IIMDA,29.9,I,1.013,B,11.6,C,,C,91,,,C,,T,,M,,N,,M*3B
20220705 040640+00:00 $HCHDT,69.4,T*12
20220705 040640+00:00 $GPRMC,040636,A,4842.5100,N,12312.6396,W,9.41,77,050722,11.7,E,A,V*54
20220705 040640+00:00 $WIMWV,13.3,R,2.49,N,A*2D
20220705 040642+00:00 $IIMDA,29.9,I,1.013,B,11.6,C,,C,91,,,C,,T,,M,,N,,M*3B
20220705 040642+00:00 $HCHDT,69.5,T*13
20220705 040642+00:00 $GPRMC,040638,A,4842.5100,N,12312.6300,W,9.41,77,050722,11.7,E,A,V*55
20220705 040642+00:00 $WIMWV,353.99,R,7,N,A*0F
20220705 040644+00:00 $IIMDA,29.9,I,1.013,B,11.6,C,,C,91.1,,,C,,T,,M,,N,,M*24
20220705 040644+00:00 $HCHDT,69.6,T*10
20220705 040644+00:00 $GPRMC,040640,A,4842.5100,N,12312.6198,W,9.41,77,050722,11.7,E,A,V*59
20220705 040644+00:00 $WIMWV,355.69,R,6.08,N,A*21
20220705 040646+00:00 $IIMDA,29.9,I,1.013,B,11.6,C,,C,91.1,,,C,,T,,M,,N,,M*24
20220705 040646+00:00 $HCHDT,69.6,T*10
20220705 040646+00:00 $GPRMC,040642,A,4842.5100,N,12312.6096,W,9.41,77,050722,11.7,E,A,V*54
20220705 040646+00:00 $WIMWV,14.6,R,5.19,N,A*2D
20220705 040648+00:00 $IIMDA,29.9,I,1.013,B,11.6,C,,C,91.1,,,C,,T,,M,,N,,M*24
20220705 040648+00:00 $HCHDT,69.6,T*10
20220705 040648+00:00 $GPRMC,040644,A,4842.5100,N,12312.6096,W,9.41,77,050722,11.7,E,A,V*52
20220705 040648+00:00 $WIMWV,355.99,R,8.09,N,A*21
20220705 040650+00:00 $IIMDA,29.9,I,1.013,B,11.6,C,,C,91.2,,,C,,T,,M,,N,,M*27
20220705 040650+00:00 $HCHDT,69.5,T*13
20220705 040650+00:00 $GPRMC,040646,A,4842.5100,N,12312.6000,W,9.41,77,050722,11.7,E,A,V*5F
20220705 040650+00:00 $WIMWV,349.69,R,5.19,N,A*2F
20220705 040652+00:00 $IIMDA,29.9,I,1.013,B,11.6,C,,C,91.2,,,C,,T,,M,,N,,M*27
20220705 040652+00:00 $HCHDT,69.5,T*13
20220705 040652+00:00 $GPRMC,040648,A,4842.5100,N,12312.5898,W,9.41,77,050722,11.7,E,A,V*5B
20220705 040652+00:00 $WIMWV,357.99,R,5.09,N,A*2E
20220705 040654+00:00 $IIMDA,29.9,I,1.013,B,11.6,C,,C,91.2,,,C,,T,,M,,N,,M*27
20220705 040654+00:00 $HCHDT,69.6,T*10
20220705 040654+00:00 $GPRMC,040650,A,4842.5196,N,12312.5796,W,9.41,77,050722,11.7,E,A,V*5C
20220705 040654+00:00 $WIMWV,24.4,R,2.29,N,A*28
20220705 040656+00:00 $IIMDA,29.9,I,1.013,B,11.6,C,,C,91.3,,,C,,T,,M,,N,,M*26
20220705 040656+00:00 $HCHDT,69.5,T*13
20220705 040656+00:00 $GPRMC,040652,A,4842.5196,N,12312.5700,W,9.41,77,050722,11.7,E,A,V*51
20220705 040656+00:00 $WIMWV,331.19,R,3.6,N,A*1F
20220705 040658+00:00 $IIMDA,29.9,I,1.013,B,11.6,C,,C,91.3,,,C,,T,,M,,N,,M*26
20220705 040658+00:00 $HCHDT,69.6,T*10
20220705 040658+00:00 $GPRMC,040654,A,4842.5196,N,12312.5700,W,9.41,77,050722,11.7,E,A,V*57
20220705 040658+00:00 $WIMWV,350.29,R,8.4,N,A*12
20220705 040700+00:00 $IIMDA,29.9,I,1.013,B,11.6,C,,C,91.3,,,C,,T,,M,,N,,M*26
20220705 040700+00:00 $HCHDT,69.7,T*11
20220705 040700+00:00 $GPRMC,040656,A,4842.5196,N,12312.5598,W,9.41,77,050722,11.7,E,A,V*56
20220705 040700+00:00 $WIMWV,329.89,R,4.68,N,A*20
20220705 040702+00:00 $IIMDA,29.9,I,1.013,B,11.6,C,,C,91.4,,,C,,T,,M,,N,,M*21
20220705 040702+00:00 $HCHDT,69.8,T*1E
20220705 040702+00:00 $GPRMC,040658,A,4842.5196,N,12312.5496,W,9.41,77,050722,11.7,E,A,V*57
20220705 040702+00:00 $WIMWV,1.2,R,6.08,N,A*1E
20220705 040704+00:00 $IIMDA,29.9,I,1.013,B,11.6,C,,C,91.4,,,C,,T,,M,,N,,M*21
20220705 040704+00:00 $HCHDT,70.1,T*1F
20220705 040704+00:00 $GPRMC,040700,A,4842.5196,N,12312.5400,W,9.41,77,050722,11.7,E,A,V*54
20220705 040704+00:00 $WIMWV,359.79,R,7.48,N,A*29
20220705 040706+00:00 $IIMDA,29.9,I,1.013,B,11.6,C,,C,91.4,,,C,,T,,M,,N,,M*21
20220705 040706+00:00 $HCHDT,70.3,T*1D
20220705 040706+00:00 $GPRMC,040702,A,4842.5196,N,12312.5400,W,9.51,77,050722,11.7,E,A,V*57
20220705 040706+00:00 $WIMWV,352.99,R,5.09,N,A*2B
20220705 040708+00:00 $IIMDA,29.9,I,1.013,B,11.6,C,,C,91.4,,,C,,T,,M,,N,,M*21
20220705 040708+00:00 $HCHDT,70.4,T*1A
20220705 040708+00:00 $GPRMC,040704,A,4842.5196,N,12312.5298,W,9.51,77,050722,11.7,E,A,V*56
20220705 040708+00:00 $WIMWV,5.4,R,6.78,N,A*1B
20220705 040710+00:00 $IIMDA,29.9,I,1.013,B,11.6,C,,C,91.5,,,C,,T,,M,,N,,M*20
20220705 040710+00:00 $HCHDT,70.5,T*1B
20220705 040710+00:00 $GPRMC,040706,A,4842.5298,N,12312.5196,W,9.51,77,050722,11.7,E,A,V*54
20220705 040710+00:00 $WIMWV,351.39,R,5.7,N,A*1C
20220705 040712+00:00 $IIMDA,29.9,I,1.013,B,11.6,C,,C,91.4,,,C,,T,,M,,N,,M*21
20220705 040712+00:00 $HCHDT,70.4,T*1A
20220705 040712+00:00 $GPRMC,040708,A,4842.5298,N,12312.5100,W,9.51,77,050722,11.7,E,A,V*55
20220705 040712+00:00 $WIMWV,21.39,R,2.2,N,A*2A
20220705 040714+00:00 $IIMDA,29.9,I,1.013,B,11.6,C,,C,91.5,,,C,,T,,M,,N,,M*20
20220705 040714+00:00 $HCHDT,70.1,T*1F
20220705 040714+00:00 $GPRMC,040710,A,4842.5298,N,12312.4998,W,9.51,77,050722,11.7,E,A,V*54
20220705 040714+00:00 $WIMWV,21.3,R,5,N,A*08
20220705 040716+00:00 $IIMDA,29.9,I,1.013,B,11.7,C,,C,91.5,,,C,,T,,M,,N,,M*21
20220705 040716+00:00 $HCHDT,69.9,T*1F
20220705 040716+00:00 $GPRMC,040712,A,4842.5298,N,12312.4998,W,9.51,77,050722,11.7,E,A,V*56
20220705 040716+00:00 $WIMWV,55.59,R,3.09,N,A*15
20220705 040718+00:00 $IIMDA,29.9,I,1.013,B,11.7,C,,C,91.5,,,C,,T,,M,,N,,M*21
20220705 040718+00:00 $HCHDT,69.6,T*10
20220705 040718+00:00 $GPRMC,040714,A,4842.5298,N,12312.4896,W,9.51,77,050722,11.7,E,A,V*5F
20220705 040718+00:00 $WIMWV,17.8,R,5.6,N,A*1E
20220705 040720+00:00 $IIMDA,29.9,I,1.013,B,11.7,C,,C,91.5,,,C,,T,,M,,N,,M*21
20220705 040720+00:00 $HCHDT,69.3,T*15
20220705 040720+00:00 $GPRMC,040716,A,4842.5298,N,12312.4800,W,9.51,77,050722,11.7,E,A,V*52
20220705 040720+00:00 $WIMWV,0.19,R,4.78,N,A*20
20220705 040722+00:00 $IIMDA,29.9,I,1.013,B,11.7,C,,C,91.5,,,C,,T,,M,,N,,M*21
20220705 040722+00:00 $HCHDT,69.3,T*15
20220705 040722+00:00 $GPRMC,040718,A,4842.5298,N,12312.4698,W,9.51,77,050722,11.7,E,A,V*53
20220705 040722+00:00 $WIMWV,359.39,R,4.49,N,A*2F
20220705 040724+00:00 $IIMDA,29.9,I,1.013,B,11.7,C,,C,91.5,,,C,,T,,M,,N,,M*21
20220705 040724+00:00 $HCHDT,69.3,T*15
20220705 040724+00:00 $GPRMC,040720,A,4842.5298,N,12312.4698,W,9.51,77,050722,11.7,E,A,V*58
20220705 040724+00:00 $WIMWV,359.39,R,4.2,N,A*10
20220705 040726+00:00 $IIMDA,29.9,I,1.013,B,11.7,C,,C,91.5,,,C,,T,,M,,N,,M*21
20220705 040726+00:00 $HCHDT,69.3,T*15
20220705 040726+00:00 $GPRMC,040722,A,4842.5298,N,12312.4596,W,9.51,77,050722,11.7,E,A,V*57
20220705 040726+00:00 $WIMWV,354.79,R,8.4,N,A*13
20220705 040728+00:00 $IIMDA,29.9,I,1.013,B,11.7,C,,C,91.5,,,C,,T,,M,,N,,M*21
20220705 040728+00:00 $HCHDT,69.4,T*12
20220705 040728+00:00 $GPRMC,040724,A,4842.5400,N,12312.4500,W,9.51,77,050722,11.7,E,A,V*59
20220705 040728+00:00 $WIMWV,358.99,R,6.3,N,A*18
20220705 040730+00:00 $IIMDA,29.9,I,1.013,B,11.7,C,,C,91.5,,,C,,T,,M,,N,,M*21
20220705 040730+00:00 $HCHDT,69.6,T*10
20220705 040730+00:00 $GPRMC,040726,A,4842.5400,N,12312.4398,W,9.51,77,050722,11.7,E,A,V*5C
20220705 040730+00:00 $WIMWV,348.09,R,5.7,N,A*17
20220705 040732+00:00 $IIMDA,29.9,I,1.013,B,11.7,C,,C,91.5,,,C,,T,,M,,N,,M*21
20220705 040732+00:00 $HCHDT,69.8,T*1E
20220705 040732+00:00 $GPRMC,040728,A,4842.5400,N,12312.4296,W,9.51,77,050722,11.7,E,A,V*5D
20220705 040732+00:00 $WIMWV,20.6,R,3.38,N,A*2F
20220705 040734+00:00 $IIMDA,29.9,I,1.013,B,11.7,C,,C,91.5,,,C,,T,,M,,N,,M*21
20220705 040734+00:00 $HCHDT,70,T*00
20220705 040734+00:00 $GPRMC,040730,A,4842.5400,N,12312.4296,W,9.51,77,050722,11.7,E,A,V*54
20220705 040734+00:00 $WIMWV,357.89,R,5.6,N,A*10
20220705 040736+00:00 $IIMDA,29.9,I,1.013,B,11.7,C,,C,91.5,,,C,,T,,M,,N,,M*21
20220705 040736+00:00 $HCHDT,70.1,T*1F
20220705 040736+00:00 $GPRMC,040732,A,4842.5400,N,12312.4200,W,9.51,77,050722,11.7,E,A,V*59
20220705 040736+00:00 $WIMWV,0.19,R,7.58,N,A*21
20220705 040738+00:00 $IIMDA,29.9,I,1.013,B,11.7,C,,C,91.5,,,C,,T,,M,,N,,M*21
20220705 040738+00:00 $HCHDT,70.2,T*1C
20220705 040738+00:00 $GPRMC,040734,A,4842.5400,N,12312.4098,W,9.6,77,050722,11.7,E,A,V*6E
20220705 040738+00:00 $WIMWV,7.2,R,1.98,N,A*16
20220705 040740+00:00 $IIMDA,29.9,I,1.013,B,11.7,C,,C,91.5,,,C,,T,,M,,N,,M*21
20220705 040740+00:00 $HCHDT,70.5,T*1B
20220705 040740+00:00 $GPRMC,040736,A,4842.5400,N,12312.3996,W,9.6,77,050722,11.7,E,A,V*6C
20220705 040740+00:00 $WIMWV,353.29,R,7.89,N,A*2B
20220705 040742+00:00 $IIMDA,29.9,I,1.013,B,11.7,C,,C,91.4,,,C,,T,,M,,N,,M*20
20220705 040742+00:00 $HCHDT,70.8,T*16
20220705 040742+00:00 $GPRMC,040738,A,4842.5400,N,12312.3996,W,9.6,77,050722,11.7,E,A,V*62
20220705 040742+00:00 $WIMWV,357.09,R,9.39,N,A*28
20220705 040744+00:00 $IIMDA,29.9,I,1.013,B,11.7,C,,C,91.4,,,C,,T,,M,,N,,M*20
20220705 040744+00:00 $HCHDT,70.8,T*16
20220705 040744+00:00 $GPRMC,040740,A,4842.5496,N,12312.3900,W,9.6,77,050722,11.7,E,A,V*6D
20220705 040744+00:00 $WIMWV,355.09,R,5.29,N,A*27
20220705 040746+00:00 $IIMDA,29.9,I,1.013,B,11.7,C,,C,91.4,,,C,,T,,M,,N,,M*20
20220705 040746+00:00 $HCHDT,70.9,T*17
20220705 040746+00:00 $GPRMC,040742,A,4842.5496,N,12312.3798,W,9.6,77,050722,11.7,E,A,V*60
