20220705 100001+00:00 $IIMDA,29.9,I,1.013,B,14,C,,C,89.2,,,C,,T,,M,,N,,M*33
20220705 100001+00:00 $GPRMC,095956,A,4910.9896,N,12326.4996,W,6.61,357,050722,11.8,E,A,V*65
20220705 100001+00:00 $HCHDT,356.7,T*2E
20220705 100001+00:00 $WIMWV,28.6,R,8.4,N,A*13
20220705 100003+00:00 $IIMDA,29.9,I,1.013,B,14,C,,C,89.2,,,C,,T,,M,,N,,M*33
20220705 100003+00:00 $GPRMC,095958,A,4910.9998,N,12326.4996,W,6.61,357,050722,11.8,E,A,V*64
20220705 100003+00:00 $HCHDT,356.7,T*2E
20220705 100003+00:00 $WIMWV,22.6,R,7.58,N,A*2F
20220705 100005+00:00 $IIMDA,29.9,I,1.013,B,14,C,,C,89.3,,,C,,T,,M,,N,,M*32
20220705 100005+00:00 $GPRMC,100000,A,4910.9998,N,12326.4996,W,6.61,357,050722,11.8,E,A,V*6D
20220705 100005+00:00 $HCHDT,356.6,T*2F
20220705 100005+00:00 $WIMWV,46.4,R,9.58,N,A*21
20220705 100007+00:00 $IIMDA,29.9,I,1.013,B,14,C,,C,89.3,,,C,,T,,M,,N,,M*32
20220705 100007+00:00 $GPRMC,100002,A,4910.9998,N,12326.4996,W,6.61,357,050722,11.8,E,A,V*6F
20220705 100007+00:00 $HCHDT,356.6,T*2F
20220705 100007+00:00 $WIMWV,27.5,R,10.38,N,A*19
20220705 100009+00:00 $IIMDA,29.9,I,1.013,B,14,C,,C,89.4,,,C,,T,,M,,N,,M*35
20220705 100009+00:00 $GPRMC,100004,A,4911.0100,N,12326.4996,W,6.61,357,050722,11.8,E,A,V*68
20220705 100009+00:00 $HCHDT,356.7,T*2E
20220705 100009+00:00 $WIMWV,26.8,R,9.68,N,A*28
20220705 100011+00:00 $IIMDA,29.9,I,1.013,B,14,C,,C,89.4,,,C,,T,,M,,N,,M*35
20220705 100011+00:00 $GPRMC,100006,A,4911.0100,N,12326.4996,W,6.61,357,050722,11.8,E,A,V*6A
20220705 100011+00:00 $HCHDT,356.8,T*21
20220705 100011+00:00 $WIMWV,33.09,R,8.09,N,A*1B
20220705 100013+00:00 $IIMDA,29.9,I,1.013,B,14,C,,C,89.4,,,C,,T,,M,,N,,M*35
20220705 100013+00:00 $GPRMC,100008,A,4911.0100,N,12326.4996,W,6.61,357,050722,11.8,E,A,V*64
20220705 100013+00:00 $HCHDT,356.9,T*20
20220705 100013+00:00 $WIMWV,12.9,R,5.6,N,A*1A
20220705 100015+00:00 $IIMDA,29.9,I,1.013,B,14,C,,C,89.4,,,C,,T,,M,,N,,M*35
20220705 100015+00:00 $GPRMC,100010,A,4911.0196,N,12326.4996,W,6.61,357,050722,11.8,E,A,V*62
20220705 100015+00:00 $HCHDT,357,T*36
20220705 100015+00:00 $WIMWV,27.79,R,9.89,N,A*10
20220705 100017+00:00 $IIMDA,29.9,I,1.013,B,14,C,,C,89.4,,,C,,T,,M,,N,,M*35
20220705 100017+00:00 $GPRMC,100012,A,4911.0196,N,12326.4996,W,6.61,357,050722,11.8,E,A,V*60
20220705 100017+00:00 $HCHDT,357,T*36
20220705 100017+00:00 $WIMWV,17.9,R,7.7,N,A*1C
20220705 100019+00:00 $IIMDA,29.9,I,1.013,B,14,C,,C,89.3,,,C,,T,,M,,N,,M*32
20220705 100019+00:00 $GPRMC,100014,A,4911.0298,N,12326.4996,W,6.61,357,050722,11.8,E,A,V*6B
20220705 100019+00:00 $HCHDT,357.1,T*29
20220705 100019+00:00 $WIMWV,29.3,R,9.99,N,A*22
20220705 100021+00:00 $IIMDA,29.9,I,1.013,B,14,C,,C,89.4,,,C,,T,,M,,N,,M*35
20220705 100021+00:00 $GPRMC,100016,A,4911.0298,N,12326.4996,W,6.61,357,050722,11.8,E,A,V*69
20220705 100021+00:00 $HCHDT,357.1,T*29
20220705 100021+00:00 $WIMWV,27.2,R,7,N,A*0D
20220705 100023+00:00 $IIMDA,29.9,I,1.013,B,14,C,,C,89.4,,,C,,T,,M,,N,,M*35
20220705 100023+00:00 $GPRMC,100018,A,4911.0298,N,12326.4996,W,6.61,357,050722,11.8,E,A,V*67
20220705 100023+00:00 $HCHDT,357.3,T*2B
20220705 100023+00:00 $WIMWV,25.3,R,7.39,N,A*2A
20220705 100025+00:00 $IIMDA,29.9,I,1.013,B,14,C,,C,89.4,,,C,,T,,M,,N,,M*35
20220705 100025+00:00 $GPRMC,100020,A,4911.0400,N,12326.4996,W,6.61,357,050722,11.8,E,A,V*6B
20220705 100025+00:00 $HCHDT,357.3,T*2B
20220705 100025+00:00 $WIMWV,26.2,R,7.89,N,A*23
20220705 100027+00:00 $IIMDA,29.9,I,1.013,B,14,C,,C,89.4,,,C,,T,,M,,N,,M*35
20220705 100027+00:00 $GPRMC,100022,A,4911.0400,N,12326.4996,W,6.61,357,050722,11.8,E,A,V*69
20220705 100027+00:00 $HCHDT,357.3,T*2B
20220705 100027+00:00 $WIMWV,22.8,R,8.49,N,A*2E
20220705 100029+00:00 $IIMDA,29.9,I,1.013,B,14,C,,C,89.4,,,C,,T,,M,,N,,M*35
20220705 100029+00:00 $GPRMC,100024,A,4911.0400,N,12326.4996,W,6.61,357,050722,11.8,E,A,V*6F
20220705 100029+00:00 $HCHDT,357.1,T*29
20220705 100029+00:00 $WIMWV,19.3,R,7.39,N,A*25
20220705 100031+00:00 $IIMDA,29.9,I,1.013,B,14,C,,C,89.4,,,C,,T,,M,,N,,M*35
20220705 100031+00:00 $GPRMC,100026,A,4911.0496,N,12326.4996,W,6.61,357,050722,11.8,E,A,V*62
20220705 100031+00:00 $HCHDT,357.1,T*29
20220705 100031+00:00 $WIMWV,15.5,R,6.49,N,A*29
20220705 100033+00:00 $IIMDA,29.9,I,1.013,B,14,C,,C,89.3,,,C,,T,,M,,N,,M*32
20220705 100033+00:00 $GPRMC,100028,A,4911.0496,N,12326.4996,W,6.61,357,050722,11.8,E,A,V*6C
20220705 100033+00:00 $HCHDT,357,T*36
20220705 100033+00:00 $WIMWV,18.4,R,9.39,N,A*2D
20220705 100035+00:00 $IIMDA,29.9,I,1.013,B,14,C,,C,89.3,,,C,,T,,M,,N,,M*32
20220705 100035+00:00 $GPRMC,100030,A,4911.0598,N,12326.4996,W,6.61,357,050722,11.8,E,A,V*6A
20220705 100035+00:00 $HCHDT,357.1,T*29
20220705 100035+00:00 $WIMWV,13.1,R,8.69,N,A*27
20220705 100037+00:00 $IIMDA,29.9,I,1.013,B,14,C,,C,89.3,,,C,,T,,M,,N,,M*32
20220705 100037+00:00 $GPRMC,100032,A,4911.0598,N,12326.4996,W,6.61,357,050722,11.8,E,A,V*68
20220705 100037+00:00 $HCHDT,357.2,T*2A
20220705 100037+00:00 $WIMWV,9.69,R,7.48,N,A*2E
20220705 100039+00:00 $IIMDA,29.9,I,1.013,B,14,C,,C,89.3,,,C,,T,,M,,N,,M*32
20220705 100039+00:00 $GPRMC,100034,A,4911.0598,N,12326.4996,W,6.61,357,050722,11.8,E,A,V*6E
20220705 100039+00:00 $HCHDT,357.3,T*2B
20220705 100039+00:00 $WIMWV,16.09,R,11.68,N,A*23
20220705 100041+00:00 $IIMDA,29.9,I,1.013,B,14,C,,C,89.2,,,C,,T,,M,,N,,M*33
20220705 100041+00:00 $GPRMC,100036,A,4911.0700,N,12326.4996,W,6.61,357,050722,11.8,E,A,V*6F
20220705 100041+00:00 $HCHDT,357.4,T*2C
20220705 100041+00:00 $WIMWV,30.6,R,7.79,N,A*2F
20220705 100043+00:00 $IIMDA,29.9,I,1.013,B,14,C,,C,89.2,,,C,,T,,M,,N,,M*33
20220705 100043+00:00 $GPRMC,100038,A,4911.0700,N,12326.4996,W,6.61,357,050722,11.8,E,A,V*61
20220705 100043+00:00 $HCHDT,357.4,T*2C
20220705 100043+00:00 $WIMWV,21.5,R,8.59,N,A*21
20220705 100045+00:00 $IIMDA,29.9,I,1.013,B,14,C,,C,89.2,,,C,,T,,M,,N,,M*33
20220705 100045+00:00 $GPRMC,100040,A,4911.0700,N,12326.4996,W,6.61,357,050722,11.8,E,A,V*6E
20220705 100045+00:00 $HCHDT,357.3,T*2B
20220705 100045+00:00 $WIMWV,25.3,R,9.58,N,A*23
20220705 100047+00:00 $IIMDA,29.9,I,1.013,B,14,C,,C,89.2,,,C,,T,,M,,N,,M*33
20220705 100047+00:00 $GPRMC,100042,A,4911.0796,N,12326.4996,W,6.61,357,050722,11.8,E,A,V*63
20220705 100047+00:00 $HCHDT,357.4,T*2C
20220705 100047+00:00 $WIMWV,8,R,7.1,N,A*33
20220705 100049+00:00 $IIMDA,29.9,I,1.013,B,14,C,,C,89.1,,,C,,T,,M,,N,,M*30
20220705 100049+00:00 $GPRMC,100044,A,4911.0796,N,12326.4996,W,6.61,357,050722,11.8,E,A,V*65
20220705 100049+00:00 $HCHDT,357.4,T*2C
20220705 100049+00:00 $WIMWV,15.8,R,10.38,N,A*15
20220705 100051+00:00 $IIMDA,29.9,I,1.013,B,14,C,,C,89.1,,,C,,T,,M,,N,,M*30
20220705 100051+00:00 $GPRMC,100046,A,4911.0796,N,12326.4996,W,6.61,357,050722,11.8,E,A,V*67
20220705 100051+00:00 $HCHDT,357.5,T*2D
20220705 100051+00:00 $WIMWV,24,R,6.78,N,A*32
20220705 100053+00:00 $IIMDA,29.9,I,1.013,B,14,C,,C,89.1,,,C,,T,,M,,N,,M*30
20220705 100053+00:00 $GPRMC,100048,A,4911.0898,N,12326.4996,W,6.61,357,050722,11.8,E,A,V*68
20220705 100053+00:00 $HCHDT,357.6,T*2E
20220705 100053+00:00 $WIMWV,29.5,R,9.68,N,A*2A
20220705 100055+00:00 $IIMDA,29.9,I,1.013,B,14,C,,C,89.1,,,C,,T,,M,,N,,M*30
20220705 100055+00:00 $GPRMC,100050,A,4911.0898,N,12326.4996,W,6.61,357,050722,11.8,E,A,V*61
20220705 100055+00:00 $HCHDT,357.7,T*2F
20220705 100055+00:00 $WIMWV,29.4,R,7.79,N,A*25
20220705 100057+00:00 $IIMDA,29.9,I,1.013,B,14,C,,C,89.1,,,C,,T,,M,,N,,M*30
20220705 100057+00:00 $GPRMC,100052,A,4911.1000,N,12326.4996,W,6.61,357,050722,11.8,E,A,V*6B
20220705 100057+00:00 $HCHDT,357.7,T*2F
20220705 100057+00:00 $WIMWV,22.69,R,7.79,N,A*15
20220705 100059+00:00 $IIMDA,29.9,I,1.013,B,14,C,,C,89,,,C,,T,,M,,N,,M*2F
20220705 100059+00:00 $GPRMC,100054,A,4911.1000,N,12326.4996,W,6.61,358,050722,11.8,E,A,V*62
20220705 100059+00:00 $HCHDT,357.6,T*2E
20220705 100059+00:00 $WIMWV,29.2,R,7.19,N,A*25
20220705 100101+00:00 $IIMDA,29.9,I,1.013,B,14,C,,C,89,,,C,,T,,M,,N,,M*2F
20220705 100101+00:00 $GPRMC,100056,A,4911.1000,N,12326.4996,W,6.61,358,050722,11.8,E,A,V*60
20220705 100101+00:00 $HCHDT,357.5,T*2D
20220705 100101+00:00 $WIMWV,19.8,R,7,N,A*0A
20220705 100103+00:00 $IIMDA,29.9,I,1.013,B,14,C,,C,88.9,,,C,,T,,M,,N,,M*39
20220705 100103+00:00 $GPRMC,100058,A,4911.1096,N,12326.5098,W,6.61,358,050722,11.8,E,A,V*67
20220705 100103+00:00 $HCHDT,357.4,T*2C
20220705 100103+00:00 $WIMWV,358.69,R,4.78,N,A*29
20220705 100105+00:00 $IIMDA,29.9,I,1.013,B,14,C,,C,88.9,,,C,,T,,M,,N,,M*39
20220705 100105+00:00 $GPRMC,100100,A,4911.1096,N,12326.5098,W,6.61,358,050722,11.8,E,A,V*6B
20220705 100105+00:00 $HCHDT,357.1,T*29
20220705 100105+00:00 $WIMWV,30.6,R,9.89,N,A*2E
20220705 100107+00:00 $IIMDA,29.9,I,1.013,B,14,C,,C,88.8,,,C,,T,,M,,N,,M*38
20220705 100107+00:00 $GPRMC,100102,A,4911.1096,N,12326.5098,W,6.61,358,050722,11.8,E,A,V*69
20220705 100107+00:00 $HCHDT,357,T*36
20220705 100107+00:00 $WIMWV,25.9,R,10.19,N,A*14
20220705 100109+00:00 $IIMDA,29.9,I,1.013,B,14,C,,C,88.7,,,C,,T,,M,,N,,M*37
20220705 100109+00:00 $GPRMC,100104,A,4911.1198,N,12326.5098,W,6.61,358,050722,11.8,E,A,V*60
20220705 100109+00:00 $HCHDT,356.9,T*20
20220705 100109+00:00 $WIMWV,14.8,R,9.1,N,A*16
20220705 100111+00:00 $IIMDA,29.9,I,1.013,B,14,C,,C,88.6,,,C,,T,,M,,N,,M*36
20220705 100111+00:00 $GPRMC,100106,A,4911.1198,N,12326.5098,W,6.61,358,050722,11.8,E,A,V*62
20220705 100111+00:00 $HCHDT,356.9,T*20
20220705 100111+00:00 $WIMWV,22.9,R,8.09,N,A*2B
20220705 100113+00:00 $IIMDA,29.9,I,1.013,B,14,C,,C,88.5,,,C,,T,,M,,N,,M*35
20220705 100113+00:00 $GPRMC,100108,A,4911.1198,N,12326.5098,W,6.61,358,050722,11.8,E,A,V*6C
20220705 100113+00:00 $HCHDT,356.8,T*21
20220705 100113+00:00 $WIMWV,15.9,R,9.58,N,A*2A
20220705 100115+00:00 $IIMDA,29.9,I,1.013,B,14,C,,C,88.5,,,C,,T,,M,,N,,M*35
20220705 100115+00:00 $GPRMC,100110,A,4911.1300,N,12326.5098,W,6.61,358,050722,11.8,E,A,V*66
20220705 100115+00:00 $HCHDT,356.8,T*21
20220705 100115+00:00 $WIMWV,0.19,R,6.4,N,A*19
20220705 100117+00:00 $IIMDA,29.9,I,1.013,B,14,C,,C,88.4,,,C,,T,,M,,N,,M*34
20220705 100117+00:00 $GPRMC,100112,A,4911.1300,N,12326.5098,W,6.61,357,050722,11.8,E,A,V*6B
20220705 100117+00:00 $HCHDT,356.8,T*21
20220705 100117+00:00 $WIMWV,24.4,R,8.4,N,A*1D
20220705 100119+00:00 $IIMDA,29.9,I,1.013,B,14,C,,C,88.4,,,C,,T,,M,,N,,M*34
20220705 100119+00:00 $GPRMC,100114,A,4911.1396,N,12326.5098,W,6.61,357,050722,11.8,E,A,V*62
20220705 100119+00:00 $HCHDT,356.8,T*21
20220705 100119+00:00 $WIMWV,18.8,R,5.79,N,A*29
20220705 100121+00:00 $IIMDA,29.9,I,1.013,B,14,C,,C,88.3,,,C,,T,,M,,N,,M*33
20220705 100121+00:00 $GPRMC,100116,A,4911.1396,N,12326.5098,W,6.61,357,050722,11.8,E,A,V*60
20220705 100121+00:00 $HCHDT,356.8,T*21
20220705 100121+00:00 $WIMWV,22.8,R,8.59,N,A*2F
20220705 100123+00:00 $IIMDA,29.9,I,1.013,B,14,C,,C,88.3,,,C,,T,,M,,N,,M*33
20220705 100123+00:00 $GPRMC,100118,A,4911.1396,N,12326.5098,W,6.61,357,050722,11.8,E,A,V*6E
20220705 100123+00:00 $HCHDT,356.9,T*20
20220705 100123+00:00 $WIMWV,32.4,R,10.09,N,A*1E
20220705 100125+00:00 $IIMDA,29.9,I,1.013,B,14,C,,C,88.3,,,C,,T,,M,,N,,M*33
20220705 100125+00:00 $GPRMC,100120,A,4911.1498,N,12326.5098,W,6.61,357,050722,11.8,E,A,V*6C
20220705 100125+00:00 $HCHDT,357,T*36
20220705 100125+00:00 $WIMWV,8.4,R,6.18,N,A*10
20220705 100127+00:00 $IIMDA,29.9,I,1.013,B,14,C,,C,88.3,,,C,,T,,M,,N,,M*33
20220705 100127+00:00 $GPRMC,100122,A,4911.1498,N,12326.5098,W,6.61,357,050722,11.8,E,A,V*6E
20220705 100127+00:00 $HCHDT,357.1,T*29
20220705 100127+00:00 $WIMWV,30.8,R,5.6,N,A*1B
20220705 100129+00:00 $IIMDA,29.9,I,1.013,B,14,C,,C,88.3,,,C,,T,,M,,N,,M*33
20220705 100129+00:00 $GPRMC,100124,A,4911.1498,N,12326.5098,W,6.61,357,050722,11.8,E,A,V*68
20220705 100129+00:00 $HCHDT,357.1,T*29
20220705 100129+00:00 $WIMWV,27.79,R,8.4,N,A*24
20220705 100131+00:00 $IIMDA,29.9,I,1.013,B,14,C,,C,88.3,,,C,,T,,M,,N,,M*33
20220705 100131+00:00 $GPRMC,100126,A,4911.1600,N,12326.5098,W,6.61,357,050722,11.8,E,A,V*69
20220705 100131+00:00 $HCHDT,357.1,T*29
20220705 100131+00:00 $WIMWV,32.9,R,8.09,N,A*2A
20220705 100133+00:00 $IIMDA,29.9,I,1.013,B,14,C,,C,88.3,,,C,,T,,M,,N,,M*33
20220705 100133+00:00 $GPRMC,100128,A,4911.1600,N,12326.5098,W,6.61,357,050722,11.8,E,A,V*67
20220705 100133+00:00 $HCHDT,357.1,T*29
20220705 100133+00:00 $WIMWV,27.6,R,8.49,N,A*25
20220705 100135+00:00 $IIMDA,29.9,I,1.013,B,14,C,,C,88.4,,,C,,T,,M,,N,,M*34
20220705 100135+00:00 $GPRMC,100130,A,4911.1696,N,12326.5098,W,6.61,357,050722,11.8,E,A,V*61
20220705 100135+00:00 $HCHDT,357.1,T*29
20220705 100135+00:00 $WIMWV,31.9,R,7.99,N,A*2F
20220705 100137+00:00 $IIMDA,29.9,I,1.013,B,14,C,,C,88.4,,,C,,T,,M,,N,,M*34
20220705 100137+00:00 $GPRMC,100132,A,4911.1696,N,12326.5098,W,6.61,357,050722,11.8,E,A,V*63
20220705 100137+00:00 $HCHDT,357.2,T*2A
20220705 100137+00:00 $WIMWV,29.79,R,10.28,N,A*2D
20220705 100139+00:00 $IIMDA,29.9,I,1.013,B,14,C,,C,88.4,,,C,,T,,M,,N,,M*34
20220705 100139+00:00 $GPRMC,100134,A,4911.1696,N,12326.5098,W,6.61,357,050722,11.8,E,A,V*65
20220705 100139+00:00 $HCHDT,357.3,T*2B
20220705 100139+00:00 $WIMWV,5.6,R,5.19,N,A*1D
20220705 100141+00:00 $IIMDA,29.9,I,1.013,B,14,C,,C,88.4,,,C,,T,,M,,N,,M*34
20220705 100141+00:00 $GPRMC,100136,A,4911.1798,N,12326.5098,W,6.61,357,050722,11.8,E,A,V*68
20220705 100141+00:00 $HCHDT,357.3,T*2B
20220705 100141+00:00 $WIMWV,25.1,R,8.69,N,A*22
20220705 100143+00:00 $IIMDA,29.9,I,1.013,B,14,C,,C,88.5,,,C,,T,,M,,N,,M*35
20220705 100143+00:00 $GPRMC,100138,A,4911.1798,N,12326.5098,W,6.61,357,050722,11.8,E,A,V*66
20220705 100143+00:00 $HCHDT,357.3,T*2B
20220705 100143+00:00 $WIMWV,352.49,R,3.79,N,A*27
20220705 100145+00:00 $IIMDA,29.9,I,1.013,B,14,C,,C,88.5,,,C,,T,,M,,N,,M*35
20220705 100145+00:00 $GPRMC,100140,A,4911.1798,N,12326.5098,W,6.61,357,050722,11.8,E,A,V*69
20220705 100145+00:00 $HCHDT,357.3,T*2B
20220705 100145+00:00 $WIMWV,25.2,R,7.58,N,A*2C
20220705 100147+00:00 $IIMDA,29.9,I,1.013,B,14,C,,C,88.6,,,C,,T,,M,,N,,M*36
20220705 100147+00:00 $GPRMC,100142,A,4911.1900,N,12326.5098,W,6.61,357,050722,11.8,E,A,V*64
20220705 100147+00:00 $HCHDT,357.3,T*2B
20220705 100147+00:00 $WIMWV,26.1,R,8.18,N,A*27
20220705 100149+00:00 $IIMDA,29.9,I,1.013,B,14,C,,C,88.6,,,C,,T,,M,,N,,M*36
20220705 100149+00:00 $GPRMC,100144,A,4911.1900,N,12326.5098,W,6.61,357,050722,11.8,E,A,V*62
20220705 100149+00:00 $HCHDT,357.3,T*2B
20220705 100149+00:00 $WIMWV,29.5,R,11.08,N,A*15
20220705 100151+00:00 $IIMDA,29.9,I,1.013,B,14,C,,C,88.6,,,C,,T,,M,,N,,M*36
20220705 100151+00:00 $GPRMC,100146,A,4911.1900,N,12326.5098,W,6.61,357,050722,11.8,E,A,V*60
20220705 100151+00:00 $HCHDT,357.3,T*2B
20220705 100151+00:00 $WIMWV,61,R,8.09,N,A*3B
20220705 100153+00:00 $IIMDA,29.9,I,1.013,B,14,C,,C,88.7,,,C,,T,,M,,N,,M*37
20220705 100153+00:00 $GPRMC,100148,A,4911.1996,N,12326.5098,W,6.61,357,050722,11.8,E,A,V*61
20220705 100153+00:00 $HCHDT,357.3,T*2B
20220705 100153+00:00 $WIMWV,12.79,R,7.7,N,A*2E
20220705 100155+00:00 $IIMDA,29.9,I,1.013,B,14,C,,C,88.7,,,C,,T,,M,,N,,M*37
20220705 100155+00:00 $GPRMC,100150,A,4911.1996,N,12326.5098,W,6.61,357,050722,11.8,E,A,V*68
20220705 100155+00:00 $HCHDT,357.3,T*2B
20220705 100155+00:00 $WIMWV,2.4,R,6.78,N,A*1C
20220705 100157+00:00 $IIMDA,29.9,I,1.013,B,14,C,,C,88.8,,,C,,T,,M,,N,,M*38
20220705 100157+00:00 $GPRMC,100152,A,4911.2098,N,12326.5098,W,6.61,357,050722,11.8,E,A,V*6E
20220705 100157+00:00 $HCHDT,357.5,T*2D
20220705 100157+00:00 $WIMWV,30.5,R,8.4,N,A*19
20220705 100159+00:00 $IIMDA,29.9,I,1.013,B,14,C,,C,88.8,,,C,,T,,M,,N,,M*38
20220705 100159+00:00 $GPRMC,100154,A,4911.2098,N,12326.5098,W,6.61,357,050722,11.8,E,A,V*68
20220705 100159+00:00 $HCHDT,357.6,T*2E
20220705 100159+00:00 $WIMWV,8.7,R,9.39,N,A*1F
20220705 100201+00:00 $IIMDA,29.9,I,1.013,B,14,C,,C,88.8,,,C,,T,,M,,N,,M*38
20220705 100201+00:00 $GPRMC,100156,A,4911.2098,N,12326.5098,W,6.61,357,050722,11.8,E,A,V*6A
20220705 100201+00:00 $HCHDT,357.7,T*2F
20220705 100201+00:00 $WIMWV,6.2,R,7.58,N,A*1D
20220705 100203+00:00 $IIMDA,29.9,I,1.013,B,14,C,,C,88.8,,,C,,T,,M,,N,,M*38
20220705 100203+00:00 $GPRMC,100158,A,4911.2200,N,12326.5098,W,6.61,357,050722,11.8,E,A,V*67
20220705 100203+00:00 $HCHDT,357.7,T*2F
20220705 100203+00:00 $WIMWV,19.5,R,8.28,N,A*2C
20220705 100205+00:00 $IIMDA,29.9,I,1.013,B,14,C,,C,88.8,,,C,,T,,M,,N,,M*38
20220705 100205+00:00 $GPRMC,100200,A,4911.2200,N,12326.5098,W,6.61,357,050722,11.8,E,A,V*69
20220705 100205+00:00 $HCHDT,357.6,T*2E
20220705 100205+00:00 $WIMWV,25.7,R,7.99,N,A*24
20220705 100207+00:00 $IIMDA,29.9,I,1.013,B,14,C,,C,88.8,,,C,,T,,M,,N,,M*38
20220705 100207+00:00 $GPRMC,100202,A,4911.2200,N,12326.5098,W,6.61,358,050722,11.8,E,A,V*64
20220705 100207+00:00 $HCHDT,357.4,T*2C
20220705 100207+00:00 $WIMWV,19.5,R,6.4,N,A*1C
20220705 100209+00:00 $IIMDA,29.9,I,1.013,B,14,C,,C,88.8,,,C,,T,,M,,N,,M*38
20220705 100209+00:00 $GPRMC,100204,A,4911.2296,N,12326.5098,W,6.61,358,050722,11.8,E,A,V*6D
20220705 100209+00:00 $HCHDT,357.3,T*2B
20220705 100209+00:00 $WIMWV,31.5,R,6.18,N,A*2B
20220705 100211+00:00 $IIMDA,29.9,I,1.013,B,14,C,,C,88.7,,,C,,T,,M,,N,,M*37
20220705 100211+00:00 $GPRMC,100206,A,4911.2296,N,12326.5098,W,6.61,358,050722,11.8,E,A,V*6F
20220705 100211+00:00 $HCHDT,357.2,T*2A
20220705 100211+00:00 $WIMWV,24.3,R,8.59,N,A*22
20220705 100213+00:00 $IIMDA,29.9,I,1.013,B,14,C,,C,88.7,,,C,,T,,M,,N,,M*37
20220705 100213+00:00 $GPRMC,100208,A,4911.2296,N,12326.5098,W,6.61,358,050722,11.8,E,A,V*61
20220705 100213+00:00 $HCHDT,357.2,T*2A
20220705 100213+00:00 $WIMWV,28.89,R,10.09,N,A*20
20220705 100215+00:00 $IIMDA,29.9,I,1.013,B,14,C,,C,88.7,,,C,,T,,M,,N,,M*37
20220705 100215+00:00 $GPRMC,100210,A,4911.2398,N,12326.5098,W,6.61,358,050722,11.8,E,A,V*67
20220705 100215+00:00 $HCHDT,357.3,T*2B
20220705 100215+00:00 $WIMWV,32.19,R,11.78,N,A*25
20220705 100217+00:00 $IIMDA,29.9,I,1.013,B,14,C,,C,88.7,,,C,,T,,M,,N,,M*37
20220705 100217+00:00 $GPRMC,100212,A,4911.2398,N,12326.5200,W,6.61,358,050722,11.8,E,A,V*66
20220705 100217+00:00 $HCHDT,357.3,T*2B
20220705 100217+00:00 $WIMWV,25.9,R,7.48,N,A*26
20220705 100219+00:00 $IIMDA,29.9,I,1.013,B,14,C,,C,88.7,,,C,,T,,M,,N,,M*37
20220705 100219+00:00 $GPRMC,100214,A,4911.2500,N,12326.5200,W,6.61,358,050722,11.8,E,A,V*67
20220705 100219+00:00 $HCHDT,357.4,T*2C
20220705 100219+00:00 $WIMWV,49.19,R,9.89,N,A*1E
20220705 100221+00:00 $IIMDA,29.9,I,1.013,B,14,C,,C,88.6,,,C,,T,,M,,N,,M*36
20220705 100221+00:00 $GPRMC,100216,A,4911.2500,N,12326.5200,W,6.61,358,050722,11.8,E,A,V*65
20220705 100221+00:00 $HCHDT,357.4,T*2C
20220705 100221+00:00 $WIMWV,23.59,R,10.59,N,A*23
20220705 100223+00:00 $IIMDA,29.9,I,1.013,B,14,C,,C,88.7,,,C,,T,,M,,N,,M*37
20220705 100223+00:00 $GPRMC,100218,A,4911.2500,N,12326.5200,W,6.61,358,050722,11.8,E,A,V*6B
20220705 100223+00:00 $HCHDT,357.5,T*2D
20220705 100223+00:00 $WIMWV,25.5,R,8.18,N,A*20
20220705 100225+00:00 $IIMDA,29.9,I,1.013,B,14,C,,C,88.6,,,C,,T,,M,,N,,M*36
20220705 100225+00:00 $GPRMC,100220,A,4911.2596,N,12326.5200,W,6.61,358,050722,11.8,E,A,V*6F
20220705 100225+00:00 $HCHDT,357.5,T*2D
20220705 100225+00:00 $WIMWV,17.3,R,7.79,N,A*2F
20220705 100227+00:00 $IIMDA,29.9,I,1.013,B,14,C,,C,88.6,,,C,,T,,M,,N,,M*36
20220705 100227+00:00 $GPRMC,100222,A,4911.2596,N,12326.5200,W,6.61,358,050722,11.8,E,A,V*6D
20220705 100227+00:00 $HCHDT,357.6,T*2E
20220705 100227+00:00 $WIMWV,15.3,R,9.1,N,A*1C
20220705 100229+00:00 $IIMDA,29.9,I,1.013,B,14,C,,C,88.6,,,C,,T,,M,,N,,M*36
20220705 100229+00:00 $GPRMC,100224,A,4911.2596,N,12326.5200,W,6.61,358,050722,11.8,E,A,V*6B
20220705 100229+00:00 $HCHDT,357.6,T*2E
20220705 100229+00:00 $WIMWV,6.9,R,5.38,N,A*12
20220705 100231+00:00 $IIMDA,29.9,I,1.013,B,14,C,,C,88.6,,,C,,T,,M,,N,,M*36
20220705 100231+00:00 $GPRMC,100226,A,4911.2698,N,12326.5200,W,6.61,358,050722,11.8,E,A,V*64
20220705 100231+00:00 $HCHDT,357.5,T*2D
20220705 100231+00:00 $WIMWV,35.6,R,6.88,N,A*25
20220705 100233+00:00 $IIMDA,29.9,I,1.013,B,14,C,,C,88.6,,,C,,T,,M,,N,,M*36
20220705 100233+00:00 $GPRMC,100228,A,4911.2698,N,12326.5200,W,6.61,358,050722,11.8,E,A,V*6A
20220705 100233+00:00 $HCHDT,357.5,T*2D
20220705 100233+00:00 $WIMWV,349.79,R,6.59,N,A*29
20220705 100235+00:00 $IIMDA,29.9,I,1.013,B,14,C,,C,88.6,,,C,,T,,M,,N,,M*36
20220705 100235+00:00 $GPRMC,100230,A,4911.2800,N,12326.5200,W,6.61,358,050722,11.8,E,A,V*6C
20220705 100235+00:00 $HCHDT,357.6,T*2E
20220705 100235+00:00 $WIMWV,12.6,R,8.69,N,A*21
20220705 100237+00:00 $IIMDA,29.9,I,1.013,B,14,C,,C,88.6,,,C,,T,,M,,N,,M*36
20220705 100237+00:00 $GPRMC,100232,A,4911.2800,N,12326.5200,W,6.61,358,050722,11.8,E,A,V*6E
20220705 100237+00:00 $HCHDT,357.6,T*2E
20220705 100237+00:00 $WIMWV,358.59,R,5.09,N,A*2D
20220705 100239+00:00 $IIMDA,29.9,I,1.013,B,14,C,,C,88.6,,,C,,T,,M,,N,,M*36
20220705 100239+00:00 $GPRMC,100234,A,4911.2800,N,12326.5200,W,6.61,358,050722,11.8,E,A,V*68
20220705 100239+00:00 $HCHDT,357.6,T*2E
20220705 100239+00:00 $WIMWV,36.39,R,8.59,N,A*18
20220705 100241+00:00 $IIMDA,29.9,I,1.013,B,14,C,,C,88.6,,,C,,T,,M,,N,,M*36
20220705 100241+00:00 $GPRMC,100236,A,4911.2896,N,12326.5200,W,6.61,358,050722,11.8,E,A,V*65
20220705 100241+00:00 $HCHDT,357.8,T*20
20220705 100241+00:00 $WIMWV,16.5,R,9.19,N,A*20
20220705 100243+00:00 $IIMDA,29.9,I,1.013,B,14,C,,C,88.6,,,C,,T,,M,,N,,M*36
20220705 100243+00:00 $GPRMC,100238,A,4911.2896,N,12326.5200,W,6.61,358,050722,11.8,E,A,V*6B
20220705 100243+00:00 $HCHDT,357.9,T*21
20220705 100243+00:00 $WIMWV,23.3,R,8.98,N,A*28
20220705 100245+00:00 $IIMDA,29.9,I,1.013,B,14,C,,C,88.6,,,C,,T,,M,,N,,M*36
20220705 100245+00:00 $GPRMC,100240,A,4911.2896,N,12326.5200,W,6.61,358,050722,11.8,E,A,V*64
20220705 100245+00:00 $HCHDT,358.1,T*26
20220705 100245+00:00 $WIMWV,20.6,R,7.39,N,A*2A
20220705 100247+00:00 $IIMDA,29.9,I,1.013,B,14,C,,C,88.6,,,C,,T,,M,,N,,M*36
20220705 100247+00:00 $GPRMC,100242,A,4911.2998,N,12326.5200,W,6.61,359,050722,11.8,E,A,V*68
20220705 100247+00:00 $HCHDT,358.1,T*26
20220705 100247+00:00 $WIMWV,9.4,R,12.69,N,A*22
20220705 100249+00:00 $IIMDA,29.9,I,1.013,B,14,C,,C,88.6,,,C,,T,,M,,N,,M*36
20220705 100249+00:00 $GPRMC,100244,A,4911.2998,N,12326.5200,W,6.61,359,050722,11.8,E,A,V*6E
20220705 100249+00:00 $HCHDT,358,T*39
20220705 100249+00:00 $WIMWV,18.9,R,9.39,N,A*20
20220705 100251+00:00 $IIMDA,29.9,I,1.013,B,14,C,,C,88.6,,,C,,T,,M,,N,,M*36
20220705 100251+00:00 $GPRMC,100246,A,4911.2998,N,12326.5200,W,6.61,359,050722,11.8,E,A,V*6C
20220705 100251+00:00 $HCHDT,357.9,T*21
20220705 100251+00:00 $WIMWV,17,R,8.59,N,A*3F
20220705 100253+00:00 $IIMDA,29.9,I,1.013,B,14,C,,C,88.6,,,C,,T,,M,,N,,M*36
20220705 100253+00:00 $GPRMC,100248,A,4911.3100,N,12326.5200,W,6.61,359,050722,11.8,E,A,V*6A
20220705 100253+00:00 $HCHDT,357.5,T*2D
20220705 100253+00:00 $WIMWV,26.69,R,9.1,N,A*20
20220705 100255+00:00 $IIMDA,29.9,I,1.013,B,14,C,,C,88.6,,,C,,T,,M,,N,,M*36
20220705 100255+00:00 $GPRMC,100250,A,4911.3100,N,12326.5200,W,6.61,359,050722,11.8,E,A,V*63
20220705 100255+00:00 $HCHDT,357.2,T*2A
20220705 100255+00:00 $WIMWV,2.8,R,3.5,N,A*2F
20220705 100257+00:00 $IIMDA,29.9,I,1.013,B,14,C,,C,88.6,,,C,,T,,M,,N,,M*36
20220705 100257+00:00 $GPRMC,100252,A,4911.3196,N,12326.5200,W,6.61,358,050722,11.8,E,A,V*6F
20220705 100257+00:00 $HCHDT,357,T*36
20220705 100257+00:00 $WIMWV,18.6,R,8.18,N,A*2D
20220705 100259+00:00 $IIMDA,29.9,I,1.013,B,14,C,,C,88.5,,,C,,T,,M,,N,,M*35
20220705 100259+00:00 $GPRMC,100254,A,4911.3196,N,12326.5200,W,6.61,358,050722,11.8,E,A,V*69
20220705 100259+00:00 $HCHDT,356.9,T*20
20220705 100259+00:00 $WIMWV,2.7,R,6.59,N,A*1C
20220705 100301+00:00 $IIMDA,29.9,I,1.013,B,14,C,,C,88.6,,,C,,T,,M,,N,,M*36
20220705 100301+00:00 $GPRMC,100256,A,4911.3196,N,12326.5200,W,6.61,358,050722,11.8,E,A,V*6B
20220705 100301+00:00 $HCHDT,356.9,T*20
20220705 100301+00:00 $WIMWV,55,R,7.19,N,A*32
20220705 100303+00:00 $IIMDA,29.9,I,1.013,B,14,C,,C,88.6,,,C,,T,,M,,N,,M*36
20220705 100303+00:00 $GPRMC,100258,A,4911.3298,N,12326.5200,W,6.61,358,050722,11.8,E,A,V*68
20220705 100303+00:00 $HCHDT,356.9,T*20
20220705 100303+00:00 $WIMWV,25.4,R,9.49,N,A*24
20220705 100305+00:00 $IIMDA,29.9,I,1.013,B,14,C,,C,88.6,,,C,,T,,M,,N,,M*36
20220705 100305+00:00 $GPRMC,100300,A,4911.3298,N,12326.5200,W,6.61,358,050722,11.8,E,A,V*64
20220705 100305+00:00 $HCHDT,357,T*36
20220705 100305+00:00 $WIMWV,10.3,R,10.09,N,A*19
20220705 100307+00:00 $IIMDA,29.9,I,1.013,B,14,C,,C,88.6,,,C,,T,,M,,N,,M*36
20220705 100307+00:00 $GPRMC,100302,A,4911.3298,N,12326.5200,W,6.61,358,050722,11.8,E,A,V*66
20220705 100307+00:00 $HCHDT,357,T*36
20220705 100307+00:00 $WIMWV,14.09,R,7.79,N,A*16
20220705 100309+00:00 $IIMDA,29.9,I,1.013,B,14,C,,C,88.6,,,C,,T,,M,,N,,M*36
20220705 100309+00:00 $GPRMC,100304,A,4911.3400,N,12326.5200,W,6.61,358,050722,11.8,E,A,V*67
20220705 100309+00:00 $HCHDT,357.1,T*29
20220705 100309+00:00 $WIMWV,28.4,R,7.1,N,A*1B
20220705 100311+00:00 $IIMDA,29.9,I,1.013,B,14,C,,C,88.6,,,C,,T,,M,,N,,M*36
20220705 100311+00:00 $GPRMC,100306,A,4911.3400,N,12326.5200,W,6.61,358,050722,11.8,E,A,V*65
20220705 100311+00:00 $HCHDT,357.3,T*2B
20220705 100311+00:00 $WIMWV,28.8,R,8.28,N,A*23
20220705 100313+00:00 $IIMDA,29.9,I,1.013,B,14,C,,C,88.6,,,C,,T,,M,,N,,M*36
20220705 100313+00:00 $GPRMC,100308,A,4911.3400,N,12326.5200,W,6.61,358,050722,11.8,E,A,V*6B
20220705 100313+00:00 $HCHDT,357.4,T*2C
20220705 100313+00:00 $WIMWV,25.1,R,8.49,N,A*20
20220705 100315+00:00 $IIMDA,29.9,I,1.013,B,14,C,,C,88.6,,,C,,T,,M,,N,,M*36
20220705 100315+00:00 $GPRMC,100310,A,4911.3496,N,12326.5200,W,6.61,358,050722,11.8,E,A,V*6D
20220705 100315+00:00 $HCHDT,357.5,T*2D
20220705 100315+00:00 $WIMWV,12.4,R,8.69,N,A*23
20220705 100317+00:00 $IIMDA,29.9,I,1.013,B,14,C,,C,88.6,,,C,,T,,M,,N,,M*36
20220705 100317+00:00 $GPRMC,100312,A,4911.3496,N,12326.5200,W,6.61,358,050722,11.8,E,A,V*6F
20220705 100317+00:00 $HCHDT,357.7,T*2F
20220705 100317+00:00 $WIMWV,24.9,R,5.48,N,A*25
20220705 100319+00:00 $IIMDA,29.9,I,1.013,B,14,C,,C,88.6,,,C,,T,,M,,N,,M*36
20220705 100319+00:00 $GPRMC,100314,A,4911.3598,N,12326.5200,W,6.61,358,050722,11.8,E,A,V*66
20220705 100319+00:00 $HCHDT,357.9,T*21
20220705 100319+00:00 $WIMWV,2.5,R,5.89,N,A*10
20220705 100321+00:00 $IIMDA,29.9,I,1.013,B,14,C,,C,88.5,,,C,,T,,M,,N,,M*35
20220705 100321+00:00 $GPRMC,100316,A,4911.3598,N,12326.5200,W,6.61,358,050722,11.8,E,A,V*64
20220705 100321+00:00 $HCHDT,358,T*39
20220705 100321+00:00 $WIMWV,20.8,R,7.39,N,A*24
20220705 100323+00:00 $IIMDA,29.9,I,1.013,B,14,C,,C,88.5,,,C,,T,,M,,N,,M*35
20220705 100323+00:00 $GPRMC,100318,A,4911.3598,N,12326.5200,W,6.61,358,050722,11.8,E,A,V*6A
20220705 100323+00:00 $HCHDT,358,T*39
20220705 100323+00:00 $WIMWV,26.4,R,8.88,N,A*2B
20220705 100325+00:00 $IIMDA,29.9,I,1.013,B,14,C,,C,88.5,,,C,,T,,M,,N,,M*35
20220705 100325+00:00 $GPRMC,100320,A,4911.3700,N,12326.5200,W,6.61,358,050722,11.8,E,A,V*62
20220705 100325+00:00 $HCHDT,358,T*39
20220705 100325+00:00 $WIMWV,6.39,R,8.09,N,A*2E
20220705 100327+00:00 $IIMDA,29.9,I,1.013,B,14,C,,C,88.5,,,C,,T,,M,,N,,M*35
20220705 100327+00:00 $GPRMC,100322,A,4911.3700,N,12326.5200,W,6.61,358,050722,11.8,E,A,V*60
20220705 100327+00:00 $HCHDT,357.9,T*21
20220705 100327+00:00 $WIMWV,27.4,R,10.69,N,A*1C
20220705 100329+00:00 $IIMDA,29.9,I,1.013,B,14,C,,C,88.4,,,C,,T,,M,,N,,M*34
20220705 100329+00:00 $GPRMC,100324,A,4911.3700,N,12326.5200,W,6.61,358,050722,11.8,E,A,V*66
20220705 100329+00:00 $HCHDT,357.8,T*20
20220705 100329+00:00 $WIMWV,24.69,R,7.29,N,A*16
20220705 100331+00:00 $IIMDA,29.9,I,1.013,B,14,C,,C,88.4,,,C,,T,,M,,N,,M*34
20220705 100331+00:00 $GPRMC,100326,A,4911.3796,N,12326.5200,W,6.61,358,050722,11.8,E,A,V*6B
20220705 100331+00:00 $HCHDT,357.7,T*2F
20220705 100331+00:00 $WIMWV,13.3,R,7.58,N,A*28
20220705 100333+00:00 $IIMDA,29.9,I,1.013,B,14,C,,C,88.4,,,C,,T,,M,,N,,M*34
20220705 100333+00:00 $GPRMC,100328,A,4911.3796,N,12326.5200,W,6.61,358,050722,11.8,E,A,V*65
20220705 100333+00:00 $HCHDT,357.6,T*2E
20220705 100333+00:00 $WIMWV,22.49,R,9.1,N,A*26
20220705 100335+00:00 $IIMDA,29.9,I,1.013,B,14,C,,C,88.3,,,C,,T,,M,,N,,M*33
20220705 100335+00:00 $GPRMC,100330,A,4911.3898,N,12326.5200,W,6.61,358,050722,11.8,E,A,V*6D
20220705 100335+00:00 $HCHDT,357.6,T*2E
20220705 100335+00:00 $WIMWV,23.9,R,9.68,N,A*2C
20220705 100337+00:00 $IIMDA,29.9,I,1.013,B,14,C,,C,88.3,,,C,,T,,M,,N,,M*33
20220705 100337+00:00 $GPRMC,100332,A,4911.3898,N,12326.5200,W,6.61,358,050722,11.8,E,A,V*6F
20220705 100337+00:00 $HCHDT,357.5,T*2D
20220705 100337+00:00 $WIMWV,31.9,R,11.59,N,A*14
20220705 100339+00:00 $IIMDA,29.9,I,1.013,B,14,C,,C,88.2,,,C,,T,,M,,N,,M*32
20220705 100339+00:00 $GPRMC,100334,A,4911.3898,N,12326.5200,W,6.61,358,050722,11.8,E,A,V*69
20220705 100339+00:00 $HCHDT,357.6,T*2E
20220705 100339+00:00 $WIMWV,25,R,10.09,N,A*02
20220705 100341+00:00 $IIMDA,29.9,I,1.013,B,14,C,,C,88.2,,,C,,T,,M,,N,,M*32
20220705 100341+00:00 $GPRMC,100336,A,4911.4000,N,12326.5200,W,6.61,358,050722,11.8,E,A,V*65
20220705 100341+00:00 $HCHDT,357.5,T*2D
20220705 100341+00:00 $WIMWV,33.29,R,7.89,N,A*1E
20220705 100343+00:00 $IIMDA,29.9,I,1.013,B,14,C,,C,88.3,,,C,,T,,M,,N,,M*33
20220705 100343+00:00 $GPRMC,100338,A,4911.4000,N,12326.5200,W,6.61,358,050722,11.8,E,A,V*6B
20220705 100343+00:00 $HCHDT,357.4,T*2C
20220705 100343+00:00 $WIMWV,24.49,R,10.19,N,A*21
20220705 100345+00:00 $IIMDA,29.9,I,1.013,B,14,C,,C,88.2,,,C,,T,,M,,N,,M*32
20220705 100345+00:00 $GPRMC,100340,A,4911.4000,N,12326.5200,W,6.61,358,050722,11.8,E,A,V*64
20220705 100345+00:00 $HCHDT,357.3,T*2B
20220705 100345+00:00 $WIMWV,21.39,R,6.88,N,A*1C
20220705 100347+00:00 $IIMDA,29.9,I,1.013,B,14,C,,C,88.2,,,C,,T,,M,,N,,M*32
20220705 100347+00:00 $GPRMC,100342,A,4911.4096,N,12326.5200,W,6.61,358,050722,11.8,E,A,V*69
20220705 100347+00:00 $HCHDT,357.2,T*2A
20220705 100347+00:00 $WIMWV,21,R,7.99,N,A*39
20220705 100349+00:00 $IIMDA,29.9,I,1.013,B,14,C,,C,88.2,,,C,,T,,M,,N,,M*32
20220705 100349+00:00 $GPRMC,100344,A,4911.4096,N,12326.5200,W,6.71,358,050722,11.8,E,A,V*6E
20220705 100349+00:00 $HCHDT,357.1,T*29
20220705 100349+00:00 $WIMWV,29.5,R,9.39,N,A*2E
20220705 100351+00:00 $IIMDA,29.9,I,1.013,B,14,C,,C,88.2,,,C,,T,,M,,N,,M*32
20220705 100351+00:00 $GPRMC,100346,A,4911.4096,N,12326.5200,W,6.71,358,050722,11.8,E,A,V*6C
20220705 100351+00:00 $HCHDT,357.1,T*29
20220705 100351+00:00 $WIMWV,10.6,R,7.58,N,A*2E
20220705 100353+00:00 $IIMDA,29.9,I,1.013,B,14,C,,C,88.2,,,C,,T,,M,,N,,M*32
20220705 100353+00:00 $GPRMC,100348,A,4911.4198,N,12326.5200,W,6.71,358,050722,11.8,E,A,V*6D
20220705 100353+00:00 $HCHDT,357,T*36
20220705 100353+00:00 $WIMWV,9.5,R,8.88,N,A*17
20220705 100355+00:00 $IIMDA,29.9,I,1.013,B,14,C,,C,88.3,,,C,,T,,M,,N,,M*33
20220705 100355+00:00 $GPRMC,100350,A,4911.4198,N,12326.5200,W,6.71,358,050722,11.8,E,A,V*64
20220705 100355+00:00 $HCHDT,357,T*36
20220705 100355+00:00 $WIMWV,29,R,8.49,N,A*33
20220705 100357+00:00 $IIMDA,29.9,I,1.013,B,14,C,,C,88.4,,,C,,T,,M,,N,,M*34
20220705 100357+00:00 $GPRMC,100352,A,4911.4300,N,12326.5200,W,6.71,357,050722,11.8,E,A,V*6A
20220705 100357+00:00 $HCHDT,357.1,T*29
20220705 100357+00:00 $WIMWV,46.7,R,5.89,N,A*22
20220705 100359+00:00 $IIMDA,29.9,I,1.013,B,14,C,,C,88.3,,,C,,T,,M,,N,,M*33
20220705 100359+00:00 $GPRMC,100354,A,4911.4300,N,12326.5200,W,6.71,357,050722,11.8,E,A,V*6C
20220705 100359+00:00 $HCHDT,357.1,T*29
20220705 100359+00:00 $WIMWV,31.2,R,7.89,N,A*25
20220705 100401+00:00 $IIMDA,29.9,I,1.013,B,14,C,,C,88.4,,,C,,T,,M,,N,,M*34
20220705 100401+00:00 $GPRMC,100356,A,4911.4300,N,12326.5200,W,6.71,357,050722,11.8,E,A,V*6E
20220705 100401+00:00 $HCHDT,357,T*36
20220705 100401+00:00 $WIMWV,28.4,R,10.28,N,A*16
20220705 100403+00:00 $IIMDA,29.9,I,1.013,B,14,C,,C,88.4,,,C,,T,,M,,N,,M*34
20220705 100403+00:00 $GPRMC,100358,A,4911.4396,N,12326.5296,W,6.61,357,050722,11.8,E,A,V*61
20220705 100403+00:00 $HCHDT,357,T*36
20220705 100403+00:00 $WIMWV,28.1,R,10.38,N,A*12
20220705 100405+00:00 $IIMDA,29.9,I,1.013,B,14,C,,C,88.4,,,C,,T,,M,,N,,M*34
20220705 100405+00:00 $GPRMC,100400,A,4911.4396,N,12326.5296,W,6.61,357,050722,11.8,E,A,V*6B
20220705 100405+00:00 $HCHDT,356.9,T*20
20220705 100405+00:00 $WIMWV,11.4,R,8.28,N,A*25
20220705 100407+00:00 $IIMDA,29.9,I,1.013,B,14,C,,C,88.3,,,C,,T,,M,,N,,M*33
20220705 100407+00:00 $GPRMC,100402,A,4911.4396,N,12326.5296,W,6.61,357,050722,11.8,E,A,V*69
20220705 100407+00:00 $HCHDT,356.9,T*20
20220705 100407+00:00 $WIMWV,32.19,R,12.29,N,A*22
20220705 100409+00:00 $IIMDA,29.9,I,1.013,B,14,C,,C,88.3,,,C,,T,,M,,N,,M*33
20220705 100409+00:00 $GPRMC,100404,A,4911.4498,N,12326.5296,W,6.61,357,050722,11.8,E,A,V*66
20220705 100409+00:00 $HCHDT,357,T*36
20220705 100409+00:00 $WIMWV,23.5,R,9.29,N,A*25
20220705 100411+00:00 $IIMDA,29.9,I,1.013,B,14,C,,C,88.2,,,C,,T,,M,,N,,M*32
20220705 100411+00:00 $GPRMC,100406,A,4911.4498,N,12326.5296,W,6.61,357,050722,11.8,E,A,V*64
20220705 100411+00:00 $HCHDT,357.1,T*29
20220705 100411+00:00 $WIMWV,16.9,R,9.39,N,A*2E
20220705 100413+00:00 $IIMDA,29.9,I,1.013,B,14,C,,C,88.2,,,C,,T,,M,,N,,M*32
20220705 100413+00:00 $GPRMC,100408,A,4911.4600,N,12326.5296,W,6.61,357,050722,11.8,E,A,V*69
20220705 100413+00:00 $HCHDT,357.2,T*2A
20220705 100413+00:00 $WIMWV,22.69,R,10.19,N,A*25
20220705 100415+00:00 $IIMDA,29.9,I,1.013,B,14,C,,C,88.2,,,C,,T,,M,,N,,M*32
20220705 100415+00:00 $GPRMC,100410,A,4911.4600,N,12326.5296,W,6.61,357,050722,11.8,E,A,V*60
20220705 100415+00:00 $HCHDT,357.3,T*2B
20220705 100415+00:00 $WIMWV,20,R,11.08,N,A*07
20220705 100417+00:00 $IIMDA,29.9,I,1.013,B,14,C,,C,88.1,,,C,,T,,M,,N,,M*31
20220705 100417+00:00 $GPRMC,100412,A,4911.4600,N,12326.5296,W,6.61,357,050722,11.8,E,A,V*62
20220705 100417+00:00 $HCHDT,357.3,T*2B
20220705 100417+00:00 $WIMWV,15.6,R,8.18,N,A*20
20220705 100419+00:00 $IIMDA,29.9,I,1.013,B,14,C,,C,88.1,,,C,,T,,M,,N,,M*31
20220705 100419+00:00 $GPRMC,100414,A,4911.4696,N,12326.5296,W,6.71,357,050722,11.8,E,A,V*6A
20220705 100419+00:00 $HCHDT,357.3,T*2B
20220705 100419+00:00 $WIMWV,357.19,R,7.29,N,A*26
20220705 100421+00:00 $IIMDA,29.9,I,1.013,B,14,C,,C,88.1,,,C,,T,,M,,N,,M*31
20220705 100421+00:00 $GPRMC,100416,A,4911.4696,N,12326.5296,W,6.71,357,050722,11.8,E,A,V*68
20220705 100421+00:00 $HCHDT,357.2,T*2A
20220705 100421+00:00 $WIMWV,36.9,R,7,N,A*06
20220705 100423+00:00 $IIMDA,29.9,I,1.013,B,14,C,,C,88.1,,,C,,T,,M,,N,,M*31
20220705 100423+00:00 $GPRMC,100418,A,4911.4696,N,12326.5296,W,6.71,357,050722,11.8,E,A,V*66
20220705 100423+00:00 $HCHDT,357.1,T*29
20220705 100423+00:00 $WIMWV,27.99,R,7.48,N,A*1D
20220705 100425+00:00 $IIMDA,29.9,I,1.013,B,14,C,,C,88.1,,,C,,T,,M,,N,,M*31
20220705 100425+00:00 $GPRMC,100420,A,4911.4798,N,12326.5296,W,6.71,357,050722,11.8,E,A,V*62
20220705 100425+00:00 $HCHDT,357,T*36
20220705 100425+00:00 $WIMWV,28.7,R,10.69,N,A*10
20220705 100427+00:00 $IIMDA,29.9,I,1.013,B,14,C,,C,88.1,,,C,,T,,M,,N,,M*31
20220705 100427+00:00 $GPRMC,100422,A,4911.4798,N,12326.5296,W,6.71,357,050722,11.8,E,A,V*60
20220705 100427+00:00 $HCHDT,356.9,T*20
20220705 100427+00:00 $WIMWV,31.2,R,8.09,N,A*22
20220705 100429+00:00 $IIMDA,29.9,I,1.013,B,14,C,,C,88.2,,,C,,T,,M,,N,,M*32
20220705 100429+00:00 $GPRMC,100424,A,4911.4798,N,12326.5296,W,6.71,357,050722,11.8,E,A,V*66
20220705 100429+00:00 $HCHDT,356.8,T*21
20220705 100429+00:00 $WIMWV,30.89,R,8.49,N,A*14
20220705 100431+00:00 $IIMDA,29.9,I,1.013,B,14,C,,C,88.2,,,C,,T,,M,,N,,M*32
20220705 100431+00:00 $GPRMC,100426,A,4911.4900,N,12326.5296,W,6.71,357,050722,11.8,E,A,V*6B
20220705 100431+00:00 $HCHDT,356.7,T*2E
20220705 100431+00:00 $WIMWV,29.3,R,9.58,N,A*2F
20220705 100433+00:00 $IIMDA,29.9,I,1.013,B,14,C,,C,88.2,,,C,,T,,M,,N,,M*32
20220705 100433+00:00 $GPRMC,100428,A,4911.4900,N,12326.5296,W,6.71,357,050722,11.8,E,A,V*65
20220705 100433+00:00 $HCHDT,356.6,T*2F
20220705 100433+00:00 $WIMWV,30.6,R,10.89,N,A*16
20220705 100435+00:00 $IIMDA,29.9,I,1.013,B,14,C,,C,88.2,,,C,,T,,M,,N,,M*32
20220705 100435+00:00 $GPRMC,100430,A,4911.4996,N,12326.5296,W,6.71,357,050722,11.8,E,A,V*63
20220705 100435+00:00 $HCHDT,356.4,T*2D
20220705 100435+00:00 $WIMWV,31.2,R,9.89,N,A*2B
20220705 100437+00:00 $IIMDA,29.9,I,1.013,B,14,C,,C,88.2,,,C,,T,,M,,N,,M*32
20220705 100437+00:00 $GPRMC,100432,A,4911.4996,N,12326.5296,W,6.71,357,050722,11.8,E,A,V*61
20220705 100437+00:00 $HCHDT,356.3,T*2A
20220705 100437+00:00 $WIMWV,37.6,R,11.49,N,A*1C
20220705 100439+00:00 $IIMDA,29.9,I,1.013,B,14,C,,C,88.2,,,C,,T,,M,,N,,M*32
20220705 100439+00:00 $GPRMC,100434,A,4911.4996,N,12326.5296,W,6.71,356,050722,11.8,E,A,V*66
20220705 100439+00:00 $HCHDT,356.1,T*28
20220705 100439+00:00 $WIMWV,32.4,R,11.68,N,A*18
20220705 100441+00:00 $IIMDA,29.9,I,1.013,B,14,C,,C,88.1,,,C,,T,,M,,N,,M*31
20220705 100441+00:00 $GPRMC,100436,A,4911.5098,N,12326.5296,W,6.71,356,050722,11.8,E,A,V*62
20220705 100441+00:00 $HCHDT,356,T*37
20220705 100441+00:00 $WIMWV,17.3,R,6.3,N,A*13
20220705 100443+00:00 $IIMDA,29.9,I,1.013,B,14,C,,C,88,,,C,,T,,M,,N,,M*2E
20220705 100443+00:00 $GPRMC,100438,A,4911.5098,N,12326.5296,W,6.71,356,050722,11.8,E,A,V*6C
20220705 100443+00:00 $HCHDT,356.2,T*2B
20220705 100443+00:00 $WIMWV,16,R,8.59,N,A*3E
20220705 100445+00:00 $IIMDA,29.9,I,1.013,B,14,C,,C,88,,,C,,T,,M,,N,,M*2E
20220705 100445+00:00 $GPRMC,100440,A,4911.5098,N,12326.5296,W,6.61,356,050722,11.8,E,A,V*62
20220705 100445+00:00 $HCHDT,356.8,T*21
20220705 100445+00:00 $WIMWV,24.4,R,5.99,N,A*24
20220705 100447+00:00 $IIMDA,29.9,I,1.013,B,14,C,,C,87.9,,,C,,T,,M,,N,,M*36
20220705 100447+00:00 $GPRMC,100442,A,4911.5200,N,12326.5296,W,6.61,356,050722,11.8,E,A,V*63
20220705 100447+00:00 $HCHDT,357.2,T*2A
20220705 100447+00:00 $WIMWV,28.89,R,6.18,N,A*17
20220705 100449+00:00 $IIMDA,29.9,I,1.013,B,14,C,,C,87.9,,,C,,T,,M,,N,,M*36
20220705 100449+00:00 $GPRMC,100444,A,4911.5200,N,12326.5296,W,6.61,357,050722,11.8,E,A,V*64
20220705 100449+00:00 $HCHDT,358.5,T*22
20220705 100449+00:00 $WIMWV,355.19,R,3.89,N,A*2A
20220705 100451+00:00 $IIMDA,29.9,I,1.013,B,14,C,,C,87.9,,,C,,T,,M,,N,,M*36
20220705 100451+00:00 $GPRMC,100446,A,4911.5296,N,12326.5296,W,6.61,357,050722,11.8,E,A,V*69
20220705 100451+00:00 $HCHDT,358.9,T*2E
20220705 100451+00:00 $WIMWV,358.69,R,8.18,N,A*23
20220705 100453+00:00 $IIMDA,29.9,I,1.013,B,14,C,,C,87.9,,,C,,T,,M,,N,,M*36
20220705 100453+00:00 $GPRMC,100448,A,4911.5296,N,12326.5296,W,6.61,358,050722,11.8,E,A,V*68
20220705 100453+00:00 $HCHDT,360,T*32
20220705 100453+00:00 $WIMWV,10.1,R,10.5,N,A*27
20220705 100455+00:00 $IIMDA,29.9,I,1.013,B,14,C,,C,87.9,,,C,,T,,M,,N,,M*36
20220705 100455+00:00 $GPRMC,100450,A,4911.5296,N,12326.5296,W,6.61,358,050722,11.8,E,A,V*61
20220705 100455+00:00 $HCHDT,0.2,T*2B
20220705 100455+00:00 $WIMWV,19.39,R,8.79,N,A*17
20220705 100457+00:00 $IIMDA,29.9,I,1.013,B,14,C,,C,87.9,,,C,,T,,M,,N,,M*36
20220705 100457+00:00 $GPRMC,100452,A,4911.5398,N,12326.5296,W,6.61,359,050722,11.8,E,A,V*6D
20220705 100457+00:00 $HCHDT,0.3,T*2A
20220705 100457+00:00 $WIMWV,15.8,R,8.4,N,A*13
20220705 100459+00:00 $IIMDA,29.9,I,1.013,B,14,C,,C,87.9,,,C,,T,,M,,N,,M*36
20220705 100459+00:00 $GPRMC,100454,A,4911.5398,N,12326.5296,W,6.61,0,050722,11.8,E,A,V*64
20220705 100459+00:00 $HCHDT,0.1,T*28
20220705 100459+00:00 $WIMWV,29.9,R,8.49,N,A*24
20220705 100501+00:00 $IIMDA,29.9,I,1.013,B,14,C,,C,87.9,,,C,,T,,M,,N,,M*36
20220705 100501+00:00 $GPRMC,100456,A,4911.5398,N,12326.5296,W,6.71,0,050722,11.8,E,A,V*67
20220705 100501+00:00 $HCHDT,359.9,T*2F
20220705 100501+00:00 $WIMWV,27.79,R,8.59,N,A*1C
20220705 100503+00:00 $IIMDA,29.9,I,1.013,B,14,C,,C,87.9,,,C,,T,,M,,N,,M*36
20220705 100503+00:00 $GPRMC,100458,A,4911.5500,N,12326.5296,W,6.71,0,050722,11.8,E,A,V*6E
20220705 100503+00:00 $HCHDT,359.7,T*21
20220705 100503+00:00 $WIMWV,26.1,R,10.09,N,A*1E
20220705 100505+00:00 $IIMDA,29.9,I,1.013,B,14,C,,C,87.8,,,C,,T,,M,,N,,M*37
20220705 100505+00:00 $GPRMC,100500,A,4911.5500,N,12326.5296,W,6.71,0,050722,11.8,E,A,V*62
20220705 100505+00:00 $HCHDT,359.5,T*23
20220705 100505+00:00 $WIMWV,12,R,8.18,N,A*3F
20220705 100507+00:00 $IIMDA,29.9,I,1.013,B,14,C,,C,87.9,,,C,,T,,M,,N,,M*36
20220705 100507+00:00 $GPRMC,100502,A,4911.5500,N,12326.5296,W,6.71,0,050722,11.8,E,A,V*60
20220705 100507+00:00 $HCHDT,359.4,T*22
20220705 100507+00:00 $WIMWV,10.4,R,9.49,N,A*22
20220705 100509+00:00 $IIMDA,29.9,I,1.013,B,14,C,,C,87.9,,,C,,T,,M,,N,,M*36
20220705 100509+00:00 $GPRMC,100504,A,4911.5596,N,12326.5296,W,6.71,0,050722,11.8,E,A,V*69
20220705 100509+00:00 $HCHDT,359.4,T*22
20220705 100509+00:00 $WIMWV,21.1,R,11.39,N,A*1B
20220705 100511+00:00 $IIMDA,29.9,I,1.013,B,14,C,,C,87.9,,,C,,T,,M,,N,,M*36
20220705 100511+00:00 $GPRMC,100506,A,4911.5596,N,12326.5296,W,6.71,0,050722,11.8,E,A,V*6B
20220705 100511+00:00 $HCHDT,359.4,T*22
20220705 100511+00:00 $WIMWV,22.9,R,7.7,N,A*1A
20220705 100513+00:00 $IIMDA,29.9,I,1.013,B,14,C,,C,87.8,,,C,,T,,M,,N,,M*37
20220705 100513+00:00 $GPRMC,100508,A,4911.5698,N,12326.5296,W,6.71,0,050722,11.8,E,A,V*68
20220705 100513+00:00 $HCHDT,359.5,T*23
20220705 100513+00:00 $WIMWV,23.79,R,8.98,N,A*15
20220705 100515+00:00 $IIMDA,29.9,I,1.013,B,14,C,,C,87.8,,,C,,T,,M,,N,,M*37
20220705 100515+00:00 $GPRMC,100510,A,4911.5698,N,12326.5296,W,6.71,0,050722,11.8,E,A,V*61
20220705 100515+00:00 $HCHDT,359.6,T*20
20220705 100515+00:00 $WIMWV,30.4,R,10.69,N,A*1A
20220705 100517+00:00 $IIMDA,29.9,I,1.013,B,14,C,,C,87.8,,,C,,T,,M,,N,,M*37
20220705 100517+00:00 $GPRMC,100512,A,4911.5698,N,12326.5296,W,6.71,0,050722,11.8,E,A,V*63
20220705 100517+00:00 $HCHDT,359.6,T*20
20220705 100517+00:00 $WIMWV,16,R,9.49,N,A*3E
20220705 100519+00:00 $IIMDA,29.9,I,1.013,B,14,C,,C,87.9,,,C,,T,,M,,N,,M*36
20220705 100519+00:00 $GPRMC,100514,A,4911.5800,N,12326.5296,W,6.71,0,050722,11.8,E,A,V*6A
20220705 100519+00:00 $HCHDT,359.7,T*21
20220705 100519+00:00 $WIMWV,26.1,R,7.1,N,A*10
20220705 100521+00:00 $IIMDA,29.9,I,1.013,B,14,C,,C,87.9,,,C,,T,,M,,N,,M*36
20220705 100521+00:00 $GPRMC,100516,A,4911.5800,N,12326.5296,W,6.71,0,050722,11.8,E,A,V*68
20220705 100521+00:00 $HCHDT,359.7,T*21
20220705 100521+00:00 $WIMWV,9.69,R,5.7,N,A*17
20220705 100523+00:00 $IIMDA,29.9,I,1.013,B,14,C,,C,87.9,,,C,,T,,M,,N,,M*36
20220705 100523+00:00 $GPRMC,100518,A,4911.5800,N,12326.5296,W,6.71,0,050722,11.8,E,A,V*66
20220705 100523+00:00 $HCHDT,359.8,T*2E
20220705 100523+00:00 $WIMWV,29.5,R,5,N,A*06
20220705 100525+00:00 $IIMDA,29.9,I,1.013,B,14,C,,C,88,,,C,,T,,M,,N,,M*2E
20220705 100525+00:00 $GPRMC,100520,A,4911.5896,N,12326.5296,W,6.71,0,050722,11.8,E,A,V*62
20220705 100525+00:00 $HCHDT,359.9,T*2F
20220705 100525+00:00 $WIMWV,20.49,R,11.39,N,A*26
20220705 100527+00:00 $IIMDA,29.9,I,1.013,B,14,C,,C,88.1,,,C,,T,,M,,N,,M*31
20220705 100527+00:00 $GPRMC,100522,A,4911.5896,N,12326.5296,W,6.71,0,050722,11.8,E,A,V*60
20220705 100527+00:00 $HCHDT,359.9,T*2F
20220705 100527+00:00 $WIMWV,16.6,R,9.8,N,A*13
20220705 100529+00:00 $IIMDA,29.9,I,1.013,B,14,C,,C,88.1,,,C,,T,,M,,N,,M*31
20220705 100529+00:00 $GPRMC,100524,A,4911.5998,N,12326.5296,W,6.71,0,050722,11.8,E,A,V*69
20220705 100529+00:00 $HCHDT,0,T*37
20220705 100529+00:00 $WIMWV,341.49,R,7.29,N,A*24
20220705 100531+00:00 $IIMDA,29.9,I,1.013,B,14,C,,C,88.1,,,C,,T,,M,,N,,M*31
20220705 100531+00:00 $GPRMC,100526,A,4911.5998,N,12326.5296,W,6.61,0,050722,11.8,E,A,V*6A
20220705 100531+00:00 $HCHDT,0.1,T*28
20220705 100531+00:00 $WIMWV,43.8,R,5.19,N,A*21
20220705 100533+00:00 $IIMDA,29.9,I,1.013,B,14,C,,C,88.2,,,C,,T,,M,,N,,M*32
20220705 100533+00:00 $GPRMC,100528,A,4911.5998,N,12326.5296,W,6.61,0,050722,11.8,E,A,V*64
20220705 100533+00:00 $HCHDT,0.2,T*2B
20220705 100533+00:00 $WIMWV,25.4,R,8.18,N,A*21
20220705 100535+00:00 $IIMDA,29.9,I,1.013,B,14,C,,C,88.1,,,C,,T,,M,,N,,M*31
20220705 100535+00:00 $GPRMC,100530,A,4911.6100,N,12326.5296,W,6.61,0,050722,11.8,E,A,V*67
20220705 100535+00:00 $HCHDT,0.2,T*2B
20220705 100535+00:00 $WIMWV,25.9,R,5.29,N,A*23
20220705 100537+00:00 $IIMDA,29.9,I,1.013,B,14,C,,C,88.2,,,C,,T,,M,,N,,M*32
20220705 100537+00:00 $GPRMC,100532,A,4911.6100,N,12326.5296,W,6.61,0,050722,11.8,E,A,V*65
20220705 100537+00:00 $HCHDT,0.3,T*2A
20220705 100537+00:00 $WIMWV,26.1,R,5.99,N,A*23
20220705 100539+00:00 $IIMDA,29.9,I,1.013,B,14,C,,C,88.1,,,C,,T,,M,,N,,M*31
20220705 100539+00:00 $GPRMC,100534,A,4911.6100,N,12326.5296,W,6.71,1,050722,11.8,E,A,V*63
20220705 100539+00:00 $HCHDT,0.3,T*2A
20220705 100539+00:00 $WIMWV,12.6,R,10.79,N,A*19
20220705 100541+00:00 $IIMDA,29.9,I,1.013,B,14,C,,C,88.2,,,C,,T,,M,,N,,M*32
20220705 100541+00:00 $GPRMC,100536,A,4911.6196,N,12326.5296,W,6.71,1,050722,11.8,E,A,V*6E
20220705 100541+00:00 $HCHDT,0.3,T*2A
20220705 100541+00:00 $WIMWV,14.6,R,9.49,N,A*24
20220705 100543+00:00 $IIMDA,29.9,I,1.013,B,14,C,,C,88.1,,,C,,T,,M,,N,,M*31
20220705 100543+00:00 $GPRMC,100538,A,4911.6196,N,12326.5296,W,6.71,1,050722,11.8,E,A,V*60
20220705 100543+00:00 $HCHDT,0.3,T*2A
20220705 100543+00:00 $WIMWV,23.59,R,10.79,N,A*21
20220705 100545+00:00 $IIMDA,29.9,I,1.013,B,14,C,,C,88.1,,,C,,T,,M,,N,,M*31
20220705 100545+00:00 $GPRMC,100540,A,4911.6298,N,12326.5296,W,6.71,1,050722,11.8,E,A,V*62
20220705 100545+00:00 $HCHDT,0.3,T*2A
20220705 100545+00:00 $WIMWV,22.3,R,9.39,N,A*23
20220705 100547+00:00 $IIMDA,29.9,I,1.013,B,14,C,,C,88.1,,,C,,T,,M,,N,,M*31
20220705 100547+00:00 $GPRMC,100542,A,4911.6298,N,12326.5296,W,6.71,1,050722,11.8,E,A,V*60
20220705 100547+00:00 $HCHDT,0.2,T*2B
20220705 100547+00:00 $WIMWV,24,R,6.88,N,A*3D
20220705 100549+00:00 $IIMDA,29.9,I,1.013,B,14,C,,C,88.1,,,C,,T,,M,,N,,M*31
20220705 100549+00:00 $GPRMC,100544,A,4911.6298,N,12326.5296,W,6.71,1,050722,11.8,E,A,V*66
20220705 100549+00:00 $HCHDT,0.2,T*2B
20220705 100549+00:00 $WIMWV,23.79,R,6.4,N,A*2E
20220705 100551+00:00 $IIMDA,29.9,I,1.013,B,14,C,,C,88.1,,,C,,T,,M,,N,,M*31
20220705 100551+00:00 $GPRMC,100546,A,4911.6400,N,12326.5296,W,6.71,1,050722,11.8,E,A,V*63
20220705 100551+00:00 $HCHDT,0.1,T*28
20220705 100551+00:00 $WIMWV,7.1,R,7.58,N,A*1F
20220705 100553+00:00 $IIMDA,29.9,I,1.013,B,14,C,,C,88.1,,,C,,T,,M,,N,,M*31
20220705 100553+00:00 $GPRMC,100548,A,4911.6400,N,12326.5296,W,6.71,1,050722,11.8,E,A,V*6D
20220705 100553+00:00 $HCHDT,0.1,T*28
20220705 100553+00:00 $WIMWV,22.3,R,5.48,N,A*29
20220705 100555+00:00 $IIMDA,29.9,I,1.013,B,14,C,,C,88.1,,,C,,T,,M,,N,,M*31
20220705 100555+00:00 $GPRMC,100550,A,4911.6400,N,12326.5296,W,6.71,1,050722,11.8,E,A,V*64
20220705 100555+00:00 $HCHDT,0.1,T*28
20220705 100555+00:00 $WIMWV,30.3,R,8.98,N,A*2A
20220705 100557+00:00 $IIMDA,29.9,I,1.013,B,14,C,,C,88.1,,,C,,T,,M,,N,,M*31
20220705 100557+00:00 $GPRMC,100552,A,4911.6496,N,12326.5296,W,6.71,1,050722,11.8,E,A,V*69
20220705 100557+00:00 $HCHDT,0.1,T*28
20220705 100557+00:00 $WIMWV,22.49,R,9.99,N,A*17
20220705 100559+00:00 $IIMDA,29.9,I,1.013,B,14,C,,C,88.1,,,C,,T,,M,,N,,M*31
20220705 100559+00:00 $GPRMC,100554,A,4911.6496,N,12326.5296,W,6.71,1,050722,11.8,E,A,V*6F
20220705 100559+00:00 $HCHDT,0.2,T*2B
20220705 100559+00:00 $WIMWV,355.99,R,6.3,N,A*15
20220705 100601+00:00 $IIMDA,29.9,I,1.013,B,14,C,,C,88.2,,,C,,T,,M,,N,,M*32
20220705 100601+00:00 $GPRMC,100556,A,4911.6496,N,12326.5296,W,6.71,1,050722,11.8,E,A,V*6D
20220705 100601+00:00 $HCHDT,0.3,T*2A
20220705 100601+00:00 $WIMWV,16.4,R,7.99,N,A*27
20220705 100603+00:00 $IIMDA,29.9,I,1.013,B,14,C,,C,88.2,,,C,,T,,M,,N,,M*32
20220705 100603+00:00 $GPRMC,100558,A,4911.6598,N,12326.5296,W,6.71,1,050722,11.8,E,A,V*6C
20220705 100603+00:00 $HCHDT,0.4,T*2D
20220705 100603+00:00 $WIMWV,23.2,R,6.78,N,A*29
20220705 100605+00:00 $IIMDA,29.9,I,1.013,B,14,C,,C,88.2,,,C,,T,,M,,N,,M*32
20220705 100605+00:00 $GPRMC,100600,A,4911.6598,N,12326.5296,W,6.71,1,050722,11.8,E,A,V*62
20220705 100605+00:00 $HCHDT,0.5,T*2C
20220705 100605+00:00 $WIMWV,28.5,R,8.28,N,A*2E
20220705 100607+00:00 $IIMDA,29.9,I,1.013,B,14,C,,C,88.2,,,C,,T,,M,,N,,M*32
20220705 100607+00:00 $GPRMC,100602,A,4911.6700,N,12326.5296,W,6.71,1,050722,11.8,E,A,V*63
20220705 100607+00:00 $HCHDT,0.5,T*2C
20220705 100607+00:00 $WIMWV,336.09,R,3.79,N,A*21
20220705 100609+00:00 $IIMDA,29.9,I,1.013,B,14,C,,C,88.3,,,C,,T,,M,,N,,M*33
20220705 100609+00:00 $GPRMC,100604,A,4911.6700,N,12326.5296,W,6.71,1,050722,11.8,E,A,V*65
20220705 100609+00:00 $HCHDT,0.5,T*2C
20220705 100609+00:00 $WIMWV,9.2,R,5.38,N,A*16
20220705 100611+00:00 $IIMDA,29.9,I,1.013,B,14,C,,C,88.3,,,C,,T,,M,,N,,M*33
20220705 100611+00:00 $GPRMC,100606,A,4911.6700,N,12326.5296,W,6.71,1,050722,11.8,E,A,V*67
20220705 100611+00:00 $HCHDT,0.5,T*2C
20220705 100611+00:00 $WIMWV,34.9,R,8.09,N,A*2C
20220705 100613+00:00 $IIMDA,29.9,I,1.013,B,14,C,,C,88.3,,,C,,T,,M,,N,,M*33
20220705 100613+00:00 $GPRMC,100608,A,4911.6796,N,12326.5296,W,6.71,1,050722,11.8,E,A,V*66
20220705 100613+00:00 $HCHDT,0.5,T*2C
20220705 100613+00:00 $WIMWV,29.5,R,9.39,N,A*2E
20220705 100615+00:00 $IIMDA,29.9,I,1.013,B,14,C,,C,88.2,,,C,,T,,M,,N,,M*32
20220705 100615+00:00 $GPRMC,100610,A,4911.6796,N,12326.5296,W,6.71,2,050722,11.8,E,A,V*6C
20220705 100615+00:00 $HCHDT,0.5,T*2C
20220705 100615+00:00 $WIMWV,0.19,R,8.18,N,A*2A
20220705 100617+00:00 $IIMDA,29.9,I,1.013,B,14,C,,C,88.2,,,C,,T,,M,,N,,M*32
20220705 100617+00:00 $GPRMC,100612,A,4911.6796,N,12326.5296,W,6.71,2,050722,11.8,E,A,V*6E
20220705 100617+00:00 $HCHDT,0.5,T*2C
20220705 100617+00:00 $WIMWV,11.8,R,9.68,N,A*2C
20220705 100619+00:00 $IIMDA,29.9,I,1.013,B,14,C,,C,88.2,,,C,,T,,M,,N,,M*32
20220705 100619+00:00 $GPRMC,100614,A,4911.6898,N,12326.5296,W,6.71,2,050722,11.8,E,A,V*69
20220705 100619+00:00 $HCHDT,0.5,T*2C
20220705 100619+00:00 $WIMWV,28.6,R,8.4,N,A*13
20220705 100621+00:00 $IIMDA,29.9,I,1.013,B,14,C,,C,88.2,,,C,,T,,M,,N,,M*32
20220705 100621+00:00 $GPRMC,100616,A,4911.6898,N,12326.5296,W,6.71,2,050722,11.8,E,A,V*6B
20220705 100621+00:00 $HCHDT,0.4,T*2D
20220705 100621+00:00 $WIMWV,12.6,R,9.8,N,A*17
20220705 100623+00:00 $IIMDA,29.9,I,1.013,B,14,C,,C,88.2,,,C,,T,,M,,N,,M*32
20220705 100623+00:00 $GPRMC,100618,A,4911.7000,N,12326.5296,W,6.71,1,050722,11.8,E,A,V*6E
20220705 100623+00:00 $HCHDT,0.4,T*2D
20220705 100623+00:00 $WIMWV,30.89,R,9.19,N,A*10
20220705 100625+00:00 $IIMDA,29.9,I,1.013,B,14,C,,C,88.1,,,C,,T,,M,,N,,M*31
20220705 100625+00:00 $GPRMC,100620,A,4911.7000,N,12326.5296,W,6.71,1,050722,11.8,E,A,V*65
20220705 100625+00:00 $HCHDT,0.3,T*2A
20220705 100625+00:00 $WIMWV,27.6,R,10.59,N,A*1D
20220705 100627+00:00 $IIMDA,29.9,I,1.013,B,14,C,,C,88.1,,,C,,T,,M,,N,,M*31
20220705 100627+00:00 $GPRMC,100622,A,4911.7000,N,12326.5296,W,6.71,1,050722,11.8,E,A,V*67
20220705 100627+00:00 $HCHDT,0.3,T*2A
20220705 100627+00:00 $WIMWV,17.1,R,8.4,N,A*18
20220705 100629+00:00 $IIMDA,29.9,I,1.013,B,14,C,,C,88.1,,,C,,T,,M,,N,,M*31
20220705 100629+00:00 $GPRMC,100624,A,4911.7096,N,12326.5296,W,6.71,1,050722,11.8,E,A,V*6E
20220705 100629+00:00 $HCHDT,0.4,T*2D
20220705 100629+00:00 $WIMWV,19,R,7.99,N,A*32
20220705 100631+00:00 $IIMDA,29.9,I,1.013,B,14,C,,C,88.1,,,C,,T,,M,,N,,M*31
20220705 100631+00:00 $GPRMC,100626,A,4911.7096,N,12326.5296,W,6.71,1,050722,11.8,E,A,V*6C
20220705 100631+00:00 $HCHDT,0.4,T*2D
20220705 100631+00:00 $WIMWV,17.9,R,10.19,N,A*15
20220705 100633+00:00 $IIMDA,29.9,I,1.013,B,14,C,,C,88,,,C,,T,,M,,N,,M*2E
20220705 100633+00:00 $GPRMC,100628,A,4911.7096,N,12326.5296,W,6.71,1,050722,11.8,E,A,V*62
20220705 100633+00:00 $HCHDT,0.6,T*2F
20220705 100633+00:00 $WIMWV,14.6,R,7.48,N,A*2B
20220705 100635+00:00 $IIMDA,29.9,I,1.013,B,14,C,,C,88,,,C,,T,,M,,N,,M*2E
20220705 100635+00:00 $GPRMC,100630,A,4911.7198,N,12326.5296,W,6.71,1,050722,11.8,E,A,V*64
20220705 100635+00:00 $HCHDT,0.8,T*21
20220705 100635+00:00 $WIMWV,22.69,R,8.79,N,A*1A
20220705 100637+00:00 $IIMDA,29.9,I,1.013,B,14,C,,C,88,,,C,,T,,M,,N,,M*2E
20220705 100637+00:00 $GPRMC,100632,A,4911.7198,N,12326.5296,W,6.71,1,050722,11.8,E,A,V*66
20220705 100637+00:00 $HCHDT,1.1,T*29
20220705 100637+00:00 $WIMWV,29.9,R,7.79,N,A*28
20220705 100639+00:00 $IIMDA,29.9,I,1.013,B,14,C,,C,88,,,C,,T,,M,,N,,M*2E
20220705 100639+00:00 $GPRMC,100634,A,4911.7300,N,12326.5296,W,6.71,1,050722,11.8,E,A,V*63
20220705 100639+00:00 $HCHDT,1.1,T*29
20220705 100639+00:00 $WIMWV,31.09,R,9.8,N,A*29
20220705 100641+00:00 $IIMDA,29.9,I,1.013,B,14,C,,C,88,,,C,,T,,M,,N,,M*2E
20220705 100641+00:00 $GPRMC,100636,A,4911.7300,N,12326.5296,W,6.71,1,050722,11.8,E,A,V*61
20220705 100641+00:00 $HCHDT,1,T*36
20220705 100641+00:00 $WIMWV,25.3,R,4.9,N,A*1A
20220705 100643+00:00 $IIMDA,29.9,I,1.013,B,14,C,,C,87.9,,,C,,T,,M,,N,,M*36
20220705 100643+00:00 $GPRMC,100638,A,4911.7300,N,12326.5296,W,6.71,1,050722,11.8,E,A,V*6F
20220705 100643+00:00 $HCHDT,0.8,T*21
20220705 100643+00:00 $WIMWV,39.9,R,8.4,N,A*1C
20220705 100645+00:00 $IIMDA,29.9,I,1.013,B,14,C,,C,88,,,C,,T,,M,,N,,M*2E
20220705 100645+00:00 $GPRMC,100640,A,4911.7396,N,12326.5296,W,6.71,1,050722,11.8,E,A,V*6F
20220705 100645+00:00 $HCHDT,0.5,T*2C
20220705 100645+00:00 $WIMWV,15.1,R,9.39,N,A*25
20220705 100647+00:00 $IIMDA,29.9,I,1.013,B,14,C,,C,88,,,C,,T,,M,,N,,M*2E
20220705 100647+00:00 $GPRMC,100642,A,4911.7396,N,12326.5296,W,6.71,1,050722,11.8,E,A,V*6D
20220705 100647+00:00 $HCHDT,0.1,T*28
20220705 100647+00:00 $WIMWV,14.9,R,5.38,N,A*21
20220705 100649+00:00 $IIMDA,29.9,I,1.013,B,14,C,,C,88,,,C,,T,,M,,N,,M*2E
20220705 100649+00:00 $GPRMC,100644,A,4911.7396,N,12326.5296,W,6.71,1,050722,11.8,E,A,V*6B
20220705 100649+00:00 $HCHDT,359.8,T*2E
20220705 100649+00:00 $WIMWV,31.4,R,7.39,N,A*28
20220705 100651+00:00 $IIMDA,29.9,I,1.013,B,14,C,,C,88,,,C,,T,,M,,N,,M*2E
20220705 100651+00:00 $GPRMC,100646,A,4911.7498,N,12326.5296,W,6.71,1,050722,11.8,E,A,V*60
20220705 100651+00:00 $HCHDT,359.6,T*20
20220705 100651+00:00 $WIMWV,18.6,R,8.88,N,A*24
20220705 100653+00:00 $IIMDA,29.9,I,1.013,B,14,C,,C,88,,,C,,T,,M,,N,,M*2E
20220705 100653+00:00 $GPRMC,100648,A,4911.7498,N,12326.5296,W,6.71,1,050722,11.8,E,A,V*6E
20220705 100653+00:00 $HCHDT,359.5,T*23
20220705 100653+00:00 $WIMWV,25.79,R,8.18,N,A*1B
20220705 100655+00:00 $IIMDA,29.9,I,1.013,B,14,C,,C,88,,,C,,T,,M,,N,,M*2E
20220705 100655+00:00 $GPRMC,100650,A,4911.7498,N,12326.5296,W,6.71,0,050722,11.8,E,A,V*66
20220705 100655+00:00 $HCHDT,359.4,T*22
20220705 100655+00:00 $WIMWV,29.99,R,7.89,N,A*1E
20220705 100657+00:00 $IIMDA,29.9,I,1.013,B,14,C,,C,87.9,,,C,,T,,M,,N,,M*36
20220705 100657+00:00 $GPRMC,100652,A,4911.7600,N,12326.5296,W,6.71,0,050722,11.8,E,A,V*67
20220705 100657+00:00 $HCHDT,359.4,T*22
20220705 100657+00:00 $WIMWV,5.4,R,8.4,N,A*2E
20220705 100659+00:00 $IIMDA,29.9,I,1.013,B,14,C,,C,87.9,,,C,,T,,M,,N,,M*36
20220705 100659+00:00 $GPRMC,100654,A,4911.7600,N,12326.5296,W,6.71,0,050722,11.8,E,A,V*61
20220705 100659+00:00 $HCHDT,359.7,T*21
20220705 100659+00:00 $WIMWV,29.5,R,8.49,N,A*28
20220705 100701+00:00 $IIMDA,29.9,I,1.013,B,14,C,,C,87.9,,,C,,T,,M,,N,,M*36
20220705 100701+00:00 $GPRMC,100656,A,4911.7696,N,12326.5296,W,6.71,0,050722,11.8,E,A,V*6C
20220705 100701+00:00 $HCHDT,0.1,T*28
20220705 100701+00:00 $WIMWV,24.1,R,7.89,N,A*22
20220705 100703+00:00 $IIMDA,29.9,I,1.013,B,14,C,,C,87.8,,,C,,T,,M,,N,,M*37
20220705 100703+00:00 $GPRMC,100658,A,4911.7696,N,12326.5296,W,6.71,0,050722,11.8,E,A,V*62
20220705 100703+00:00 $HCHDT,0.4,T*2D
20220705 100703+00:00 $WIMWV,18.4,R,7.48,N,A*25
20220705 100705+00:00 $IIMDA,29.9,I,1.013,B,14,C,,C,87.8,,,C,,T,,M,,N,,M*37
20220705 100705+00:00 $GPRMC,100700,A,4911.7696,N,12326.5296,W,6.71,0,050722,11.8,E,A,V*6E
20220705 100705+00:00 $HCHDT,0.6,T*2F
20220705 100705+00:00 $WIMWV,30.3,R,8.88,N,A*2B
20220705 100707+00:00 $IIMDA,29.9,I,1.013,B,14,C,,C,87.8,,,C,,T,,M,,N,,M*37
20220705 100707+00:00 $GPRMC,100702,A,4911.7798,N,12326.5296,W,6.71,1,050722,11.8,E,A,V*62
20220705 100707+00:00 $HCHDT,0.8,T*21
20220705 100707+00:00 $WIMWV,20,R,8.69,N,A*38
20220705 100709+00:00 $IIMDA,29.9,I,1.013,B,14,C,,C,87.8,,,C,,T,,M,,N,,M*37
20220705 100709+00:00 $GPRMC,100704,A,4911.7798,N,12326.5296,W,6.71,1,050722,11.8,E,A,V*64
20220705 100709+00:00 $HCHDT,0.9,T*20
20220705 100709+00:00 $WIMWV,22.3,R,9.68,N,A*27
20220705 100711+00:00 $IIMDA,29.9,I,1.013,B,14,C,,C,87.8,,,C,,T,,M,,N,,M*37
20220705 100711+00:00 $GPRMC,100706,A,4911.7798,N,12326.5296,W,6.71,1,050722,11.8,E,A,V*66
20220705 100711+00:00 $HCHDT,0.8,T*21
20220705 100711+00:00 $WIMWV,10.3,R,10.69,N,A*1F
20220705 100713+00:00 $IIMDA,29.9,I,1.013,B,14,C,,C,87.8,,,C,,T,,M,,N,,M*37
20220705 100713+00:00 $GPRMC,100708,A,4911.7900,N,12326.5296,W,6.71,1,050722,11.8,E,A,V*67
20220705 100713+00:00 $HCHDT,0.8,T*21
20220705 100713+00:00 $WIMWV,29.5,R,9.19,N,A*2C
20220705 100715+00:00 $IIMDA,29.9,I,1.013,B,14,C,,C,87.8,,,C,,T,,M,,N,,M*37
20220705 100715+00:00 $GPRMC,100710,A,4911.7900,N,12326.5296,W,6.71,1,050722,11.8,E,A,V*6E
20220705 100715+00:00 $HCHDT,0.7,T*2E
20220705 100715+00:00 $WIMWV,3.7,R,6.18,N,A*18
20220705 100717+00:00 $IIMDA,29.9,I,1.013,B,14,C,,C,87.9,,,C,,T,,M,,N,,M*36
20220705 100717+00:00 $GPRMC,100712,A,4911.7996,N,12326.5296,W,6.71,1,050722,11.8,E,A,V*63
20220705 100717+00:00 $HCHDT,0.6,T*2F
20220705 100717+00:00 $WIMWV,17.1,R,7.58,N,A*2E
20220705 100719+00:00 $IIMDA,29.9,I,1.013,B,14,C,,C,87.9,,,C,,T,,M,,N,,M*36
20220705 100719+00:00 $GPRMC,100714,A,4911.7996,N,12326.5296,W,6.71,1,050722,11.8,E,A,V*65
20220705 100719+00:00 $HCHDT,0.5,T*2C
20220705 100719+00:00 $WIMWV,18.9,R,6.88,N,A*25
20220705 100721+00:00 $IIMDA,29.9,I,1.013,B,14,C,,C,87.9,,,C,,T,,M,,N,,M*36
20220705 100721+00:00 $GPRMC,100716,A,4911.7996,N,12326.5296,W,6.71,1,050722,11.8,E,A,V*67
20220705 100721+00:00 $HCHDT,0.2,T*2B
20220705 100721+00:00 $WIMWV,11.89,R,6.4,N,A*20
20220705 100723+00:00 $IIMDA,29.9,I,1.013,B,14,C,,C,88,,,C,,T,,M,,N,,M*2E
20220705 100723+00:00 $GPRMC,100718,A,4911.8098,N,12326.5296,W,6.71,1,050722,11.8,E,A,V*61
20220705 100723+00:00 $HCHDT,0.2,T*2B
20220705 100723+00:00 $WIMWV,9.5,R,6.3,N,A*2A
20220705 100725+00:00 $IIMDA,29.9,I,1.013,B,14,C,,C,88.1,,,C,,T,,M,,N,,M*31
20220705 100725+00:00 $GPRMC,100720,A,4911.8098,N,12326.5296,W,6.71,1,050722,11.8,E,A,V*6A
20220705 100725+00:00 $HCHDT,0.1,T*28
20220705 100725+00:00 $WIMWV,27.79,R,8.59,N,A*1C
20220705 100727+00:00 $IIMDA,29.9,I,1.013,B,14,C,,C,88.1,,,C,,T,,M,,N,,M*31
20220705 100727+00:00 $GPRMC,100722,A,4911.8098,N,12326.5296,W,6.71,1,050722,11.8,E,A,V*68
20220705 100727+00:00 $HCHDT,0.1,T*28
20220705 100727+00:00 $WIMWV,11.89,R,9.99,N,A*1B
20220705 100729+00:00 $IIMDA,29.9,I,1.013,B,14,C,,C,88.1,,,C,,T,,M,,N,,M*31
20220705 100729+00:00 $GPRMC,100724,A,4911.8200,N,12326.5296,W,6.71,1,050722,11.8,E,A,V*6D
20220705 100729+00:00 $HCHDT,0.1,T*28
20220705 100729+00:00 $WIMWV,24.6,R,9.68,N,A*24
20220705 100731+00:00 $IIMDA,29.9,I,1.013,B,14,C,,C,88.2,,,C,,T,,M,,N,,M*32
20220705 100731+00:00 $GPRMC,100726,A,4911.8200,N,12326.5296,W,6.71,0,050722,11.8,E,A,V*6E
20220705 100731+00:00 $HCHDT,0.2,T*2B
20220705 100731+00:00 $WIMWV,50,R,8.09,N,A*39
20220705 100733+00:00 $IIMDA,29.9,I,1.013,B,14,C,,C,88.2,,,C,,T,,M,,N,,M*32
20220705 100733+00:00 $GPRMC,100728,A,4911.8296,N,12326.5296,W,6.71,0,050722,11.8,E,A,V*6F
20220705 100733+00:00 $HCHDT,0.2,T*2B
20220705 100733+00:00 $WIMWV,29.79,R,11.39,N,A*2C
20220705 100735+00:00 $IIMDA,29.9,I,1.013,B,14,C,,C,88.2,,,C,,T,,M,,N,,M*32
20220705 100735+00:00 $GPRMC,100730,A,4911.8296,N,12326.5296,W,6.71,0,050722,11.8,E,A,V*66
20220705 100735+00:00 $HCHDT,0.3,T*2A
20220705 100735+00:00 $WIMWV,29.99,R,10.5,N,A*1C
20220705 100737+00:00 $IIMDA,29.9,I,1.013,B,14,C,,C,88.2,,,C,,T,,M,,N,,M*32
20220705 100737+00:00 $GPRMC,100732,A,4911.8296,N,12326.5296,W,6.71,0,050722,11.8,E,A,V*64
20220705 100737+00:00 $HCHDT,0.5,T*2C
20220705 100737+00:00 $WIMWV,33.09,R,10.19,N,A*23
20220705 100739+00:00 $IIMDA,29.9,I,1.013,B,14,C,,C,88.2,,,C,,T,,M,,N,,M*32
20220705 100739+00:00 $GPRMC,100734,A,4911.8398,N,12326.5296,W,6.71,0,050722,11.8,E,A,V*6D
20220705 100739+00:00 $HCHDT,0.6,T*2F
20220705 100739+00:00 $WIMWV,33.9,R,10.19,N,A*13
20220705 100741+00:00 $IIMDA,29.9,I,1.013,B,14,C,,C,88.2,,,C,,T,,M,,N,,M*32
20220705 100741+00:00 $GPRMC,100736,A,4911.8398,N,12326.5296,W,6.71,0,050722,11.8,E,A,V*6F
20220705 100741+00:00 $HCHDT,0.8,T*21
20220705 100741+00:00 $WIMWV,26.4,R,8.79,N,A*25
20220705 100743+00:00 $IIMDA,29.9,I,1.013,B,14,C,,C,88.1,,,C,,T,,M,,N,,M*31
20220705 100743+00:00 $GPRMC,100738,A,4911.8398,N,12326.5296,W,6.71,0,050722,11.8,E,A,V*61
20220705 100743+00:00 $HCHDT,1,T*36
20220705 100743+00:00 $WIMWV,8.4,R,5.29,N,A*11
20220705 100745+00:00 $IIMDA,29.9,I,1.013,B,14,C,,C,88.1,,,C,,T,,M,,N,,M*31
20220705 100745+00:00 $GPRMC,100740,A,4911.8500,N,12326.5296,W,6.71,1,050722,11.8,E,A,V*68
20220705 100745+00:00 $HCHDT,1.1,T*29
20220705 100745+00:00 $WIMWV,28.6,R,8.09,N,A*2E
20220705 100747+00:00 $IIMDA,29.9,I,1.013,B,14,C,,C,88.1,,,C,,T,,M,,N,,M*31
20220705 100747+00:00 $GPRMC,100742,A,4911.8500,N,12326.5296,W,6.71,1,050722,11.8,E,A,V*6A
20220705 100747+00:00 $HCHDT,1,T*36
20220705 100747+00:00 $WIMWV,19.9,R,7.79,N,A*2B
20220705 100749+00:00 $IIMDA,29.9,I,1.013,B,14,C,,C,88.1,,,C,,T,,M,,N,,M*31
20220705 100749+00:00 $GPRMC,100744,A,4911.8500,N,12326.5296,W,6.71,1,050722,11.8,E,A,V*6C
20220705 100749+00:00 $HCHDT,1,T*36
