20220704 230000+00:00 $IIMDA,29.9,I,1.014,B,11.5,C,,C,91.9,,,C,,T,,M,,N,,M*28
20220704 230000+00:00 $HCHDT,106.7,T*29
20220704 230000+00:00 $GPRMC,225956,A,4817.8296,N,12346.2300,W,5.79,101,040722,11.8,E,A,V*6E
20220704 230000+00:00 $WIMWV,14.8,R,2.99,N,A*2C
20220704 230002+00:00 $IIMDA,29.9,I,1.014,B,11.5,C,,C,91.9,,,C,,T,,M,,N,,M*28
20220704 230002+00:00 $HCHDT,106.6,T*28
20220704 230002+00:00 $GPRMC,225958,A,4817.8296,N,12346.2198,W,5.79,101,040722,11.8,E,A,V*63
20220704 230002+00:00 $WIMWV,346.19,R,3.09,N,A*20
20220704 230004+00:00 $IIMDA,29.9,I,1.014,B,11.5,C,,C,91.9,,,C,,T,,M,,N,,M*28
20220704 230004+00:00 $HCHDT,106.3,T*2D
20220704 230004+00:00 $GPRMC,230000,A,4817.8296,N,12346.2198,W,5.79,101,040722,11.8,E,A,V*63
20220704 230004+00:00 $WIMWV,356.09,R,3.09,N,A*20
20220704 230006+00:00 $IIMDA,29.9,I,1.014,B,11.5,C,,C,91.9,,,C,,T,,M,,N,,M*28
20220704 230006+00:00 $HCHDT,105.9,T*24
20220704 230006+00:00 $GPRMC,230002,A,4817.8296,N,12346.2198,W,5.91,101,040722,11.8,E,A,V*67
20220704 230006+00:00 $WIMWV,350.69,R,2.99,N,A*28
20220704 230008+00:00 $IIMDA,29.9,I,1.014,B,11.5,C,,C,91.9,,,C,,T,,M,,N,,M*28
20220704 230008+00:00 $HCHDT,105.9,T*24
20220704 230008+00:00 $GPRMC,230004,A,4817.8296,N,12346.2096,W,5.91,100,040722,11.8,E,A,V*6F
20220704 230008+00:00 $WIMWV,349.99,R,3.5,N,A*1B
20220704 230010+00:00 $IIMDA,29.9,I,1.014,B,11.5,C,,C,91.8,,,C,,T,,M,,N,,M*29
20220704 230010+00:00 $HCHDT,105.8,T*25
20220704 230010+00:00 $GPRMC,230006,A,4817.8296,N,12346.2096,W,5.91,100,040722,11.8,E,A,V*6D
20220704 230010+00:00 $WIMWV,2.6,R,3.89,N,A*15
20220704 230012+00:00 $IIMDA,29.9,I,1.014,B,11.5,C,,C,91.9,,,C,,T,,M,,N,,M*28
20220704 230012+00:00 $HCHDT,105.8,T*25
20220704 230012+00:00 $GPRMC,230008,A,4817.8296,N,12346.2000,W,5.91,100,040722,11.8,E,A,V*6C
20220704 230012+00:00 $WIMWV,354.59,R,3.89,N,A*2F
20220704 230014+00:00 $IIMDA,29.9,I,1.014,B,11.5,C,,C,91.9,,,C,,T,,M,,N,,M*28
20220704 230014+00:00 $HCHDT,105.4,T*29
20220704 230014+00:00 $GPRMC,230010,A,4817.8296,N,12346.2000,W,5.91,100,040722,11.8,E,A,V*65
20220704 230014+00:00 $WIMWV,2.9,R,2.9,N,A*23
20220704 230016+00:00 $IIMDA,29.9,I,1.014,B,11.5,C,,C,91.9,,,C,,T,,M,,N,,M*28
20220704 230016+00:00 $HCHDT,105,T*33
20220704 230016+00:00 $GPRMC,230012,A,4817.8296,N,12346.1898,W,5.91,100,040722,11.8,E,A,V*6D
20220704 230016+00:00 $WIMWV,5.7,R,3.19,N,A*1A
20220704 230018+00:00 $IIMDA,29.9,I,1.014,B,11.5,C,,C,91.8,,,C,,T,,M,,N,,M*29
20220704 230018+00:00 $HCHDT,105.1,T*2C
20220704 230018+00:00 $GPRMC,230014,A,4817.8296,N,12346.1898,W,5.91,100,040722,11.8,E,A,V*6B
20220704 230018+00:00 $WIMWV,350.09,R,3.5,N,A*1A
20220704 230020+00:00 $IIMDA,29.9,I,1.014,B,11.5,C,,C,91.8,,,C,,T,,M,,N,,M*29
20220704 230020+00:00 $HCHDT,105.2,T*2F
20220704 230020+00:00 $GPRMC,230016,A,4817.8296,N,12346.1796,W,5.91,100,040722,11.8,E,A,V*68
20220704 230020+00:00 $WIMWV,342.49,R,3.6,N,A*1E
20220704 230022+00:00 $IIMDA,29.9,I,1.014,B,11.5,C,,C,91.8,,,C,,T,,M,,N,,M*29
20220704 230022+00:00 $HCHDT,105.2,T*2F
20220704 230022+00:00 $GPRMC,230018,A,4817.8296,N,12346.1796,W,5.91,100,040722,11.8,E,A,V*66
20220704 230022+00:00 $WIMWV,22.3,R,3.89,N,A*22
20220704 230024+00:00 $IIMDA,29.9,I,1.014,B,11.5,C,,C,91.8,,,C,,T,,M,,N,,M*29
20220704 230024+00:00 $HCHDT,105.3,T*2E
20220704 230024+00:00 $GPRMC,230020,A,4817.8296,N,12346.1700,W,5.91,100,040722,11.8,E,A,V*62
20220704 230024+00:00 $WIMWV,0.19,R,3.38,N,A*23
20220704 230026+00:00 $IIMDA,29.9,I,1.014,B,11.5,C,,C,91.8,,,C,,T,,M,,N,,M*29
20220704 230026+00:00 $HCHDT,105.4,T*29
20220704 230026+00:00 $GPRMC,230022,A,4817.8296,N,12346.1700,W,5.91,100,040722,11.8,E,A,V*60
20220704 230026+00:00 $WIMWV,357.39,R,3.6,N,A*1D
20220704 230028+00:00 $IIMDA,29.9,I,1.014,B,11.5,C,,C,91.8,,,C,,T,,M,,N,,M*29
20220704 230028+00:00 $HCHDT,105.6,T*2B
20220704 230028+00:00 $GPRMC,230024,A,4817.8296,N,12346.1598,W,5.91,100,040722,11.8,E,A,V*65
20220704 230028+00:00 $WIMWV,336.09,R,5.29,N,A*22
20220704 230030+00:00 $IIMDA,29.9,I,1.014,B,11.5,C,,C,91.8,,,C,,T,,M,,N,,M*29
20220704 230030+00:00 $HCHDT,105.7,T*2A
20220704 230030+00:00 $GPRMC,230026,A,4817.8200,N,12346.1598,W,5.91,100,040722,11.8,E,A,V*68
20220704 230030+00:00 $WIMWV,343.19,R,4.2,N,A*19
20220704 230032+00:00 $IIMDA,29.9,I,1.014,B,11.5,C,,C,91.8,,,C,,T,,M,,N,,M*29
20220704 230032+00:00 $HCHDT,105.9,T*24
20220704 230032+00:00 $GPRMC,230028,A,4817.8200,N,12346.1496,W,5.91,100,040722,11.8,E,A,V*69
20220704 230032+00:00 $WIMWV,343.29,R,4.39,N,A*22
20220704 230034+00:00 $IIMDA,29.9,I,1.014,B,11.5,C,,C,91.8,,,C,,T,,M,,N,,M*29
20220704 230034+00:00 $HCHDT,105.9,T*24
20220704 230034+00:00 $GPRMC,230030,A,4817.8200,N,12346.1496,W,5.91,100,040722,11.8,E,A,V*60
20220704 230034+00:00 $WIMWV,358.49,R,4.3,N,A*17
20220704 230036+00:00 $IIMDA,29.9,I,1.014,B,11.5,C,,C,91.8,,,C,,T,,M,,N,,M*29
20220704 230036+00:00 $HCHDT,106.1,T*2F
20220704 230036+00:00 $GPRMC,230032,A,4817.8200,N,12346.1400,W,5.91,100,040722,11.8,E,A,V*6D
20220704 230036+00:00 $WIMWV,338.59,R,5.29,N,A*29
20220704 230038+00:00 $IIMDA,29.9,I,1.014,B,11.5,C,,C,91.8,,,C,,T,,M,,N,,M*29
20220704 230038+00:00 $HCHDT,106.1,T*2F
20220704 230038+00:00 $GPRMC,230034,A,4817.8200,N,12346.1400,W,5.91,100,040722,11.8,E,A,V*6B
20220704 230038+00:00 $WIMWV,344.09,R,4.9,N,A*14
20220704 230040+00:00 $IIMDA,29.9,I,1.014,B,11.5,C,,C,91.8,,,C,,T,,M,,N,,M*29
20220704 230040+00:00 $HCHDT,105.9,T*24
20220704 230040+00:00 $GPRMC,230036,A,4817.8200,N,12346.1298,W,5.91,100,040722,11.8,E,A,V*6E
20220704 230040+00:00 $WIMWV,336.19,R,5.48,N,A*24
20220704 230042+00:00 $IIMDA,29.9,I,1.014,B,11.5,C,,C,91.8,,,C,,T,,M,,N,,M*29
20220704 230042+00:00 $HCHDT,105.8,T*25
20220704 230042+00:00 $GPRMC,230038,A,4817.8200,N,12346.1298,W,6.01,100,040722,11.8,E,A,V*6A
20220704 230042+00:00 $WIMWV,336.89,R,5.48,N,A*2D
20220704 230044+00:00 $IIMDA,29.9,I,1.014,B,11.5,C,,C,91.8,,,C,,T,,M,,N,,M*29
20220704 230044+00:00 $HCHDT,105.7,T*2A
20220704 230044+00:00 $GPRMC,230040,A,4817.8200,N,12346.1196,W,6.01,100,040722,11.8,E,A,V*68
20220704 230044+00:00 $WIMWV,334.59,R,5.79,N,A*20
20220704 230046+00:00 $IIMDA,29.9,I,1.014,B,11.5,C,,C,91.8,,,C,,T,,M,,N,,M*29
20220704 230046+00:00 $HCHDT,105.9,T*24
20220704 230046+00:00 $GPRMC,230042,A,4817.8200,N,12346.1196,W,6.01,100,040722,11.8,E,A,V*6A
20220704 230046+00:00 $WIMWV,335.69,R,5.29,N,A*27
20220704 230048+00:00 $IIMDA,29.9,I,1.014,B,11.5,C,,C,91.7,,,C,,T,,M,,N,,M*26
20220704 230048+00:00 $HCHDT,105.8,T*25
20220704 230048+00:00 $GPRMC,230044,A,4817.8200,N,12346.1100,W,6.01,100,040722,11.8,E,A,V*63
20220704 230048+00:00 $WIMWV,343.19,R,5.19,N,A*22
20220704 230050+00:00 $IIMDA,29.9,I,1.014,B,11.5,C,,C,91.7,,,C,,T,,M,,N,,M*26
20220704 230050+00:00 $HCHDT,105.7,T*2A
20220704 230050+00:00 $GPRMC,230046,A,4817.8200,N,12346.1100,W,6.01,100,040722,11.8,E,A,V*61
20220704 230050+00:00 $WIMWV,350.79,R,6.4,N,A*19
20220704 230052+00:00 $IIMDA,29.9,I,1.014,B,11.5,C,,C,91.8,,,C,,T,,M,,N,,M*29
20220704 230052+00:00 $HCHDT,105.6,T*2B
20220704 230052+00:00 $GPRMC,230048,A,4817.8200,N,12346.0998,W,6.01,100,040722,11.8,E,A,V*67
20220704 230052+00:00 $WIMWV,344.19,R,6.18,N,A*27
20220704 230054+00:00 $IIMDA,29.9,I,1.014,B,11.4,C,,C,91.8,,,C,,T,,M,,N,,M*28
20220704 230054+00:00 $HCHDT,105.6,T*2B
20220704 230054+00:00 $GPRMC,230050,A,4817.8200,N,12346.0998,W,6.01,100,040722,11.8,E,A,V*6E
20220704 230054+00:00 $WIMWV,344.39,R,5.38,N,A*24
20220704 230056+00:00 $IIMDA,29.9,I,1.014,B,11.4,C,,C,91.8,,,C,,T,,M,,N,,M*28
20220704 230056+00:00 $HCHDT,105.6,T*2B
20220704 230056+00:00 $GPRMC,230052,A,4817.8200,N,12346.0896,W,6.01,100,040722,11.8,E,A,V*63
20220704 230056+00:00 $WIMWV,335.89,R,5,N,A*0C
20220704 230058+00:00 $IIMDA,29.9,I,1.014,B,11.4,C,,C,91.7,,,C,,T,,M,,N,,M*27
20220704 230058+00:00 $HCHDT,105.6,T*2B
20220704 230058+00:00 $GPRMC,230054,A,4817.8200,N,12346.0896,W,6.1,100,040722,11.8,E,A,V*55
20220704 230058+00:00 $WIMWV,334.39,R,7.29,N,A*21
20220704 230100+00:00 $IIMDA,29.9,I,1.014,B,11.4,C,,C,91.8,,,C,,T,,M,,N,,M*28
20220704 230100+00:00 $HCHDT,105.6,T*2B
20220704 230100+00:00 $GPRMC,230056,A,4817.8200,N,12346.0800,W,6.1,100,040722,11.8,E,A,V*58
20220704 230100+00:00 $WIMWV,337.79,R,6.18,N,A*25
20220704 230102+00:00 $IIMDA,29.9,I,1.014,B,11.4,C,,C,91.8,,,C,,T,,M,,N,,M*28
20220704 230102+00:00 $HCHDT,105.6,T*2B
20220704 230102+00:00 $GPRMC,230058,A,4817.8200,N,12346.0800,W,6.1,100,040722,11.8,E,A,V*56
20220704 230102+00:00 $WIMWV,340.69,R,6.08,N,A*25
20220704 230104+00:00 $IIMDA,29.9,I,1.014,B,11.4,C,,C,91.8,,,C,,T,,M,,N,,M*28
20220704 230104+00:00 $HCHDT,105.6,T*2B
20220704 230104+00:00 $GPRMC,230100,A,4817.8098,N,12346.0698,W,6.1,100,040722,11.8,E,A,V*56
20220704 230104+00:00 $WIMWV,335.89,R,6.4,N,A*15
20220704 230106+00:00 $IIMDA,29.9,I,1.014,B,11.4,C,,C,91.8,,,C,,T,,M,,N,,M*28
20220704 230106+00:00 $HCHDT,105.6,T*2B
20220704 230106+00:00 $GPRMC,230102,A,4817.8098,N,12346.0698,W,6.1,100,040722,11.8,E,A,V*54
20220704 230106+00:00 $WIMWV,342.29,R,5.09,N,A*21
20220704 230108+00:00 $IIMDA,29.9,I,1.014,B,11.4,C,,C,91.8,,,C,,T,,M,,N,,M*28
20220704 230108+00:00 $HCHDT,105.6,T*2B
20220704 230108+00:00 $GPRMC,230104,A,4817.8098,N,12346.0596,W,6.1,100,040722,11.8,E,A,V*5F
20220704 230108+00:00 $WIMWV,344.09,R,5.48,N,A*20
20220704 230110+00:00 $IIMDA,29.9,I,1.014,B,11.4,C,,C,91.8,,,C,,T,,M,,N,,M*28
20220704 230110+00:00 $HCHDT,105.5,T*28
20220704 230110+00:00 $GPRMC,230106,A,4817.8098,N,12346.0596,W,6.1,100,040722,11.8,E,A,V*5D
20220704 230110+00:00 $WIMWV,351.09,R,5.38,N,A*23
20220704 230112+00:00 $IIMDA,29.9,I,1.014,B,11.4,C,,C,91.8,,,C,,T,,M,,N,,M*28
20220704 230112+00:00 $HCHDT,106,T*30
20220704 230112+00:00 $GPRMC,230108,A,4817.8098,N,12346.0500,W,6.1,100,040722,11.8,E,A,V*5C
20220704 230112+00:00 $WIMWV,346.59,R,5,N,A*05
20220704 230114+00:00 $IIMDA,29.9,I,1.014,B,11.4,C,,C,91.8,,,C,,T,,M,,N,,M*28
20220704 230114+00:00 $HCHDT,106,T*30
20220704 230114+00:00 $GPRMC,230110,A,4817.8098,N,12346.0500,W,6.1,100,040722,11.8,E,A,V*55
20220704 230114+00:00 $WIMWV,341.69,R,5.19,N,A*27
20220704 230116+00:00 $IIMDA,29.9,I,1.014,B,11.4,C,,C,91.8,,,C,,T,,M,,N,,M*28
20220704 230116+00:00 $HCHDT,105.7,T*2A
20220704 230116+00:00 $GPRMC,230112,A,4817.8098,N,12346.0398,W,6.1,100,040722,11.8,E,A,V*50
20220704 230116+00:00 $WIMWV,354.59,R,5.99,N,A*28
20220704 230118+00:00 $IIMDA,29.9,I,1.014,B,11.4,C,,C,91.8,,,C,,T,,M,,N,,M*28
20220704 230118+00:00 $HCHDT,105.9,T*24
20220704 230118+00:00 $GPRMC,230114,A,4817.8098,N,12346.0398,W,6.1,100,040722,11.8,E,A,V*56
20220704 230118+00:00 $WIMWV,339.79,R,6.3,N,A*11
20220704 230120+00:00 $IIMDA,29.9,I,1.014,B,11.4,C,,C,91.8,,,C,,T,,M,,N,,M*28
20220704 230120+00:00 $HCHDT,105.9,T*24
20220704 230120+00:00 $GPRMC,230116,A,4817.8098,N,12346.0296,W,6.2,100,040722,11.8,E,A,V*58
20220704 230120+00:00 $WIMWV,351.39,R,6.08,N,A*20
20220704 230122+00:00 $IIMDA,29.9,I,1.014,B,11.4,C,,C,91.8,,,C,,T,,M,,N,,M*28
20220704 230122+00:00 $HCHDT,106,T*30
20220704 230122+00:00 $GPRMC,230118,A,4817.8098,N,12346.0296,W,6.2,100,040722,11.8,E,A,V*56
20220704 230122+00:00 $WIMWV,340.99,R,6.18,N,A*2B
20220704 230124+00:00 $IIMDA,29.9,I,1.014,B,11.4,C,,C,91.8,,,C,,T,,M,,N,,M*28
20220704 230124+00:00 $HCHDT,106.2,T*2C
20220704 230124+00:00 $GPRMC,230120,A,4817.8098,N,12346.0200,W,6.2,100,040722,11.8,E,A,V*52
20220704 230124+00:00 $WIMWV,334.29,R,6.69,N,A*25
20220704 230126+00:00 $IIMDA,29.9,I,1.014,B,11.4,C,,C,91.8,,,C,,T,,M,,N,,M*28
20220704 230126+00:00 $HCHDT,106.5,T*2B
20220704 230126+00:00 $GPRMC,230122,A,4817.8098,N,12346.0200,W,6.2,100,040722,11.8,E,A,V*50
20220704 230126+00:00 $WIMWV,331.09,R,7.58,N,A*21
20220704 230128+00:00 $IIMDA,29.9,I,1.014,B,11.4,C,,C,91.8,,,C,,T,,M,,N,,M*28
20220704 230128+00:00 $HCHDT,106.6,T*28
20220704 230128+00:00 $GPRMC,230124,A,4817.8098,N,12346.0098,W,6.2,100,040722,11.8,E,A,V*55
20220704 230128+00:00 $WIMWV,348.39,R,5.99,N,A*23
20220704 230130+00:00 $IIMDA,29.9,I,1.014,B,11.4,C,,C,91.8,,,C,,T,,M,,N,,M*28
20220704 230130+00:00 $HCHDT,106.7,T*29
20220704 230130+00:00 $GPRMC,230126,A,4817.8098,N,12346.0098,W,6.2,100,040722,11.8,E,A,V*57
20220704 230130+00:00 $WIMWV,352.69,R,6.3,N,A*1D
20220704 230132+00:00 $IIMDA,29.9,I,1.014,B,11.4,C,,C,91.8,,,C,,T,,M,,N,,M*28
20220704 230132+00:00 $HCHDT,107.2,T*2D
20220704 230132+00:00 $GPRMC,230128,A,4817.8098,N,12345.9996,W,6.2,101,040722,11.8,E,A,V*55
20220704 230132+00:00 $WIMWV,0.19,R,5.99,N,A*2E
20220704 230134+00:00 $IIMDA,29.9,I,1.014,B,11.4,C,,C,91.8,,,C,,T,,M,,N,,M*28
20220704 230134+00:00 $HCHDT,107.3,T*2C
20220704 230134+00:00 $GPRMC,230130,A,4817.8098,N,12345.9996,W,6.2,101,040722,11.8,E,A,V*5C
20220704 230134+00:00 $WIMWV,336.29,R,5.99,N,A*2B
20220704 230136+00:00 $IIMDA,29.9,I,1.014,B,11.4,C,,C,91.8,,,C,,T,,M,,N,,M*28
20220704 230136+00:00 $HCHDT,107.3,T*2C
20220704 230136+00:00 $GPRMC,230132,A,4817.8098,N,12345.9900,W,6.2,101,040722,11.8,E,A,V*51
20220704 230136+00:00 $WIMWV,344.99,R,5.89,N,A*24
20220704 230138+00:00 $IIMDA,29.9,I,1.014,B,11.4,C,,C,91.8,,,C,,T,,M,,N,,M*28
20220704 230138+00:00 $HCHDT,107.5,T*2A
20220704 230138+00:00 $GPRMC,230134,A,4817.7996,N,12345.9900,W,6.2,101,040722,11.8,E,A,V*5F
20220704 230138+00:00 $WIMWV,337.29,R,5.99,N,A*2A
20220704 230140+00:00 $IIMDA,29.9,I,1.014,B,11.4,C,,C,91.8,,,C,,T,,M,,N,,M*28
20220704 230140+00:00 $HCHDT,107.7,T*28
20220704 230140+00:00 $GPRMC,230136,A,4817.7996,N,12345.9798,W,6.2,101,040722,11.8,E,A,V*52
20220704 230140+00:00 $WIMWV,334.39,R,6.49,N,A*26
20220704 230142+00:00 $IIMDA,29.9,I,1.014,B,11.4,C,,C,91.8,,,C,,T,,M,,N,,M*28
20220704 230142+00:00 $HCHDT,107.7,T*28
20220704 230142+00:00 $GPRMC,230138,A,4817.7996,N,12345.9798,W,6.2,101,040722,11.8,E,A,V*5C
20220704 230142+00:00 $WIMWV,9.3,R,5.38,N,A*17
20220704 230144+00:00 $IIMDA,29.9,I,1.014,B,11.4,C,,C,91.8,,,C,,T,,M,,N,,M*28
20220704 230144+00:00 $HCHDT,107.7,T*28
20220704 230144+00:00 $GPRMC,230140,A,4817.7996,N,12345.9696,W,6.2,101,040722,11.8,E,A,V*5C
20220704 230144+00:00 $WIMWV,350.09,R,4.68,N,A*26
20220704 230146+00:00 $IIMDA,29.9,I,1.014,B,11.4,C,,C,91.8,,,C,,T,,M,,N,,M*28
20220704 230146+00:00 $HCHDT,107.7,T*28
20220704 230146+00:00 $GPRMC,230142,A,4817.7996,N,12345.9696,W,6.2,101,040722,11.8,E,A,V*5E
20220704 230146+00:00 $WIMWV,358.49,R,5.48,N,A*29
20220704 230148+00:00 $IIMDA,29.9,I,1.014,B,11.4,C,,C,91.8,,,C,,T,,M,,N,,M*28
20220704 230148+00:00 $HCHDT,107.8,T*27
20220704 230148+00:00 $GPRMC,230144,A,4817.7996,N,12345.9600,W,6.2,101,040722,11.8,E,A,V*57
20220704 230148+00:00 $WIMWV,351.79,R,5.7,N,A*18
20220704 230150+00:00 $IIMDA,29.9,I,1.014,B,11.4,C,,C,91.8,,,C,,T,,M,,N,,M*28
20220704 230150+00:00 $HCHDT,107.9,T*26
20220704 230150+00:00 $GPRMC,230146,A,4817.7996,N,12345.9600,W,6.2,101,040722,11.8,E,A,V*55
20220704 230150+00:00 $WIMWV,329.99,R,7.48,N,A*20
20220704 230152+00:00 $IIMDA,29.9,I,1.014,B,11.4,C,,C,91.8,,,C,,T,,M,,N,,M*28
20220704 230152+00:00 $HCHDT,107.8,T*27
20220704 230152+00:00 $GPRMC,230148,A,4817.7996,N,12345.9498,W,6.2,101,040722,11.8,E,A,V*58
20220704 230152+00:00 $WIMWV,340.59,R,5.79,N,A*23
20220704 230154+00:00 $IIMDA,29.9,I,1.014,B,11.4,C,,C,91.9,,,C,,T,,M,,N,,M*29
20220704 230154+00:00 $HCHDT,108,T*3E
20220704 230154+00:00 $GPRMC,230150,A,4817.7996,N,12345.9498,W,6.2,101,040722,11.8,E,A,V*51
20220704 230154+00:00 $WIMWV,330.39,R,7.29,N,A*25
20220704 230156+00:00 $IIMDA,29.9,I,1.014,B,11.4,C,,C,91.9,,,C,,T,,M,,N,,M*29
20220704 230156+00:00 $HCHDT,108,T*3E
20220704 230156+00:00 $GPRMC,230152,A,4817.7996,N,12345.9396,W,6.2,101,040722,11.8,E,A,V*5A
20220704 230156+00:00 $WIMWV,332.99,R,5.48,N,A*28
20220704 230158+00:00 $IIMDA,29.9,I,1.014,B,11.4,C,,C,91.9,,,C,,T,,M,,N,,M*29
20220704 230158+00:00 $HCHDT,108.2,T*22
20220704 230158+00:00 $GPRMC,230154,A,4817.7996,N,12345.9396,W,6.2,101,040722,11.8,E,A,V*5C
20220704 230158+00:00 $WIMWV,331.99,R,6.69,N,A*2B
20220704 230200+00:00 $IIMDA,29.9,I,1.014,B,11.4,C,,C,91.9,,,C,,T,,M,,N,,M*29
20220704 230200+00:00 $HCHDT,108.2,T*22
20220704 230200+00:00 $GPRMC,230156,A,4817.7996,N,12345.9300,W,6.3,102,040722,11.8,E,A,V*53
20220704 230200+00:00 $WIMWV,343.69,R,5.38,N,A*26
20220704 230202+00:00 $IIMDA,29.9,I,1.014,B,11.4,C,,C,91.8,,,C,,T,,M,,N,,M*28
20220704 230202+00:00 $HCHDT,108.3,T*23
20220704 230202+00:00 $GPRMC,230158,A,4817.7996,N,12345.9300,W,6.3,102,040722,11.8,E,A,V*5D
20220704 230202+00:00 $WIMWV,331.39,R,5.38,N,A*26
20220704 230204+00:00 $IIMDA,29.9,I,1.014,B,11.4,C,,C,91.9,,,C,,T,,M,,N,,M*29
20220704 230204+00:00 $HCHDT,108.3,T*23
20220704 230204+00:00 $GPRMC,230200,A,4817.7996,N,12345.9198,W,6.3,102,040722,11.8,E,A,V*50
20220704 230204+00:00 $WIMWV,342.59,R,5.48,N,A*23
20220704 230206+00:00 $IIMDA,29.9,I,1.014,B,11.4,C,,C,91.8,,,C,,T,,M,,N,,M*28
20220704 230206+00:00 $HCHDT,108.3,T*23
20220704 230206+00:00 $GPRMC,230202,A,4817.7900,N,12345.9198,W,6.3,102,040722,11.8,E,A,V*5D
20220704 230206+00:00 $WIMWV,337.59,R,5,N,A*03
20220704 230208+00:00 $IIMDA,29.9,I,1.014,B,11.4,C,,C,91.9,,,C,,T,,M,,N,,M*29
20220704 230208+00:00 $HCHDT,108.5,T*25
20220704 230208+00:00 $GPRMC,230204,A,4817.7900,N,12345.9096,W,6.3,102,040722,11.8,E,A,V*54
20220704 230208+00:00 $WIMWV,337.99,R,5.09,N,A*28
20220704 230210+00:00 $IIMDA,29.9,I,1.014,B,11.4,C,,C,91.8,,,C,,T,,M,,N,,M*28
20220704 230210+00:00 $HCHDT,108.6,T*26
20220704 230210+00:00 $GPRMC,230206,A,4817.7900,N,12345.9096,W,6.3,102,040722,11.8,E,A,V*56
20220704 230210+00:00 $WIMWV,348.19,R,5.09,N,A*28
20220704 230212+00:00 $IIMDA,29.9,I,1.014,B,11.4,C,,C,91.8,,,C,,T,,M,,N,,M*28
20220704 230212+00:00 $HCHDT,108.6,T*26
20220704 230212+00:00 $GPRMC,230208,A,4817.7900,N,12345.9000,W,6.3,102,040722,11.8,E,A,V*57
20220704 230212+00:00 $WIMWV,337.39,R,5.29,N,A*20
20220704 230214+00:00 $IIMDA,29.9,I,1.014,B,11.4,C,,C,91.8,,,C,,T,,M,,N,,M*28
20220704 230214+00:00 $HCHDT,108.6,T*26
20220704 230214+00:00 $GPRMC,230210,A,4817.7900,N,12345.9000,W,6.3,103,040722,11.8,E,A,V*5F
20220704 230214+00:00 $WIMWV,357.19,R,5.09,N,A*26
20220704 230216+00:00 $IIMDA,29.9,I,1.014,B,11.4,C,,C,91.9,,,C,,T,,M,,N,,M*29
20220704 230216+00:00 $HCHDT,108.4,T*24
20220704 230216+00:00 $GPRMC,230212,A,4817.7900,N,12345.8898,W,6.3,103,040722,11.8,E,A,V*55
20220704 230216+00:00 $WIMWV,329.19,R,7.19,N,A*2C
20220704 230218+00:00 $IIMDA,29.9,I,1.014,B,11.4,C,,C,91.9,,,C,,T,,M,,N,,M*29
20220704 230218+00:00 $HCHDT,108.2,T*22
20220704 230218+00:00 $GPRMC,230214,A,4817.7900,N,12345.8898,W,6.3,103,040722,11.8,E,A,V*53
20220704 230218+00:00 $WIMWV,359.59,R,5.48,N,A*29
20220704 230220+00:00 $IIMDA,29.9,I,1.014,B,11.4,C,,C,91.9,,,C,,T,,M,,N,,M*29
20220704 230220+00:00 $HCHDT,108.2,T*22
20220704 230220+00:00 $GPRMC,230216,A,4817.7900,N,12345.8796,W,6.3,103,040722,11.8,E,A,V*50
20220704 230220+00:00 $WIMWV,348.39,R,4.9,N,A*1B
20220704 230222+00:00 $IIMDA,29.9,I,1.014,B,11.4,C,,C,91.9,,,C,,T,,M,,N,,M*29
20220704 230222+00:00 $HCHDT,107.9,T*26
20220704 230222+00:00 $GPRMC,230218,A,4817.7900,N,12345.8700,W,6.3,103,040722,11.8,E,A,V*51
20220704 230222+00:00 $WIMWV,2.5,R,4.49,N,A*1D
20220704 230224+00:00 $IIMDA,29.9,I,1.014,B,11.4,C,,C,91.9,,,C,,T,,M,,N,,M*29
20220704 230224+00:00 $HCHDT,107.7,T*28
20220704 230224+00:00 $GPRMC,230220,A,4817.7900,N,12345.8700,W,6.3,103,040722,11.8,E,A,V*5A
20220704 230224+00:00 $WIMWV,343.19,R,4.9,N,A*12
20220704 230226+00:00 $IIMDA,29.9,I,1.014,B,11.4,C,,C,91.9,,,C,,T,,M,,N,,M*29
20220704 230226+00:00 $HCHDT,107.8,T*27
20220704 230226+00:00 $GPRMC,230222,A,4817.7900,N,12345.8598,W,6.3,102,040722,11.8,E,A,V*5A
20220704 230226+00:00 $WIMWV,339.69,R,5.38,N,A*2B
20220704 230228+00:00 $IIMDA,29.9,I,1.014,B,11.4,C,,C,91.9,,,C,,T,,M,,N,,M*29
20220704 230228+00:00 $HCHDT,107.8,T*27
20220704 230228+00:00 $GPRMC,230224,A,4817.7900,N,12345.8598,W,6.3,102,040722,11.8,E,A,V*5C
20220704 230228+00:00 $WIMWV,350.29,R,4.59,N,A*26
20220704 230230+00:00 $IIMDA,29.9,I,1.014,B,11.4,C,,C,92,,,C,,T,,M,,N,,M*3D
20220704 230230+00:00 $HCHDT,107.6,T*29
20220704 230230+00:00 $GPRMC,230226,A,4817.7900,N,12345.8496,W,6.3,102,040722,11.8,E,A,V*51
20220704 230230+00:00 $WIMWV,330.29,R,4.78,N,A*23
20220704 230232+00:00 $IIMDA,29.9,I,1.014,B,11.4,C,,C,92,,,C,,T,,M,,N,,M*3D
20220704 230232+00:00 $HCHDT,107.6,T*29
20220704 230232+00:00 $GPRMC,230228,A,4817.7900,N,12345.8496,W,6.3,102,040722,11.8,E,A,V*5F
20220704 230232+00:00 $WIMWV,8,R,3.38,N,A*0D
20220704 230234+00:00 $IIMDA,29.9,I,1.014,B,11.4,C,,C,92,,,C,,T,,M,,N,,M*3D
20220704 230234+00:00 $HCHDT,107.7,T*28
20220704 230234+00:00 $GPRMC,230230,A,4817.7798,N,12345.8400,W,6.3,102,040722,11.8,E,A,V*56
20220704 230234+00:00 $WIMWV,326.69,R,3.6,N,A*1E
20220704 230236+00:00 $IIMDA,29.9,I,1.014,B,11.4,C,,C,92,,,C,,T,,M,,N,,M*3D
20220704 230236+00:00 $HCHDT,107.8,T*27
20220704 230236+00:00 $GPRMC,230232,A,4817.7798,N,12345.8400,W,6.3,102,040722,11.8,E,A,V*54
20220704 230236+00:00 $WIMWV,339.69,R,3.98,N,A*27
20220704 230238+00:00 $IIMDA,29.9,I,1.014,B,11.4,C,,C,92,,,C,,T,,M,,N,,M*3D
20220704 230238+00:00 $HCHDT,107.8,T*27
20220704 230238+00:00 $GPRMC,230234,A,4817.7798,N,12345.8298,W,6.3,102,040722,11.8,E,A,V*55
20220704 230238+00:00 $WIMWV,38.59,R,4.78,N,A*1F
20220704 230240+00:00 $IIMDA,29.9,I,1.014,B,11.4,C,,C,92,,,C,,T,,M,,N,,M*3D
20220704 230240+00:00 $HCHDT,108.1,T*21
20220704 230240+00:00 $GPRMC,230236,A,4817.7798,N,12345.8298,W,6.3,102,040722,11.8,E,A,V*57
20220704 230240+00:00 $WIMWV,341.19,R,3.29,N,A*25
20220704 230242+00:00 $IIMDA,29.9,I,1.014,B,11.4,C,,C,91.9,,,C,,T,,M,,N,,M*29
20220704 230242+00:00 $HCHDT,108.2,T*22
20220704 230242+00:00 $GPRMC,230238,A,4817.7798,N,12345.8196,W,6.3,102,040722,11.8,E,A,V*54
20220704 230242+00:00 $WIMWV,332.29,R,3.89,N,A*28
20220704 230244+00:00 $IIMDA,29.9,I,1.014,B,11.4,C,,C,92,,,C,,T,,M,,N,,M*3D
20220704 230244+00:00 $HCHDT,108.1,T*21
20220704 230244+00:00 $GPRMC,230240,A,4817.7798,N,12345.8196,W,6.3,102,040722,11.8,E,A,V*5B
20220704 230244+00:00 $WIMWV,342.39,R,3.98,N,A*2E
20220704 230246+00:00 $IIMDA,29.9,I,1.014,B,11.4,C,,C,91.9,,,C,,T,,M,,N,,M*29
20220704 230246+00:00 $HCHDT,108.3,T*23
20220704 230246+00:00 $GPRMC,230242,A,4817.7798,N,12345.8100,W,6.3,102,040722,11.8,E,A,V*56
20220704 230246+00:00 $WIMWV,346.59,R,3.19,N,A*25
20220704 230248+00:00 $IIMDA,29.9,I,1.014,B,11.4,C,,C,91.9,,,C,,T,,M,,N,,M*29
20220704 230248+00:00 $HCHDT,108.6,T*26
20220704 230248+00:00 $GPRMC,230244,A,4817.7798,N,12345.8100,W,6.2,102,040722,11.8,E,A,V*51
20220704 230248+00:00 $WIMWV,346.39,R,4.39,N,A*26
20220704 230250+00:00 $IIMDA,29.9,I,1.014,B,11.4,C,,C,92,,,C,,T,,M,,N,,M*3D
20220704 230250+00:00 $HCHDT,108.5,T*25
20220704 230250+00:00 $GPRMC,230246,A,4817.7798,N,12345.7998,W,6.2,102,040722,11.8,E,A,V*55
20220704 230250+00:00 $WIMWV,317.29,R,6.3,N,A*18
20220704 230252+00:00 $IIMDA,29.9,I,1.014,B,11.4,C,,C,92,,,C,,T,,M,,N,,M*3D
20220704 230252+00:00 $HCHDT,108.5,T*25
20220704 230252+00:00 $GPRMC,230248,A,4817.7798,N,12345.7998,W,6.2,102,040722,11.8,E,A,V*5B
20220704 230252+00:00 $WIMWV,332.89,R,4.39,N,A*2E
20220704 230254+00:00 $IIMDA,29.9,I,1.014,B,11.4,C,,C,92,,,C,,T,,M,,N,,M*3D
20220704 230254+00:00 $HCHDT,108.5,T*25
20220704 230254+00:00 $GPRMC,230250,A,4817.7798,N,12345.7896,W,6.2,102,040722,11.8,E,A,V*5D
20220704 230254+00:00 $WIMWV,0.19,R,4.08,N,A*27
20220704 230256+00:00 $IIMDA,29.9,I,1.014,B,11.4,C,,C,92,,,C,,T,,M,,N,,M*3D
20220704 230256+00:00 $HCHDT,108.3,T*23
20220704 230256+00:00 $GPRMC,230252,A,4817.7798,N,12345.7896,W,6.2,102,040722,11.8,E,A,V*5F
20220704 230256+00:00 $WIMWV,330.99,R,4.78,N,A*28
20220704 230258+00:00 $IIMDA,29.9,I,1.014,B,11.4,C,,C,92,,,C,,T,,M,,N,,M*3D
20220704 230258+00:00 $HCHDT,108.5,T*25
20220704 230258+00:00 $GPRMC,230254,A,4817.7798,N,12345.7800,W,6.2,102,040722,11.8,E,A,V*56
20220704 230258+00:00 $WIMWV,349.99,R,3.79,N,A*20
20220704 230300+00:00 $IIMDA,29.9,I,1.014,B,11.4,C,,C,92,,,C,,T,,M,,N,,M*3D
20220704 230300+00:00 $HCHDT,108.5,T*25
20220704 230300+00:00 $GPRMC,230256,A,4817.7798,N,12345.7800,W,6.2,102,040722,11.8,E,A,V*54
20220704 230300+00:00 $WIMWV,341.59,R,3.69,N,A*25
20220704 230302+00:00 $IIMDA,29.9,I,1.014,B,11.4,C,,C,92,,,C,,T,,M,,N,,M*3D
20220704 230302+00:00 $HCHDT,108.7,T*27
20220704 230302+00:00 $GPRMC,230258,A,4817.7696,N,12345.7698,W,6.2,102,040722,11.8,E,A,V*5A
20220704 230302+00:00 $WIMWV,310.19,R,4.39,N,A*27
20220704 230304+00:00 $IIMDA,29.9,I,1.014,B,11.4,C,,C,92.1,,,C,,T,,M,,N,,M*22
20220704 230304+00:00 $HCHDT,108.7,T*27
20220704 230304+00:00 $GPRMC,230300,A,4817.7696,N,12345.7698,W,6.2,102,040722,11.8,E,A,V*56
20220704 230304+00:00 $WIMWV,304.99,R,2.8,N,A*1E
20220704 230306+00:00 $IIMDA,29.9,I,1.014,B,11.4,C,,C,92.1,,,C,,T,,M,,N,,M*22
20220704 230306+00:00 $HCHDT,108.7,T*27
20220704 230306+00:00 $GPRMC,230302,A,4817.7696,N,12345.7596,W,6.2,102,040722,11.8,E,A,V*59
20220704 230306+00:00 $WIMWV,318.49,R,5.19,N,A*29
20220704 230308+00:00 $IIMDA,29.9,I,1.014,B,11.4,C,,C,92.1,,,C,,T,,M,,N,,M*22
20220704 230308+00:00 $HCHDT,108.6,T*26
20220704 230308+00:00 $GPRMC,230304,A,4817.7696,N,12345.7596,W,6.2,102,040722,11.8,E,A,V*5F
20220704 230308+00:00 $WIMWV,353.49,R,3.5,N,A*1D
20220704 230310+00:00 $IIMDA,29.9,I,1.014,B,11.4,C,,C,92.1,,,C,,T,,M,,N,,M*22
20220704 230310+00:00 $HCHDT,108.7,T*27
20220704 230310+00:00 $GPRMC,230306,A,4817.7696,N,12345.7500,W,6.2,102,040722,11.8,E,A,V*52
20220704 230310+00:00 $WIMWV,340.99,R,2.68,N,A*28
20220704 230312+00:00 $IIMDA,29.9,I,1.014,B,11.4,C,,C,92.2,,,C,,T,,M,,N,,M*21
20220704 230312+00:00 $HCHDT,109,T*3F
20220704 230312+00:00 $GPRMC,230308,A,4817.7696,N,12345.7500,W,6.2,103,040722,11.8,E,A,V*5D
20220704 230312+00:00 $WIMWV,351.49,R,2.59,N,A*27
20220704 230314+00:00 $IIMDA,29.9,I,1.014,B,11.4,C,,C,92.1,,,C,,T,,M,,N,,M*22
20220704 230314+00:00 $HCHDT,109,T*3F
20220704 230314+00:00 $GPRMC,230310,A,4817.7696,N,12345.7398,W,6.2,103,040722,11.8,E,A,V*53
20220704 230314+00:00 $WIMWV,302.89,R,4.59,N,A*2B
20220704 230316+00:00 $IIMDA,29.9,I,1.014,B,11.4,C,,C,92.1,,,C,,T,,M,,N,,M*22
20220704 230316+00:00 $HCHDT,108.7,T*27
20220704 230316+00:00 $GPRMC,230312,A,4817.7696,N,12345.7398,W,6.2,103,040722,11.8,E,A,V*51
20220704 230316+00:00 $WIMWV,339.19,R,2.68,N,A*2E
20220704 230318+00:00 $IIMDA,29.9,I,1.014,B,11.4,C,,C,92.2,,,C,,T,,M,,N,,M*21
20220704 230318+00:00 $HCHDT,109,T*3F
20220704 230318+00:00 $GPRMC,230314,A,4817.7696,N,12345.7296,W,6.2,103,040722,11.8,E,A,V*58
20220704 230318+00:00 $WIMWV,334.39,R,3.09,N,A*27
20220704 230320+00:00 $IIMDA,29.9,I,1.014,B,11.4,C,,C,92.2,,,C,,T,,M,,N,,M*21
20220704 230320+00:00 $HCHDT,109.2,T*23
20220704 230320+00:00 $GPRMC,230316,A,4817.7696,N,12345.7296,W,6.2,103,040722,11.8,E,A,V*5A
20220704 230320+00:00 $WIMWV,295.09,R,6.59,N,A*2E
20220704 230322+00:00 $IIMDA,29.9,I,1.014,B,11.4,C,,C,92.2,,,C,,T,,M,,N,,M*21
20220704 230322+00:00 $HCHDT,109,T*3F
20220704 230322+00:00 $GPRMC,230318,A,4817.7696,N,12345.7200,W,6.2,103,040722,11.8,E,A,V*5B
20220704 230322+00:00 $WIMWV,321.39,R,3.6,N,A*1C
20220704 230324+00:00 $IIMDA,29.9,I,1.014,B,11.4,C,,C,92.3,,,C,,T,,M,,N,,M*20
20220704 230324+00:00 $HCHDT,108.9,T*29
20220704 230324+00:00 $GPRMC,230320,A,4817.7696,N,12345.7200,W,6.2,103,040722,11.8,E,A,V*50
20220704 230324+00:00 $WIMWV,17.5,R,2.68,N,A*2C
20220704 230326+00:00 $IIMDA,29.9,I,1.014,B,11.4,C,,C,92.3,,,C,,T,,M,,N,,M*20
20220704 230326+00:00 $HCHDT,109.4,T*25
20220704 230326+00:00 $GPRMC,230322,A,4817.7600,N,12345.7098,W,6.2,103,040722,11.8,E,A,V*5E
20220704 230326+00:00 $WIMWV,25.2,R,2.29,N,A*2F
20220704 230328+00:00 $IIMDA,29.9,I,1.014,B,11.4,C,,C,92.3,,,C,,T,,M,,N,,M*20
20220704 230328+00:00 $HCHDT,109.2,T*23
20220704 230328+00:00 $GPRMC,230324,A,4817.7600,N,12345.7098,W,6.2,103,040722,11.8,E,A,V*58
20220704 230328+00:00 $WIMWV,24.6,R,2.8,N,A*19
20220704 230330+00:00 $IIMDA,29.9,I,1.014,B,11.4,C,,C,92.3,,,C,,T,,M,,N,,M*20
20220704 230330+00:00 $HCHDT,109,T*3F
20220704 230330+00:00 $GPRMC,230326,A,4817.7600,N,12345.6996,W,6.2,103,040722,11.8,E,A,V*5C
20220704 230330+00:00 $WIMWV,336.59,R,2.68,N,A*25
20220704 230332+00:00 $IIMDA,29.9,I,1.014,B,11.4,C,,C,92.2,,,C,,T,,M,,N,,M*21
20220704 230332+00:00 $HCHDT,108.9,T*29
20220704 230332+00:00 $GPRMC,230328,A,4817.7600,N,12345.6996,W,6.2,103,040722,11.8,E,A,V*52
20220704 230332+00:00 $WIMWV,9,R,2.9,N,A*3F
20220704 230334+00:00 $IIMDA,29.9,I,1.014,B,11.4,C,,C,92.3,,,C,,T,,M,,N,,M*20
20220704 230334+00:00 $HCHDT,109.1,T*20
20220704 230334+00:00 $GPRMC,230330,A,4817.7600,N,12345.6900,W,6.2,103,040722,11.8,E,A,V*54
20220704 230334+00:00 $WIMWV,312.29,R,4.08,N,A*24
20220704 230336+00:00 $IIMDA,29.9,I,1.014,B,11.4,C,,C,92.3,,,C,,T,,M,,N,,M*20
20220704 230336+00:00 $HCHDT,109,T*3F
20220704 230336+00:00 $GPRMC,230332,A,4817.7600,N,12345.6900,W,6.2,103,040722,11.8,E,A,V*56
20220704 230336+00:00 $WIMWV,348.79,R,2.39,N,A*2A
20220704 230338+00:00 $IIMDA,29.9,I,1.014,B,11.4,C,,C,92.3,,,C,,T,,M,,N,,M*20
20220704 230338+00:00 $HCHDT,108.7,T*27
20220704 230338+00:00 $GPRMC,230334,A,4817.7600,N,12345.6798,W,6.2,103,040722,11.8,E,A,V*5F
20220704 230338+00:00 $WIMWV,330.69,R,3.09,N,A*26
20220704 230340+00:00 $IIMDA,29.9,I,1.014,B,11.4,C,,C,92.3,,,C,,T,,M,,N,,M*20
20220704 230340+00:00 $HCHDT,108.5,T*25
20220704 230340+00:00 $GPRMC,230336,A,4817.7600,N,12345.6798,W,6.2,103,040722,11.8,E,A,V*5D
20220704 230340+00:00 $WIMWV,6.3,R,1.79,N,A*19
20220704 230342+00:00 $IIMDA,29.9,I,1.014,B,11.4,C,,C,92.3,,,C,,T,,M,,N,,M*20
20220704 230342+00:00 $HCHDT,108.3,T*23
20220704 230342+00:00 $GPRMC,230338,A,4817.7600,N,12345.6696,W,6.2,103,040722,11.8,E,A,V*5C
20220704 230342+00:00 $WIMWV,320.99,R,3.38,N,A*2A
20220704 230344+00:00 $IIMDA,29.9,I,1.014,B,11.4,C,,C,92.3,,,C,,T,,M,,N,,M*20
20220704 230344+00:00 $HCHDT,108.6,T*26
20220704 230344+00:00 $GPRMC,230340,A,4817.7600,N,12345.6696,W,6.2,103,040722,11.8,E,A,V*53
20220704 230344+00:00 $WIMWV,348.09,R,2.49,N,A*2A
20220704 230346+00:00 $IIMDA,29.9,I,1.014,B,11.4,C,,C,92.3,,,C,,T,,M,,N,,M*20
20220704 230346+00:00 $HCHDT,108.6,T*26
20220704 230346+00:00 $GPRMC,230342,A,4817.7600,N,12345.6600,W,6.2,103,040722,11.8,E,A,V*5E
20220704 230346+00:00 $WIMWV,342.09,R,2.49,N,A*20
20220704 230348+00:00 $IIMDA,29.9,I,1.014,B,11.4,C,,C,92.3,,,C,,T,,M,,N,,M*20
20220704 230348+00:00 $HCHDT,108.4,T*24
20220704 230348+00:00 $GPRMC,230344,A,4817.7600,N,12345.6600,W,6.2,103,040722,11.8,E,A,V*58
20220704 230348+00:00 $WIMWV,323.29,R,3.69,N,A*26
20220704 230350+00:00 $IIMDA,29.9,I,1.014,B,11.4,C,,C,92.2,,,C,,T,,M,,N,,M*21
20220704 230350+00:00 $HCHDT,108.4,T*24
20220704 230350+00:00 $GPRMC,230346,A,4817.7600,N,12345.6498,W,6.2,103,040722,11.8,E,A,V*59
20220704 230350+00:00 $WIMWV,22,R,1.59,N,A*30
20220704 230352+00:00 $IIMDA,29.9,I,1.014,B,11.4,C,,C,92.3,,,C,,T,,M,,N,,M*20
20220704 230352+00:00 $HCHDT,108.8,T*28
20220704 230352+00:00 $GPRMC,230348,A,4817.7498,N,12345.6498,W,6.2,103,040722,11.8,E,A,V*54
20220704 230352+00:00 $WIMWV,315.49,R,3.5,N,A*1F
20220704 230354+00:00 $IIMDA,29.9,I,1.014,B,11.4,C,,C,92.3,,,C,,T,,M,,N,,M*20
20220704 230354+00:00 $HCHDT,108.8,T*28
20220704 230354+00:00 $GPRMC,230350,A,4817.7498,N,12345.6396,W,6.2,103,040722,11.8,E,A,V*54
20220704 230354+00:00 $WIMWV,0.19,R,2.1,N,A*18
20220704 230356+00:00 $IIMDA,29.9,I,1.014,B,11.4,C,,C,92.3,,,C,,T,,M,,N,,M*20
20220704 230356+00:00 $HCHDT,108.9,T*29
20220704 230356+00:00 $GPRMC,230352,A,4817.7498,N,12345.6396,W,6.1,103,040722,11.8,E,A,V*55
20220704 230356+00:00 $WIMWV,298.39,R,5.6,N,A*19
20220704 230358+00:00 $IIMDA,29.9,I,1.014,B,11.4,C,,C,92.3,,,C,,T,,M,,N,,M*20
20220704 230358+00:00 $HCHDT,108.9,T*29
20220704 230358+00:00 $GPRMC,230354,A,4817.7498,N,12345.6300,W,6.1,103,040722,11.8,E,A,V*5C
20220704 230358+00:00 $WIMWV,313.19,R,3.6,N,A*1F
20220704 230400+00:00 $IIMDA,29.9,I,1.014,B,11.4,C,,C,92.3,,,C,,T,,M,,N,,M*20
20220704 230400+00:00 $HCHDT,109,T*3F
20220704 230400+00:00 $GPRMC,230356,A,4817.7498,N,12345.6300,W,6.1,103,040722,11.8,E,A,V*5E
20220704 230400+00:00 $WIMWV,26.3,R,2.49,N,A*2B
20220704 230402+00:00 $IIMDA,29.9,I,1.014,B,11.4,C,,C,92.3,,,C,,T,,M,,N,,M*20
20220704 230402+00:00 $HCHDT,109.6,T*27
20220704 230402+00:00 $GPRMC,230358,A,4817.7498,N,12345.6198,W,6.1,103,040722,11.8,E,A,V*53
20220704 230402+00:00 $WIMWV,28.5,R,3.09,N,A*26
20220704 230404+00:00 $IIMDA,29.9,I,1.014,B,11.4,C,,C,92.3,,,C,,T,,M,,N,,M*20
20220704 230404+00:00 $HCHDT,109.7,T*26
20220704 230404+00:00 $GPRMC,230400,A,4817.7498,N,12345.6198,W,6.1,103,040722,11.8,E,A,V*59
20220704 230404+00:00 $WIMWV,23.7,R,2.68,N,A*29
20220704 230406+00:00 $IIMDA,29.9,I,1.014,B,11.4,C,,C,92.3,,,C,,T,,M,,N,,M*20
20220704 230406+00:00 $HCHDT,109.5,T*24
20220704 230406+00:00 $GPRMC,230402,A,4817.7498,N,12345.6096,W,6.1,103,040722,11.8,E,A,V*54
20220704 230406+00:00 $WIMWV,25.2,R,2.1,N,A*15
20220704 230408+00:00 $IIMDA,29.9,I,1.014,B,11.4,C,,C,92.3,,,C,,T,,M,,N,,M*20
20220704 230408+00:00 $HCHDT,110.1,T*28
20220704 230408+00:00 $GPRMC,230404,A,4817.7498,N,12345.6096,W,6.2,103,040722,11.8,E,A,V*51
20220704 230408+00:00 $WIMWV,29.2,R,2.68,N,A*26
20220704 230410+00:00 $IIMDA,29.9,I,1.014,B,11.4,C,,C,92.3,,,C,,T,,M,,N,,M*20
20220704 230410+00:00 $HCHDT,110.5,T*2C
20220704 230410+00:00 $GPRMC,230406,A,4817.7498,N,12345.6000,W,6.2,103,040722,11.8,E,A,V*5C
20220704 230410+00:00 $WIMWV,0.19,R,1.89,N,A*2B
20220704 230412+00:00 $IIMDA,29.9,I,1.014,B,11.4,C,,C,92.3,,,C,,T,,M,,N,,M*20
20220704 230412+00:00 $HCHDT,110.3,T*2A
20220704 230412+00:00 $GPRMC,230408,A,4817.7498,N,12345.6000,W,6.2,103,040722,11.8,E,A,V*52
20220704 230412+00:00 $WIMWV,28.7,R,2.59,N,A*20
20220704 230414+00:00 $IIMDA,29.9,I,1.014,B,11.5,C,,C,92.3,,,C,,T,,M,,N,,M*21
20220704 230414+00:00 $HCHDT,110.3,T*2A
20220704 230414+00:00 $GPRMC,230410,A,4817.7498,N,12345.5898,W,6.3,104,040722,11.8,E,A,V*57
20220704 230414+00:00 $WIMWV,3.1,R,2.59,N,A*1F
20220704 230416+00:00 $IIMDA,29.9,I,1.014,B,11.5,C,,C,92.3,,,C,,T,,M,,N,,M*21
20220704 230416+00:00 $HCHDT,110.9,T*20
20220704 230416+00:00 $GPRMC,230412,A,4817.7498,N,12345.5898,W,6.4,104,040722,11.8,E,A,V*52
20220704 230416+00:00 $WIMWV,328.29,R,4.3,N,A*16
20220704 230418+00:00 $IIMDA,29.9,I,1.014,B,11.5,C,,C,92.3,,,C,,T,,M,,N,,M*21
20220704 230418+00:00 $HCHDT,111,T*36
20220704 230418+00:00 $GPRMC,230414,A,4817.7396,N,12345.5796,W,6.4,104,040722,11.8,E,A,V*5C
20220704 230418+00:00 $WIMWV,330.09,R,3.98,N,A*28
20220704 230420+00:00 $IIMDA,29.9,I,1.014,B,11.5,C,,C,92.3,,,C,,T,,M,,N,,M*21
20220704 230420+00:00 $HCHDT,111.1,T*29
20220704 230420+00:00 $GPRMC,230416,A,4817.7396,N,12345.5796,W,6.49,105,040722,11.8,E,A,V*66
20220704 230420+00:00 $WIMWV,28.6,R,3.38,N,A*27
20220704 230422+00:00 $IIMDA,29.9,I,1.014,B,11.5,C,,C,92.3,,,C,,T,,M,,N,,M*21
20220704 230422+00:00 $HCHDT,111.2,T*2A
20220704 230422+00:00 $GPRMC,230418,A,4817.7396,N,12345.5700,W,6.61,105,040722,11.8,E,A,V*6D
20220704 230422+00:00 $WIMWV,26.3,R,2.8,N,A*1E
20220704 230424+00:00 $IIMDA,29.9,I,1.014,B,11.5,C,,C,92.3,,,C,,T,,M,,N,,M*21
20220704 230424+00:00 $HCHDT,111.2,T*2A
20220704 230424+00:00 $GPRMC,230420,A,4817.7396,N,12345.5598,W,6.61,105,040722,11.8,E,A,V*65
20220704 230424+00:00 $WIMWV,17.5,R,2.49,N,A*2F
20220704 230426+00:00 $IIMDA,29.9,I,1.014,B,11.5,C,,C,92.4,,,C,,T,,M,,N,,M*26
20220704 230426+00:00 $HCHDT,111.2,T*2A
20220704 230426+00:00 $GPRMC,230422,A,4817.7396,N,12345.5598,W,6.71,105,040722,11.8,E,A,V*66
20220704 230426+00:00 $WIMWV,336.49,R,2.99,N,A*2A
20220704 230428+00:00 $IIMDA,29.9,I,1.014,B,11.5,C,,C,92.3,,,C,,T,,M,,N,,M*21
20220704 230428+00:00 $HCHDT,111.1,T*29
20220704 230428+00:00 $GPRMC,230424,A,4817.7396,N,12345.5496,W,6.71,105,040722,11.8,E,A,V*6F
20220704 230428+00:00 $WIMWV,353.09,R,2.9,N,A*14
20220704 230430+00:00 $IIMDA,29.9,I,1.014,B,11.5,C,,C,92.3,,,C,,T,,M,,N,,M*21
20220704 230430+00:00 $HCHDT,110.9,T*20
20220704 230430+00:00 $GPRMC,230426,A,4817.7396,N,12345.5496,W,6.71,105,040722,11.8,E,A,V*6D
20220704 230430+00:00 $WIMWV,344.59,R,2.59,N,A*22
20220704 230432+00:00 $IIMDA,29.9,I,1.014,B,11.5,C,,C,92.3,,,C,,T,,M,,N,,M*21
20220704 230432+00:00 $HCHDT,110.8,T*21
20220704 230432+00:00 $GPRMC,230428,A,4817.7396,N,12345.5400,W,6.8,105,040722,11.8,E,A,V*52
20220704 230432+00:00 $WIMWV,332.59,R,3.98,N,A*2F
20220704 230434+00:00 $IIMDA,29.9,I,1.014,B,11.5,C,,C,92.4,,,C,,T,,M,,N,,M*26
20220704 230434+00:00 $HCHDT,110.8,T*21
20220704 230434+00:00 $GPRMC,230430,A,4817.7396,N,12345.5400,W,6.8,105,040722,11.8,E,A,V*5B
20220704 230434+00:00 $WIMWV,344.59,R,3.29,N,A*24
20220704 230436+00:00 $IIMDA,29.9,I,1.014,B,11.5,C,,C,92.4,,,C,,T,,M,,N,,M*26
20220704 230436+00:00 $HCHDT,110.6,T*2F
20220704 230436+00:00 $GPRMC,230432,A,4817.7396,N,12345.5298,W,6.8,105,040722,11.8,E,A,V*5E
20220704 230436+00:00 $WIMWV,340.39,R,3.29,N,A*26
20220704 230438+00:00 $IIMDA,29.9,I,1.014,B,11.5,C,,C,92.4,,,C,,T,,M,,N,,M*26
20220704 230438+00:00 $HCHDT,110.6,T*2F
20220704 230438+00:00 $GPRMC,230434,A,4817.7300,N,12345.5298,W,6.8,105,040722,11.8,E,A,V*57
20220704 230438+00:00 $WIMWV,3.8,R,2.8,N,A*22
20220704 230440+00:00 $IIMDA,29.9,I,1.014,B,11.5,C,,C,92.4,,,C,,T,,M,,N,,M*26
20220704 230440+00:00 $HCHDT,110.7,T*2E
20220704 230440+00:00 $GPRMC,230436,A,4817.7300,N,12345.5196,W,6.8,105,040722,11.8,E,A,V*58
20220704 230440+00:00 $WIMWV,22.49,R,2.9,N,A*25
20220704 230442+00:00 $IIMDA,29.9,I,1.014,B,11.5,C,,C,92.4,,,C,,T,,M,,N,,M*26
20220704 230442+00:00 $HCHDT,110.4,T*2D
20220704 230442+00:00 $GPRMC,230438,A,4817.7300,N,12345.5196,W,6.8,105,040722,11.8,E,A,V*56
20220704 230442+00:00 $WIMWV,0.19,R,2.9,N,A*10
20220704 230444+00:00 $IIMDA,29.9,I,1.014,B,11.5,C,,C,92.4,,,C,,T,,M,,N,,M*26
20220704 230444+00:00 $HCHDT,110.6,T*2F
20220704 230444+00:00 $GPRMC,230440,A,4817.7300,N,12345.5100,W,6.8,105,040722,11.8,E,A,V*56
20220704 230444+00:00 $WIMWV,16.6,R,2.59,N,A*2C
20220704 230446+00:00 $IIMDA,29.9,I,1.014,B,11.5,C,,C,92.3,,,C,,T,,M,,N,,M*21
20220704 230446+00:00 $HCHDT,110.7,T*2E
20220704 230446+00:00 $GPRMC,230442,A,4817.7300,N,12345.4998,W,6.8,105,040722,11.8,E,A,V*5C
20220704 230446+00:00 $WIMWV,14.9,R,2.59,N,A*21
20220704 230448+00:00 $IIMDA,29.9,I,1.014,B,11.5,C,,C,92.4,,,C,,T,,M,,N,,M*26
20220704 230448+00:00 $HCHDT,111.1,T*29
20220704 230448+00:00 $GPRMC,230444,A,4817.7300,N,12345.4998,W,6.8,105,040722,11.8,E,A,V*5A
20220704 230448+00:00 $WIMWV,22.3,R,2.8,N,A*1A
20220704 230450+00:00 $IIMDA,29.9,I,1.014,B,11.5,C,,C,92.3,,,C,,T,,M,,N,,M*21
20220704 230450+00:00 $HCHDT,111.1,T*29
20220704 230450+00:00 $GPRMC,230446,A,4817.7300,N,12345.4896,W,6.8,105,040722,11.8,E,A,V*57
20220704 230450+00:00 $WIMWV,7.9,R,2.39,N,A*15
20220704 230452+00:00 $IIMDA,29.9,I,1.014,B,11.5,C,,C,92.3,,,C,,T,,M,,N,,M*21
20220704 230452+00:00 $HCHDT,111.3,T*2B
20220704 230452+00:00 $GPRMC,230448,A,4817.7300,N,12345.4896,W,6.8,105,040722,11.8,E,A,V*59
20220704 230452+00:00 $WIMWV,18.9,R,2.39,N,A*2B
20220704 230454+00:00 $IIMDA,29.9,I,1.014,B,11.5,C,,C,92.3,,,C,,T,,M,,N,,M*21
20220704 230454+00:00 $HCHDT,111.5,T*2D
20220704 230454+00:00 $GPRMC,230450,A,4817.7300,N,12345.4800,W,6.8,105,040722,11.8,E,A,V*5F
20220704 230454+00:00 $WIMWV,4.7,R,2.29,N,A*19
20220704 230456+00:00 $IIMDA,29.9,I,1.014,B,11.5,C,,C,92.3,,,C,,T,,M,,N,,M*21
20220704 230456+00:00 $HCHDT,111.9,T*21
20220704 230456+00:00 $GPRMC,230452,A,4817.7300,N,12345.4800,W,6.8,106,040722,11.8,E,A,V*5E
20220704 230456+00:00 $WIMWV,14.09,R,2.39,N,A*17
20220704 230458+00:00 $IIMDA,29.9,I,1.014,B,11.5,C,,C,92.3,,,C,,T,,M,,N,,M*21
20220704 230458+00:00 $HCHDT,112.1,T*2A
20220704 230458+00:00 $GPRMC,230454,A,4817.7198,N,12345.4698,W,6.71,106,040722,11.8,E,A,V*6A
20220704 230458+00:00 $WIMWV,18.9,R,2.29,N,A*2A
20220704 230500+00:00 $IIMDA,29.9,I,1.014,B,11.5,C,,C,92.3,,,C,,T,,M,,N,,M*21
20220704 230500+00:00 $HCHDT,112.1,T*2A
20220704 230500+00:00 $GPRMC,230456,A,4817.7198,N,12345.4698,W,6.71,106,040722,11.8,E,A,V*68
20220704 230500+00:00 $WIMWV,0.19,R,2.1,N,A*18
20220704 230502+00:00 $IIMDA,29.9,I,1.014,B,11.5,C,,C,92.3,,,C,,T,,M,,N,,M*21
20220704 230502+00:00 $HCHDT,112.1,T*2A
20220704 230502+00:00 $GPRMC,230458,A,4817.7198,N,12345.4596,W,6.71,106,040722,11.8,E,A,V*6B
20220704 230502+00:00 $WIMWV,18.29,R,1.98,N,A*11
20220704 230504+00:00 $IIMDA,29.9,I,1.014,B,11.5,C,,C,92.3,,,C,,T,,M,,N,,M*21
20220704 230504+00:00 $HCHDT,112.5,T*2E
20220704 230504+00:00 $GPRMC,230500,A,4817.7198,N,12345.4596,W,6.71,106,040722,11.8,E,A,V*67
20220704 230504+00:00 $WIMWV,24,R,2.49,N,A*34
20220704 230506+00:00 $IIMDA,29.9,I,1.014,B,11.5,C,,C,92.3,,,C,,T,,M,,N,,M*21
20220704 230506+00:00 $HCHDT,112.5,T*2E
20220704 230506+00:00 $GPRMC,230502,A,4817.7198,N,12345.4500,W,6.61,106,040722,11.8,E,A,V*6B
20220704 230506+00:00 $WIMWV,30.6,R,3.29,N,A*2E
20220704 230508+00:00 $IIMDA,29.9,I,1.014,B,11.5,C,,C,92.3,,,C,,T,,M,,N,,M*21
20220704 230508+00:00 $HCHDT,112.2,T*29
20220704 230508+00:00 $GPRMC,230504,A,4817.7198,N,12345.4500,W,6.61,106,040722,11.8,E,A,V*6D
20220704 230508+00:00 $WIMWV,24.8,R,2.99,N,A*2F
20220704 230510+00:00 $IIMDA,29.9,I,1.014,B,11.5,C,,C,92.3,,,C,,T,,M,,N,,M*21
20220704 230510+00:00 $HCHDT,112.2,T*29
20220704 230510+00:00 $GPRMC,230506,A,4817.7198,N,12345.4398,W,6.61,106,040722,11.8,E,A,V*68
20220704 230510+00:00 $WIMWV,22.69,R,2.29,N,A*15
20220704 230512+00:00 $IIMDA,29.9,I,1.014,B,11.5,C,,C,92.2,,,C,,T,,M,,N,,M*20
20220704 230512+00:00 $HCHDT,112.7,T*2C
20220704 230512+00:00 $GPRMC,230508,A,4817.7198,N,12345.4398,W,6.61,106,040722,11.8,E,A,V*66
20220704 230512+00:00 $WIMWV,18.8,R,2.49,N,A*2D
20220704 230514+00:00 $IIMDA,29.9,I,1.014,B,11.5,C,,C,92.3,,,C,,T,,M,,N,,M*21
20220704 230514+00:00 $HCHDT,112.6,T*2D
20220704 230514+00:00 $GPRMC,230510,A,4817.7198,N,12345.4296,W,6.61,106,040722,11.8,E,A,V*60
20220704 230514+00:00 $WIMWV,358.09,R,2.59,N,A*2A
20220704 230516+00:00 $IIMDA,29.9,I,1.014,B,11.5,C,,C,92.3,,,C,,T,,M,,N,,M*21
20220704 230516+00:00 $HCHDT,112.1,T*2A
20220704 230516+00:00 $GPRMC,230512,A,4817.7198,N,12345.4200,W,6.49,106,040722,11.8,E,A,V*67
20220704 230516+00:00 $WIMWV,351.79,R,2.59,N,A*24
20220704 230518+00:00 $IIMDA,29.9,I,1.014,B,11.5,C,,C,92.2,,,C,,T,,M,,N,,M*20
20220704 230518+00:00 $HCHDT,112.1,T*2A
20220704 230518+00:00 $GPRMC,230514,A,4817.7096,N,12345.4200,W,6.49,106,040722,11.8,E,A,V*6E
20220704 230518+00:00 $WIMWV,355.29,R,2.29,N,A*22
20220704 230520+00:00 $IIMDA,29.9,I,1.014,B,11.5,C,,C,92.3,,,C,,T,,M,,N,,M*21
20220704 230520+00:00 $HCHDT,112.2,T*29
20220704 230520+00:00 $GPRMC,230516,A,4817.7096,N,12345.4098,W,6.49,106,040722,11.8,E,A,V*6F
20220704 230520+00:00 $WIMWV,3.7,R,2.2,N,A*27
20220704 230522+00:00 $IIMDA,29.9,I,1.014,B,11.5,C,,C,92.3,,,C,,T,,M,,N,,M*21
20220704 230522+00:00 $HCHDT,111.8,T*20
20220704 230522+00:00 $GPRMC,230518,A,4817.7096,N,12345.4098,W,6.49,106,040722,11.8,E,A,V*61
20220704 230522+00:00 $WIMWV,338.09,R,4.3,N,A*15
20220704 230524+00:00 $IIMDA,29.9,I,1.014,B,11.5,C,,C,92.2,,,C,,T,,M,,N,,M*20
20220704 230524+00:00 $HCHDT,111.8,T*20
20220704 230524+00:00 $GPRMC,230520,A,4817.7096,N,12345.3996,W,6.49,106,040722,11.8,E,A,V*6A
20220704 230524+00:00 $WIMWV,344.89,R,3.69,N,A*2D
20220704 230526+00:00 $IIMDA,29.9,I,1.014,B,11.5,C,,C,92.2,,,C,,T,,M,,N,,M*20
20220704 230526+00:00 $HCHDT,111.7,T*2F
20220704 230526+00:00 $GPRMC,230522,A,4817.7096,N,12345.3996,W,6.49,106,040722,11.8,E,A,V*68
20220704 230526+00:00 $WIMWV,347.59,R,4.49,N,A*26
20220704 230528+00:00 $IIMDA,29.9,I,1.014,B,11.5,C,,C,92.3,,,C,,T,,M,,N,,M*21
20220704 230528+00:00 $HCHDT,111.4,T*2C
20220704 230528+00:00 $GPRMC,230524,A,4817.7096,N,12345.3900,W,6.49,106,040722,11.8,E,A,V*61
20220704 230528+00:00 $WIMWV,343.39,R,3.29,N,A*25
20220704 230530+00:00 $IIMDA,29.9,I,1.014,B,11.5,C,,C,92.2,,,C,,T,,M,,N,,M*20
20220704 230530+00:00 $HCHDT,111.5,T*2D
20220704 230530+00:00 $GPRMC,230526,A,4817.7096,N,12345.3900,W,6.49,106,040722,11.8,E,A,V*63
20220704 230530+00:00 $WIMWV,335.79,R,3.38,N,A*20
20220704 230532+00:00 $IIMDA,29.9,I,1.014,B,11.5,C,,C,92.3,,,C,,T,,M,,N,,M*21
20220704 230532+00:00 $HCHDT,111.5,T*2D
20220704 230532+00:00 $GPRMC,230528,A,4817.7096,N,12345.3798,W,6.49,106,040722,11.8,E,A,V*62
20220704 230532+00:00 $WIMWV,355.19,R,2.49,N,A*27
20220704 230534+00:00 $IIMDA,29.9,I,1.014,B,11.5,C,,C,92.2,,,C,,T,,M,,N,,M*20
20220704 230534+00:00 $HCHDT,111.4,T*2C
20220704 230534+00:00 $GPRMC,230530,A,4817.7096,N,12345.3798,W,6.49,106,040722,11.8,E,A,V*6B
20220704 230534+00:00 $WIMWV,336.99,R,3.6,N,A*10
20220704 230536+00:00 $IIMDA,29.9,I,1.014,B,11.5,C,,C,92.2,,,C,,T,,M,,N,,M*20
20220704 230536+00:00 $HCHDT,111.5,T*2D
20220704 230536+00:00 $GPRMC,230532,A,4817.7096,N,12345.3696,W,6.49,106,040722,11.8,E,A,V*66
20220704 230536+00:00 $WIMWV,341.89,R,3.19,N,A*2F
20220704 230538+00:00 $IIMDA,29.9,I,1.014,B,11.5,C,,C,92.3,,,C,,T,,M,,N,,M*21
20220704 230538+00:00 $HCHDT,111.3,T*2B
20220704 230538+00:00 $GPRMC,230534,A,4817.7000,N,12345.3696,W,6.49,106,040722,11.8,E,A,V*6F
20220704 230538+00:00 $WIMWV,354.39,R,3.09,N,A*21
20220704 230540+00:00 $IIMDA,29.9,I,1.014,B,11.5,C,,C,92.3,,,C,,T,,M,,N,,M*21
20220704 230540+00:00 $HCHDT,111.3,T*2B
20220704 230540+00:00 $GPRMC,230536,A,4817.7000,N,12345.3600,W,6.49,106,040722,11.8,E,A,V*62
20220704 230540+00:00 $WIMWV,343.59,R,3.19,N,A*20
20220704 230542+00:00 $IIMDA,29.9,I,1.014,B,11.6,C,,C,92.3,,,C,,T,,M,,N,,M*22
20220704 230542+00:00 $HCHDT,111.5,T*2D
20220704 230542+00:00 $GPRMC,230538,A,4817.7000,N,12345.3600,W,6.49,106,040722,11.8,E,A,V*6C
20220704 230542+00:00 $WIMWV,337.29,R,3.5,N,A*19
20220704 230544+00:00 $IIMDA,29.9,I,1.014,B,11.6,C,,C,92.3,,,C,,T,,M,,N,,M*22
20220704 230544+00:00 $HCHDT,111.5,T*2D
20220704 230544+00:00 $GPRMC,230540,A,4817.7000,N,12345.3498,W,6.49,106,040722,11.8,E,A,V*60
20220704 230544+00:00 $WIMWV,343.19,R,3.5,N,A*19
20220704 230546+00:00 $IIMDA,29.9,I,1.014,B,11.6,C,,C,92.3,,,C,,T,,M,,N,,M*22
20220704 230546+00:00 $HCHDT,111.3,T*2B
20220704 230546+00:00 $GPRMC,230542,A,4817.7000,N,12345.3498,W,6.49,106,040722,11.8,E,A,V*62
20220704 230546+00:00 $WIMWV,336.99,R,4.2,N,A*13
20220704 230548+00:00 $IIMDA,29.9,I,1.014,B,11.6,C,,C,92.3,,,C,,T,,M,,N,,M*22
20220704 230548+00:00 $HCHDT,111.5,T*2D
20220704 230548+00:00 $GPRMC,230544,A,4817.7000,N,12345.3396,W,6.61,106,040722,11.8,E,A,V*67
20220704 230548+00:00 $WIMWV,339.89,R,3.89,N,A*29
20220704 230550+00:00 $IIMDA,29.9,I,1.014,B,11.6,C,,C,92.4,,,C,,T,,M,,N,,M*25
20220704 230550+00:00 $HCHDT,111.9,T*21
20220704 230550+00:00 $GPRMC,230546,A,4817.7000,N,12345.3396,W,6.61,106,040722,11.8,E,A,V*65
20220704 230550+00:00 $WIMWV,340.99,R,3.89,N,A*26
20220704 230552+00:00 $IIMDA,29.9,I,1.014,B,11.6,C,,C,92.4,,,C,,T,,M,,N,,M*25
20220704 230552+00:00 $HCHDT,112.2,T*29
20220704 230552+00:00 $GPRMC,230548,A,4817.7000,N,12345.3300,W,6.61,106,040722,11.8,E,A,V*64
20220704 230552+00:00 $WIMWV,348.39,R,4.08,N,A*2A
20220704 230554+00:00 $IIMDA,29.9,I,1.014,B,11.6,C,,C,92.4,,,C,,T,,M,,N,,M*25
20220704 230554+00:00 $HCHDT,111.9,T*21
20220704 230554+00:00 $GPRMC,230550,A,4817.7000,N,12345.3300,W,6.61,106,040722,11.8,E,A,V*6D
20220704 230554+00:00 $WIMWV,339.19,R,3.89,N,A*20
20220704 230556+00:00 $IIMDA,29.9,I,1.014,B,11.6,C,,C,92.4,,,C,,T,,M,,N,,M*25
20220704 230556+00:00 $HCHDT,111.9,T*21
20220704 230556+00:00 $GPRMC,230552,A,4817.7000,N,12345.3198,W,6.61,106,040722,11.8,E,A,V*6C
20220704 230556+00:00 $WIMWV,347.59,R,3.69,N,A*23
20220704 230558+00:00 $IIMDA,29.9,I,1.014,B,11.6,C,,C,92.4,,,C,,T,,M,,N,,M*25
20220704 230558+00:00 $HCHDT,112.4,T*2F
20220704 230558+00:00 $GPRMC,230554,A,4817.6898,N,12345.3096,W,6.71,106,040722,11.8,E,A,V*6C
20220704 230558+00:00 $WIMWV,337.99,R,3.98,N,A*26
20220704 230600+00:00 $IIMDA,29.9,I,1.014,B,11.6,C,,C,92.4,,,C,,T,,M,,N,,M*25
20220704 230600+00:00 $HCHDT,112.4,T*2F
20220704 230600+00:00 $GPRMC,230556,A,4817.6898,N,12345.3096,W,6.71,106,040722,11.8,E,A,V*6E
20220704 230600+00:00 $WIMWV,356.79,R,2.8,N,A*17
20220704 230602+00:00 $IIMDA,29.9,I,1.014,B,11.6,C,,C,92.4,,,C,,T,,M,,N,,M*25
20220704 230602+00:00 $HCHDT,112,T*35
20220704 230602+00:00 $GPRMC,230558,A,4817.6898,N,12345.3000,W,6.71,106,040722,11.8,E,A,V*6F
20220704 230602+00:00 $WIMWV,342.49,R,3.38,N,A*23
20220704 230604+00:00 $IIMDA,29.9,I,1.014,B,11.6,C,,C,92.4,,,C,,T,,M,,N,,M*25
20220704 230604+00:00 $HCHDT,112.3,T*28
20220704 230604+00:00 $GPRMC,230600,A,4817.6898,N,12345.3000,W,6.61,106,040722,11.8,E,A,V*60
20220704 230604+00:00 $WIMWV,346.59,R,3.6,N,A*1B
20220704 230606+00:00 $IIMDA,29.9,I,1.014,B,11.6,C,,C,92.4,,,C,,T,,M,,N,,M*25
20220704 230606+00:00 $HCHDT,112.1,T*2A
20220704 230606+00:00 $GPRMC,230602,A,4817.6898,N,12345.2898,W,6.61,106,040722,11.8,E,A,V*6A
20220704 230606+00:00 $WIMWV,6,R,3.19,N,A*00
20220704 230608+00:00 $IIMDA,29.9,I,1.014,B,11.6,C,,C,92.4,,,C,,T,,M,,N,,M*25
20220704 230608+00:00 $HCHDT,112.1,T*2A
20220704 230608+00:00 $GPRMC,230604,A,4817.6898,N,12345.2898,W,6.61,107,040722,11.8,E,A,V*6D
20220704 230608+00:00 $WIMWV,5.9,R,2.9,N,A*24
20220704 230610+00:00 $IIMDA,29.9,I,1.014,B,11.6,C,,C,92.4,,,C,,T,,M,,N,,M*25
20220704 230610+00:00 $HCHDT,112.1,T*2A
20220704 230610+00:00 $GPRMC,230606,A,4817.6898,N,12345.2796,W,6.61,107,040722,11.8,E,A,V*6E
20220704 230610+00:00 $WIMWV,346.29,R,2.29,N,A*20
20220704 230612+00:00 $IIMDA,29.9,I,1.014,B,11.6,C,,C,92.5,,,C,,T,,M,,N,,M*24
20220704 230612+00:00 $HCHDT,112.1,T*2A
20220704 230612+00:00 $GPRMC,230608,A,4817.6898,N,12345.2796,W,6.61,107,040722,11.8,E,A,V*60
20220704 230612+00:00 $WIMWV,338.39,R,2.49,N,A*2E
20220704 230614+00:00 $IIMDA,29.9,I,1.014,B,11.6,C,,C,92.5,,,C,,T,,M,,N,,M*24
20220704 230614+00:00 $HCHDT,112.2,T*29
20220704 230614+00:00 $GPRMC,230610,A,4817.6898,N,12345.2700,W,6.61,106,040722,11.8,E,A,V*67
20220704 230614+00:00 $WIMWV,345.29,R,2.9,N,A*11
20220704 230616+00:00 $IIMDA,29.9,I,1.014,B,11.6,C,,C,92.5,,,C,,T,,M,,N,,M*24
20220704 230616+00:00 $HCHDT,112.1,T*2A
20220704 230616+00:00 $GPRMC,230612,A,4817.6796,N,12345.2700,W,6.49,106,040722,11.8,E,A,V*6E
20220704 230616+00:00 $WIMWV,353.49,R,2.99,N,A*29
20220704 230618+00:00 $IIMDA,29.9,I,1.014,B,11.6,C,,C,92.5,,,C,,T,,M,,N,,M*24
20220704 230618+00:00 $HCHDT,112.1,T*2A
20220704 230618+00:00 $GPRMC,230614,A,4817.6796,N,12345.2598,W,6.49,106,040722,11.8,E,A,V*6B
20220704 230618+00:00 $WIMWV,0.19,R,3.09,N,A*21
20220704 230620+00:00 $IIMDA,29.9,I,1.014,B,11.6,C,,C,92.5,,,C,,T,,M,,N,,M*24
20220704 230620+00:00 $HCHDT,112.2,T*29
20220704 230620+00:00 $GPRMC,230616,A,4817.6796,N,12345.2598,W,6.49,106,040722,11.8,E,A,V*69
20220704 230620+00:00 $WIMWV,27.99,R,3.5,N,A*20
20220704 230622+00:00 $IIMDA,29.9,I,1.014,B,11.6,C,,C,92.5,,,C,,T,,M,,N,,M*24
20220704 230622+00:00 $HCHDT,111.9,T*21
20220704 230622+00:00 $GPRMC,230618,A,4817.6796,N,12345.2496,W,6.49,106,040722,11.8,E,A,V*68
20220704 230622+00:00 $WIMWV,8.79,R,3.38,N,A*2D
20220704 230624+00:00 $IIMDA,29.9,I,1.014,B,11.6,C,,C,92.5,,,C,,T,,M,,N,,M*24
20220704 230624+00:00 $HCHDT,111.8,T*20
20220704 230624+00:00 $GPRMC,230620,A,4817.6796,N,12345.2496,W,6.49,106,040722,11.8,E,A,V*63
20220704 230624+00:00 $WIMWV,353.29,R,3.6,N,A*18
20220704 230626+00:00 $IIMDA,29.9,I,1.014,B,11.6,C,,C,92.5,,,C,,T,,M,,N,,M*24
20220704 230626+00:00 $HCHDT,112.2,T*29
20220704 230626+00:00 $GPRMC,230622,A,4817.6796,N,12345.2400,W,6.49,106,040722,11.8,E,A,V*6E
20220704 230626+00:00 $WIMWV,350.09,R,3.38,N,A*24
20220704 230628+00:00 $IIMDA,29.9,I,1.014,B,11.6,C,,C,92.6,,,C,,T,,M,,N,,M*27
20220704 230628+00:00 $HCHDT,112,T*35
20220704 230628+00:00 $GPRMC,230624,A,4817.6796,N,12345.2400,W,6.49,106,040722,11.8,E,A,V*68
20220704 230628+00:00 $WIMWV,346.79,R,3.38,N,A*24
20220704 230630+00:00 $IIMDA,29.9,I,1.014,B,11.6,C,,C,92.5,,,C,,T,,M,,N,,M*24
20220704 230630+00:00 $HCHDT,111.5,T*2D
20220704 230630+00:00 $GPRMC,230626,A,4817.6796,N,12345.2298,W,6.49,106,040722,11.8,E,A,V*6D
20220704 230630+00:00 $WIMWV,339.49,R,3.19,N,A*2C
20220704 230632+00:00 $IIMDA,29.9,I,1.014,B,11.6,C,,C,92.5,,,C,,T,,M,,N,,M*24
20220704 230632+00:00 $HCHDT,111.9,T*21
20220704 230632+00:00 $GPRMC,230628,A,4817.6796,N,12345.2298,W,6.49,106,040722,11.8,E,A,V*63
20220704 230632+00:00 $WIMWV,356.39,R,3.09,N,A*23
20220704 230634+00:00 $IIMDA,29.9,I,1.014,B,11.6,C,,C,92.5,,,C,,T,,M,,N,,M*24
20220704 230634+00:00 $HCHDT,111.9,T*21
20220704 230634+00:00 $GPRMC,230630,A,4817.6796,N,12345.2196,W,6.49,106,040722,11.8,E,A,V*67
20220704 230634+00:00 $WIMWV,326.99,R,4.08,N,A*28
20220704 230636+00:00 $IIMDA,29.9,I,1.014,B,11.6,C,,C,92.5,,,C,,T,,M,,N,,M*24
20220704 230636+00:00 $HCHDT,111.7,T*2F
20220704 230636+00:00 $GPRMC,230632,A,4817.6700,N,12345.2196,W,6.49,107,040722,11.8,E,A,V*6B
20220704 230636+00:00 $WIMWV,336.39,R,2.99,N,A*2D
20220704 230638+00:00 $IIMDA,29.9,I,1.014,B,11.6,C,,C,92.5,,,C,,T,,M,,N,,M*24
20220704 230638+00:00 $HCHDT,111.6,T*2E
20220704 230638+00:00 $GPRMC,230634,A,4817.6700,N,12345.2100,W,6.49,107,040722,11.8,E,A,V*62
20220704 230638+00:00 $WIMWV,337.59,R,3.38,N,A*20
20220704 230640+00:00 $IIMDA,29.9,I,1.014,B,11.6,C,,C,92.5,,,C,,T,,M,,N,,M*24
20220704 230640+00:00 $HCHDT,111.6,T*2E
20220704 230640+00:00 $GPRMC,230636,A,4817.6700,N,12345.2100,W,6.49,107,040722,11.8,E,A,V*60
20220704 230640+00:00 $WIMWV,352.99,R,3.29,N,A*2F
20220704 230642+00:00 $IIMDA,29.9,I,1.014,B,11.6,C,,C,92.5,,,C,,T,,M,,N,,M*24
20220704 230642+00:00 $HCHDT,111.3,T*2B
20220704 230642+00:00 $GPRMC,230638,A,4817.6700,N,12345.1998,W,6.49,106,040722,11.8,E,A,V*65
20220704 230642+00:00 $WIMWV,355.29,R,3.79,N,A*26
20220704 230644+00:00 $IIMDA,29.9,I,1.014,B,11.6,C,,C,92.5,,,C,,T,,M,,N,,M*24
20220704 230644+00:00 $HCHDT,111.4,T*2C
20220704 230644+00:00 $GPRMC,230640,A,4817.6700,N,12345.1896,W,6.49,106,040722,11.8,E,A,V*65
20220704 230644+00:00 $WIMWV,358.49,R,3.6,N,A*15
20220704 230646+00:00 $IIMDA,29.9,I,1.014,B,11.6,C,,C,92.5,,,C,,T,,M,,N,,M*24
20220704 230646+00:00 $HCHDT,111.3,T*2B
20220704 230646+00:00 $GPRMC,230642,A,4817.6700,N,12345.1896,W,6.49,106,040722,11.8,E,A,V*67
20220704 230646+00:00 $WIMWV,356.69,R,3.38,N,A*24
20220704 230648+00:00 $IIMDA,29.9,I,1.014,B,11.6,C,,C,92.5,,,C,,T,,M,,N,,M*24
20220704 230648+00:00 $HCHDT,111.1,T*29
20220704 230648+00:00 $GPRMC,230644,A,4817.6700,N,12345.1800,W,6.49,106,040722,11.8,E,A,V*6E
20220704 230648+00:00 $WIMWV,2.19,R,2.99,N,A*2B
20220704 230650+00:00 $IIMDA,29.9,I,1.014,B,11.6,C,,C,92.5,,,C,,T,,M,,N,,M*24
20220704 230650+00:00 $HCHDT,111.2,T*2A
20220704 230650+00:00 $GPRMC,230646,A,4817.6700,N,12345.1800,W,6.49,106,040722,11.8,E,A,V*6C
20220704 230650+00:00 $WIMWV,355.59,R,2.29,N,A*25
20220704 230652+00:00 $IIMDA,29.9,I,1.014,B,11.6,C,,C,92.5,,,C,,T,,M,,N,,M*24
20220704 230652+00:00 $HCHDT,111,T*36
20220704 230652+00:00 $GPRMC,230648,A,4817.6700,N,12345.1698,W,6.49,106,040722,11.8,E,A,V*6D
20220704 230652+00:00 $WIMWV,334.89,R,1.98,N,A*26
20220704 230654+00:00 $IIMDA,29.9,I,1.014,B,11.6,C,,C,92.5,,,C,,T,,M,,N,,M*24
20220704 230654+00:00 $HCHDT,110.8,T*21
20220704 230654+00:00 $GPRMC,230650,A,4817.6700,N,12345.1698,W,6.49,106,040722,11.8,E,A,V*64
20220704 230654+00:00 $WIMWV,339.29,R,2.68,N,A*2D
20220704 230656+00:00 $IIMDA,29.9,I,1.014,B,11.6,C,,C,92.5,,,C,,T,,M,,N,,M*24
20220704 230656+00:00 $HCHDT,110.7,T*2E
20220704 230656+00:00 $GPRMC,230652,A,4817.6598,N,12345.1596,W,6.49,106,040722,11.8,E,A,V*68
20220704 230656+00:00 $WIMWV,328.69,R,1.5,N,A*11
20220704 230658+00:00 $IIMDA,29.9,I,1.014,B,11.6,C,,C,92.5,,,C,,T,,M,,N,,M*24
20220704 230658+00:00 $HCHDT,110.5,T*2C
20220704 230658+00:00 $GPRMC,230654,A,4817.6598,N,12345.1596,W,6.49,106,040722,11.8,E,A,V*6E
20220704 230658+00:00 $WIMWV,332.69,R,1.69,N,A*20
20220704 230700+00:00 $IIMDA,29.9,I,1.014,B,11.6,C,,C,92.6,,,C,,T,,M,,N,,M*27
20220704 230700+00:00 $HCHDT,110.4,T*2D
20220704 230700+00:00 $GPRMC,230656,A,4817.6598,N,12345.1500,W,6.49,106,040722,11.8,E,A,V*63
20220704 230700+00:00 $WIMWV,351.69,R,2.59,N,A*25
20220704 230702+00:00 $IIMDA,29.9,I,1.014,B,11.6,C,,C,92.5,,,C,,T,,M,,N,,M*24
20220704 230702+00:00 $HCHDT,110.2,T*2B
20220704 230702+00:00 $GPRMC,230658,A,4817.6598,N,12345.1500,W,6.49,105,040722,11.8,E,A,V*6E
20220704 230702+00:00 $WIMWV,0.19,R,2.9,N,A*10
20220704 230704+00:00 $IIMDA,29.9,I,1.014,B,11.6,C,,C,92.5,,,C,,T,,M,,N,,M*24
20220704 230704+00:00 $HCHDT,109.9,T*28
20220704 230704+00:00 $GPRMC,230700,A,4817.6598,N,12345.1398,W,6.61,105,040722,11.8,E,A,V*6F
20220704 230704+00:00 $WIMWV,348.99,R,2.59,N,A*22
20220704 230706+00:00 $IIMDA,29.9,I,1.014,B,11.6,C,,C,92.5,,,C,,T,,M,,N,,M*24
20220704 230706+00:00 $HCHDT,110.4,T*2D
20220704 230706+00:00 $GPRMC,230702,A,4817.6598,N,12345.1398,W,6.61,105,040722,11.8,E,A,V*6D
20220704 230706+00:00 $WIMWV,0.19,R,3.69,N,A*27
20220704 230708+00:00 $IIMDA,29.9,I,1.014,B,11.6,C,,C,92.5,,,C,,T,,M,,N,,M*24
20220704 230708+00:00 $HCHDT,110.4,T*2D
20220704 230708+00:00 $GPRMC,230704,A,4817.6598,N,12345.1296,W,6.61,105,040722,11.8,E,A,V*64
20220704 230708+00:00 $WIMWV,340.19,R,2.99,N,A*2E
20220704 230710+00:00 $IIMDA,29.9,I,1.014,B,11.6,C,,C,92.5,,,C,,T,,M,,N,,M*24
20220704 230710+00:00 $HCHDT,110,T*37
20220704 230710+00:00 $GPRMC,230706,A,4817.6598,N,12345.1296,W,6.61,105,040722,11.8,E,A,V*66
20220704 230710+00:00 $WIMWV,343.99,R,2.29,N,A*2E
20220704 230712+00:00 $IIMDA,29.9,I,1.014,B,11.6,C,,C,92.5,,,C,,T,,M,,N,,M*24
20220704 230712+00:00 $HCHDT,110.2,T*2B
20220704 230712+00:00 $GPRMC,230708,A,4817.6598,N,12345.1200,W,6.61,105,040722,11.8,E,A,V*67
20220704 230712+00:00 $WIMWV,350.99,R,2.2,N,A*15
20220704 230714+00:00 $IIMDA,29.9,I,1.014,B,11.6,C,,C,92.5,,,C,,T,,M,,N,,M*24
20220704 230714+00:00 $HCHDT,110.5,T*2C
20220704 230714+00:00 $GPRMC,230710,A,4817.6598,N,12345.1200,W,6.61,105,040722,11.8,E,A,V*6E
20220704 230714+00:00 $WIMWV,16.4,R,2.9,N,A*1B
20220704 230716+00:00 $IIMDA,29.9,I,1.014,B,11.6,C,,C,92.5,,,C,,T,,M,,N,,M*24
20220704 230716+00:00 $HCHDT,110.3,T*2A
20220704 230716+00:00 $GPRMC,230712,A,4817.6598,N,12345.1098,W,6.71,105,040722,11.8,E,A,V*6E
20220704 230716+00:00 $WIMWV,32.5,R,3.38,N,A*2F
20220704 230718+00:00 $IIMDA,29.9,I,1.014,B,11.6,C,,C,92.5,,,C,,T,,M,,N,,M*24
20220704 230718+00:00 $HCHDT,110.2,T*2B
20220704 230718+00:00 $GPRMC,230714,A,4817.6496,N,12345.0996,W,6.71,105,040722,11.8,E,A,V*61
20220704 230718+00:00 $WIMWV,60.4,R,2.9,N,A*1A
20220704 230720+00:00 $IIMDA,29.9,I,1.014,B,11.6,C,,C,92.5,,,C,,T,,M,,N,,M*24
20220704 230720+00:00 $HCHDT,110.2,T*2B
20220704 230720+00:00 $GPRMC,230716,A,4817.6496,N,12345.0996,W,6.71,105,040722,11.8,E,A,V*63
20220704 230720+00:00 $WIMWV,331.09,R,0.89,N,A*2A
20220704 230722+00:00 $IIMDA,29.9,I,1.014,B,11.6,C,,C,92.5,,,C,,T,,M,,N,,M*24
20220704 230722+00:00 $HCHDT,110.2,T*2B
20220704 230722+00:00 $GPRMC,230718,A,4817.6496,N,12345.0900,W,6.71,105,040722,11.8,E,A,V*62
20220704 230722+00:00 $WIMWV,337.39,R,2.59,N,A*20
20220704 230724+00:00 $IIMDA,29.9,I,1.014,B,11.6,C,,C,92.5,,,C,,T,,M,,N,,M*24
20220704 230724+00:00 $HCHDT,110,T*37
20220704 230724+00:00 $GPRMC,230720,A,4817.6496,N,12345.0900,W,6.71,105,040722,11.8,E,A,V*69
20220704 230724+00:00 $WIMWV,321.69,R,3.29,N,A*24
20220704 230726+00:00 $IIMDA,29.9,I,1.014,B,11.6,C,,C,92.5,,,C,,T,,M,,N,,M*24
20220704 230726+00:00 $HCHDT,109.9,T*28
20220704 230726+00:00 $GPRMC,230722,A,4817.6496,N,12345.0798,W,6.61,105,040722,11.8,E,A,V*65
20220704 230726+00:00 $WIMWV,328.09,R,3.09,N,A*29
20220704 230728+00:00 $IIMDA,29.9,I,1.014,B,11.7,C,,C,92.4,,,C,,T,,M,,N,,M*24
20220704 230728+00:00 $HCHDT,110,T*37
20220704 230728+00:00 $GPRMC,230724,A,4817.6496,N,12345.0798,W,6.61,105,040722,11.8,E,A,V*63
20220704 230728+00:00 $WIMWV,357.19,R,3.98,N,A*28
20220704 230730+00:00 $IIMDA,29.9,I,1.014,B,11.7,C,,C,92.4,,,C,,T,,M,,N,,M*24
20220704 230730+00:00 $HCHDT,110,T*37
20220704 230730+00:00 $GPRMC,230726,A,4817.6496,N,12345.0696,W,6.61,104,040722,11.8,E,A,V*6F
20220704 230730+00:00 $WIMWV,325.49,R,2.8,N,A*10
20220704 230732+00:00 $IIMDA,29.9,I,1.014,B,11.7,C,,C,92.4,,,C,,T,,M,,N,,M*24
20220704 230732+00:00 $HCHDT,109.7,T*26
20220704 230732+00:00 $GPRMC,230728,A,4817.6496,N,12345.0696,W,6.61,104,040722,11.8,E,A,V*61
20220704 230732+00:00 $WIMWV,299.59,R,2.49,N,A*22
20220704 230734+00:00 $IIMDA,29.9,I,1.014,B,11.7,C,,C,92.4,,,C,,T,,M,,N,,M*24
20220704 230734+00:00 $HCHDT,109.8,T*29
20220704 230734+00:00 $GPRMC,230730,A,4817.6496,N,12345.0600,W,6.61,104,040722,11.8,E,A,V*67
20220704 230734+00:00 $WIMWV,6.8,R,1.69,N,A*13
20220704 230736+00:00 $IIMDA,29.9,I,1.014,B,11.7,C,,C,92.4,,,C,,T,,M,,N,,M*24
20220704 230736+00:00 $HCHDT,109.9,T*28
20220704 230736+00:00 $GPRMC,230732,A,4817.6496,N,12345.0600,W,6.61,104,040722,11.8,E,A,V*65
20220704 230736+00:00 $WIMWV,356.19,R,3.89,N,A*29
20220704 230738+00:00 $IIMDA,29.9,I,1.014,B,11.7,C,,C,92.3,,,C,,T,,M,,N,,M*23
20220704 230738+00:00 $HCHDT,109.6,T*27
20220704 230738+00:00 $GPRMC,230734,A,4817.6496,N,12345.0498,W,6.61,104,040722,11.8,E,A,V*60
20220704 230738+00:00 $WIMWV,347.89,R,2.2,N,A*12
20220704 230740+00:00 $IIMDA,29.9,I,1.014,B,11.7,C,,C,92.3,,,C,,T,,M,,N,,M*23
20220704 230740+00:00 $HCHDT,109.7,T*26
20220704 230740+00:00 $GPRMC,230736,A,4817.6400,N,12345.0498,W,6.61,104,040722,11.8,E,A,V*6D
20220704 230740+00:00 $WIMWV,316.89,R,2.59,N,A*28
20220704 230742+00:00 $IIMDA,29.9,I,1.014,B,11.7,C,,C,92.3,,,C,,T,,M,,N,,M*23
