20220704 200000+00:00 $IIMDA,29.9,I,1.013,B,11.3,C,,C,94.1,,,C,,T,,M,,N,,M*24
20220704 200000+00:00 $HCHDT,111.5,T*2D
20220704 200000+00:00 $GPRMC,195954,A,4826.0598,N,12422.3998,W,7.89,112,040722,11.9,E,A,V*66
20220704 200000+00:00 $WIMWV,348.89,R,5.29,N,A*23
20220704 200002+00:00 $IIMDA,29.9,I,1.013,B,11.3,C,,C,94.1,,,C,,T,,M,,N,,M*24
20220704 200002+00:00 $HCHDT,111.4,T*2C
20220704 200002+00:00 $GPRMC,195956,A,4826.0598,N,12422.3896,W,7.89,112,040722,11.9,E,A,V*6B
20220704 200002+00:00 $WIMWV,340.59,R,4.59,N,A*20
20220704 200004+00:00 $IIMDA,29.9,I,1.013,B,11.3,C,,C,94.1,,,C,,T,,M,,N,,M*24
20220704 200004+00:00 $HCHDT,111.1,T*29
20220704 200004+00:00 $GPRMC,195958,A,4826.0598,N,12422.3896,W,7.89,112,040722,11.9,E,A,V*65
20220704 200004+00:00 $WIMWV,353.39,R,4.49,N,A*25
20220704 200006+00:00 $IIMDA,29.9,I,1.013,B,11.3,C,,C,94.1,,,C,,T,,M,,N,,M*24
20220704 200006+00:00 $HCHDT,110.9,T*20
20220704 200006+00:00 $GPRMC,200000,A,4826.0598,N,12422.3800,W,7.89,112,040722,11.9,E,A,V*61
20220704 200006+00:00 $WIMWV,355.09,R,4.59,N,A*21
20220704 200008+00:00 $IIMDA,29.9,I,1.013,B,11.3,C,,C,94.1,,,C,,T,,M,,N,,M*24
20220704 200008+00:00 $HCHDT,110.9,T*20
20220704 200008+00:00 $GPRMC,200002,A,4826.0598,N,12422.3698,W,7.89,112,040722,11.9,E,A,V*6C
20220704 200008+00:00 $WIMWV,338.59,R,4.9,N,A*1A
20220704 200010+00:00 $IIMDA,29.9,I,1.013,B,11.3,C,,C,94,,,C,,T,,M,,N,,M*3B
20220704 200010+00:00 $HCHDT,111.2,T*2A
20220704 200010+00:00 $GPRMC,200004,A,4826.0496,N,12422.3698,W,7.89,112,040722,11.9,E,A,V*65
20220704 200010+00:00 $WIMWV,348.49,R,5,N,A*0A
20220704 200012+00:00 $IIMDA,29.9,I,1.013,B,11.3,C,,C,94,,,C,,T,,M,,N,,M*3B
20220704 200012+00:00 $HCHDT,111.5,T*2D
20220704 200012+00:00 $GPRMC,200006,A,4826.0496,N,12422.3596,W,7.89,112,040722,11.9,E,A,V*6A
20220704 200012+00:00 $WIMWV,345.39,R,5.29,N,A*25
20220704 200014+00:00 $IIMDA,29.9,I,1.013,B,11.3,C,,C,94.1,,,C,,T,,M,,N,,M*24
20220704 200014+00:00 $HCHDT,111.6,T*2E
20220704 200014+00:00 $GPRMC,200008,A,4826.0496,N,12422.3500,W,7.89,112,040722,11.9,E,A,V*6B
20220704 200014+00:00 $WIMWV,2.4,R,4.59,N,A*1D
20220704 200016+00:00 $IIMDA,29.9,I,1.013,B,11.3,C,,C,94.1,,,C,,T,,M,,N,,M*24
20220704 200016+00:00 $HCHDT,111.3,T*2B
20220704 200016+00:00 $GPRMC,200010,A,4826.0496,N,12422.3500,W,7.89,112,040722,11.9,E,A,V*62
20220704 200016+00:00 $WIMWV,350.99,R,4.59,N,A*2D
20220704 200018+00:00 $IIMDA,29.9,I,1.013,B,11.3,C,,C,94,,,C,,T,,M,,N,,M*3B
20220704 200018+00:00 $HCHDT,111,T*36
20220704 200018+00:00 $GPRMC,200012,A,4826.0496,N,12422.3398,W,7.89,112,040722,11.9,E,A,V*67
20220704 200018+00:00 $WIMWV,0.19,R,4.2,N,A*1D
20220704 200020+00:00 $IIMDA,29.9,I,1.013,B,11.3,C,,C,94.1,,,C,,T,,M,,N,,M*24
20220704 200020+00:00 $HCHDT,111,T*36
20220704 200020+00:00 $GPRMC,200014,A,4826.0496,N,12422.3398,W,7.89,112,040722,11.9,E,A,V*61
20220704 200020+00:00 $WIMWV,0.19,R,4.49,N,A*22
20220704 200022+00:00 $IIMDA,29.9,I,1.013,B,11.3,C,,C,94.1,,,C,,T,,M,,N,,M*24
20220704 200022+00:00 $HCHDT,111.1,T*29
20220704 200022+00:00 $GPRMC,200016,A,4826.0400,N,12422.3296,W,7.89,112,040722,11.9,E,A,V*63
20220704 200022+00:00 $WIMWV,352.69,R,4.08,N,A*24
20220704 200024+00:00 $IIMDA,29.9,I,1.013,B,11.3,C,,C,94.1,,,C,,T,,M,,N,,M*24
20220704 200024+00:00 $HCHDT,111.3,T*2B
20220704 200024+00:00 $GPRMC,200018,A,4826.0400,N,12422.3200,W,7.89,112,040722,11.9,E,A,V*62
20220704 200024+00:00 $WIMWV,346.99,R,4.49,N,A*2B
20220704 200026+00:00 $IIMDA,29.9,I,1.013,B,11.3,C,,C,94.1,,,C,,T,,M,,N,,M*24
20220704 200026+00:00 $HCHDT,111.1,T*29
20220704 200026+00:00 $GPRMC,200020,A,4826.0400,N,12422.3200,W,7.89,112,040722,11.9,E,A,V*69
20220704 200026+00:00 $WIMWV,354.99,R,4.68,N,A*2B
20220704 200028+00:00 $IIMDA,29.9,I,1.013,B,11.3,C,,C,94.1,,,C,,T,,M,,N,,M*24
20220704 200028+00:00 $HCHDT,110.6,T*2F
20220704 200028+00:00 $GPRMC,200022,A,4826.0400,N,12422.3098,W,7.89,112,040722,11.9,E,A,V*68
20220704 200028+00:00 $WIMWV,348.59,R,4.68,N,A*2A
20220704 200030+00:00 $IIMDA,29.9,I,1.013,B,11.3,C,,C,94.1,,,C,,T,,M,,N,,M*24
20220704 200030+00:00 $HCHDT,110.1,T*28
20220704 200030+00:00 $GPRMC,200024,A,4826.0400,N,12422.3098,W,7.89,112,040722,11.9,E,A,V*6E
20220704 200030+00:00 $WIMWV,355.99,R,4.78,N,A*2B
20220704 200032+00:00 $IIMDA,29.9,I,1.013,B,11.3,C,,C,94.1,,,C,,T,,M,,N,,M*24
20220704 200032+00:00 $HCHDT,110,T*37
20220704 200032+00:00 $GPRMC,200026,A,4826.0400,N,12422.2996,W,8.01,111,040722,11.9,E,A,V*66
20220704 200032+00:00 $WIMWV,353.79,R,4.68,N,A*22
20220704 200034+00:00 $IIMDA,29.9,I,1.013,B,11.3,C,,C,94.1,,,C,,T,,M,,N,,M*24
20220704 200034+00:00 $HCHDT,110.3,T*2A
20220704 200034+00:00 $GPRMC,200028,A,4826.0298,N,12422.2900,W,7.89,111,040722,11.9,E,A,V*6F
20220704 200034+00:00 $WIMWV,340.79,R,5.48,N,A*23
20220704 200036+00:00 $IIMDA,29.9,I,1.013,B,11.3,C,,C,94.1,,,C,,T,,M,,N,,M*24
20220704 200036+00:00 $HCHDT,110.6,T*2F
20220704 200036+00:00 $GPRMC,200030,A,4826.0298,N,12422.2900,W,7.89,111,040722,11.9,E,A,V*66
20220704 200036+00:00 $WIMWV,349.59,R,4.9,N,A*1C
20220704 200038+00:00 $IIMDA,29.9,I,1.013,B,11.3,C,,C,94.1,,,C,,T,,M,,N,,M*24
20220704 200038+00:00 $HCHDT,110.6,T*2F
20220704 200038+00:00 $GPRMC,200032,A,4826.0298,N,12422.2798,W,7.89,111,040722,11.9,E,A,V*6B
20220704 200038+00:00 $WIMWV,353.29,R,4.78,N,A*26
20220704 200040+00:00 $IIMDA,29.9,I,1.013,B,11.3,C,,C,94.1,,,C,,T,,M,,N,,M*24
20220704 200040+00:00 $HCHDT,110.7,T*2E
20220704 200040+00:00 $GPRMC,200034,A,4826.0298,N,12422.2696,W,7.89,111,040722,11.9,E,A,V*62
20220704 200040+00:00 $WIMWV,355.19,R,5.48,N,A*21
20220704 200042+00:00 $IIMDA,29.9,I,1.013,B,11.3,C,,C,94,,,C,,T,,M,,N,,M*3B
20220704 200042+00:00 $HCHDT,110.6,T*2F
20220704 200042+00:00 $GPRMC,200036,A,4826.0298,N,12422.2696,W,7.89,111,040722,11.9,E,A,V*60
20220704 200042+00:00 $WIMWV,335.59,R,5.19,N,A*27
20220704 200044+00:00 $IIMDA,29.9,I,1.013,B,11.3,C,,C,94,,,C,,T,,M,,N,,M*3B
20220704 200044+00:00 $HCHDT,110.9,T*20
20220704 200044+00:00 $GPRMC,200038,A,4826.0298,N,12422.2600,W,7.89,111,040722,11.9,E,A,V*61
20220704 200044+00:00 $WIMWV,353.09,R,4.9,N,A*12
20220704 200046+00:00 $IIMDA,29.9,I,1.013,B,11.3,C,,C,94.1,,,C,,T,,M,,N,,M*24
20220704 200046+00:00 $HCHDT,111.4,T*2C
20220704 200046+00:00 $GPRMC,200040,A,4826.0196,N,12422.2600,W,7.89,112,040722,11.9,E,A,V*60
20220704 200046+00:00 $WIMWV,338.59,R,4.2,N,A*11
20220704 200048+00:00 $IIMDA,29.9,I,1.013,B,11.3,C,,C,94,,,C,,T,,M,,N,,M*3B
20220704 200048+00:00 $HCHDT,111.6,T*2E
20220704 200048+00:00 $GPRMC,200042,A,4826.0196,N,12422.2498,W,7.89,112,040722,11.9,E,A,V*61
20220704 200048+00:00 $WIMWV,358.49,R,5,N,A*0B
20220704 200050+00:00 $IIMDA,29.9,I,1.013,B,11.3,C,,C,94.1,,,C,,T,,M,,N,,M*24
20220704 200050+00:00 $HCHDT,111.4,T*2C
20220704 200050+00:00 $GPRMC,200044,A,4826.0196,N,12422.2396,W,7.89,112,040722,11.9,E,A,V*6E
20220704 200050+00:00 $WIMWV,357.79,R,4.3,N,A*1B
20220704 200052+00:00 $IIMDA,29.9,I,1.013,B,11.3,C,,C,94.1,,,C,,T,,M,,N,,M*24
20220704 200052+00:00 $HCHDT,111.1,T*29
20220704 200052+00:00 $GPRMC,200046,A,4826.0196,N,12422.2396,W,7.89,112,040722,11.9,E,A,V*6C
20220704 200052+00:00 $WIMWV,342.29,R,4.59,N,A*25
20220704 200054+00:00 $IIMDA,29.9,I,1.013,B,11.3,C,,C,94,,,C,,T,,M,,N,,M*3B
20220704 200054+00:00 $HCHDT,110.7,T*2E
20220704 200054+00:00 $GPRMC,200048,A,4826.0196,N,12422.2300,W,7.89,112,040722,11.9,E,A,V*6D
20220704 200054+00:00 $WIMWV,353.69,R,5.09,N,A*25
20220704 200056+00:00 $IIMDA,29.9,I,1.013,B,11.3,C,,C,94.1,,,C,,T,,M,,N,,M*24
20220704 200056+00:00 $HCHDT,110.6,T*2F
20220704 200056+00:00 $GPRMC,200050,A,4826.0196,N,12422.2300,W,7.89,112,040722,11.9,E,A,V*64
20220704 200056+00:00 $WIMWV,351.99,R,4.59,N,A*2C
20220704 200058+00:00 $IIMDA,29.9,I,1.013,B,11.3,C,,C,94,,,C,,T,,M,,N,,M*3B
20220704 200058+00:00 $HCHDT,110.8,T*21
20220704 200058+00:00 $GPRMC,200052,A,4826.0100,N,12422.2198,W,7.89,112,040722,11.9,E,A,V*6A
20220704 200058+00:00 $WIMWV,354.59,R,4.39,N,A*23
20220704 200100+00:00 $IIMDA,29.9,I,1.013,B,11.3,C,,C,94,,,C,,T,,M,,N,,M*3B
20220704 200100+00:00 $HCHDT,110.8,T*21
20220704 200100+00:00 $GPRMC,200054,A,4826.0100,N,12422.2096,W,7.89,112,040722,11.9,E,A,V*63
20220704 200100+00:00 $WIMWV,358.39,R,4.78,N,A*2C
20220704 200102+00:00 $IIMDA,29.9,I,1.013,B,11.3,C,,C,94,,,C,,T,,M,,N,,M*3B
20220704 200102+00:00 $HCHDT,110.5,T*2C
20220704 200102+00:00 $GPRMC,200056,A,4826.0100,N,12422.2096,W,7.89,112,040722,11.9,E,A,V*61
20220704 200102+00:00 $WIMWV,352.59,R,4.39,N,A*25
20220704 200104+00:00 $IIMDA,29.9,I,1.013,B,11.3,C,,C,94,,,C,,T,,M,,N,,M*3B
20220704 200104+00:00 $HCHDT,110,T*37
20220704 200104+00:00 $GPRMC,200058,A,4826.0100,N,12422.2000,W,7.89,112,040722,11.9,E,A,V*60
20220704 200104+00:00 $WIMWV,0.19,R,4.59,N,A*23
20220704 200106+00:00 $IIMDA,29.9,I,1.013,B,11.3,C,,C,94,,,C,,T,,M,,N,,M*3B
20220704 200106+00:00 $HCHDT,110,T*37
20220704 200106+00:00 $GPRMC,200100,A,4826.0100,N,12422.1898,W,7.89,111,040722,11.9,E,A,V*65
20220704 200106+00:00 $WIMWV,341.99,R,4.49,N,A*2C
20220704 200108+00:00 $IIMDA,29.9,I,1.013,B,11.3,C,,C,94,,,C,,T,,M,,N,,M*3B
20220704 200108+00:00 $HCHDT,110.3,T*2A
20220704 200108+00:00 $GPRMC,200102,A,4826.0100,N,12422.1898,W,7.89,111,040722,11.9,E,A,V*67
20220704 200108+00:00 $WIMWV,355.09,R,4.49,N,A*20
20220704 200110+00:00 $IIMDA,29.9,I,1.013,B,11.3,C,,C,94,,,C,,T,,M,,N,,M*3B
20220704 200110+00:00 $HCHDT,110.9,T*20
20220704 200110+00:00 $GPRMC,200104,A,4825.9998,N,12422.1796,W,7.89,111,040722,11.9,E,A,V*63
20220704 200110+00:00 $WIMWV,357.29,R,4.49,N,A*20
20220704 200112+00:00 $IIMDA,29.9,I,1.013,B,11.3,C,,C,94,,,C,,T,,M,,N,,M*3B
20220704 200112+00:00 $HCHDT,111.1,T*29
20220704 200112+00:00 $GPRMC,200106,A,4825.9998,N,12422.1796,W,7.89,111,040722,11.9,E,A,V*61
20220704 200112+00:00 $WIMWV,353.39,R,4.39,N,A*22
20220704 200114+00:00 $IIMDA,29.9,I,1.013,B,11.3,C,,C,94,,,C,,T,,M,,N,,M*3B
20220704 200114+00:00 $HCHDT,110.9,T*20
20220704 200114+00:00 $GPRMC,200108,A,4825.9998,N,12422.1700,W,7.89,111,040722,11.9,E,A,V*60
20220704 200114+00:00 $WIMWV,0.19,R,4.9,N,A*16
20220704 200116+00:00 $IIMDA,29.9,I,1.013,B,11.3,C,,C,94,,,C,,T,,M,,N,,M*3B
20220704 200116+00:00 $HCHDT,110.7,T*2E
20220704 200116+00:00 $GPRMC,200110,A,4825.9998,N,12422.1598,W,7.89,111,040722,11.9,E,A,V*6A
20220704 200116+00:00 $WIMWV,337.79,R,5.29,N,A*24
20220704 200118+00:00 $IIMDA,29.9,I,1.013,B,11.3,C,,C,94,,,C,,T,,M,,N,,M*3B
20220704 200118+00:00 $HCHDT,110.9,T*20
20220704 200118+00:00 $GPRMC,200112,A,4825.9998,N,12422.1598,W,7.89,111,040722,11.9,E,A,V*68
20220704 200118+00:00 $WIMWV,348.19,R,5.09,N,A*28
20220704 200120+00:00 $IIMDA,29.9,I,1.013,B,11.3,C,,C,94,,,C,,T,,M,,N,,M*3B
20220704 200120+00:00 $HCHDT,111.5,T*2D
20220704 200120+00:00 $GPRMC,200114,A,4825.9998,N,12422.1496,W,7.89,111,040722,11.9,E,A,V*61
20220704 200120+00:00 $WIMWV,350.39,R,5.09,N,A*23
20220704 200122+00:00 $IIMDA,29.9,I,1.013,B,11.3,C,,C,94,,,C,,T,,M,,N,,M*3B
20220704 200122+00:00 $HCHDT,112.3,T*28
20220704 200122+00:00 $GPRMC,200116,A,4825.9896,N,12422.1496,W,7.89,112,040722,11.9,E,A,V*6F
20220704 200122+00:00 $WIMWV,350.99,R,4.59,N,A*2D
20220704 200124+00:00 $IIMDA,29.9,I,1.013,B,11.3,C,,C,94,,,C,,T,,M,,N,,M*3B
20220704 200124+00:00 $HCHDT,112.6,T*2D
20220704 200124+00:00 $GPRMC,200118,A,4825.9896,N,12422.1400,W,7.89,112,040722,11.9,E,A,V*6E
20220704 200124+00:00 $WIMWV,357.79,R,4.39,N,A*22
20220704 200126+00:00 $IIMDA,29.9,I,1.013,B,11.3,C,,C,94,,,C,,T,,M,,N,,M*3B
20220704 200126+00:00 $HCHDT,112.2,T*29
20220704 200126+00:00 $GPRMC,200120,A,4825.9896,N,12422.1298,W,7.89,113,040722,11.9,E,A,V*63
20220704 200126+00:00 $WIMWV,4.7,R,4.9,N,A*2D
20220704 200128+00:00 $IIMDA,29.9,I,1.013,B,11.3,C,,C,94,,,C,,T,,M,,N,,M*3B
20220704 200128+00:00 $HCHDT,111.5,T*2D
20220704 200128+00:00 $GPRMC,200122,A,4825.9896,N,12422.1298,W,7.89,113,040722,11.9,E,A,V*61
20220704 200128+00:00 $WIMWV,343.79,R,4.39,N,A*27
20220704 200130+00:00 $IIMDA,29.9,I,1.013,B,11.3,C,,C,94,,,C,,T,,M,,N,,M*3B
20220704 200130+00:00 $HCHDT,111.1,T*29
20220704 200130+00:00 $GPRMC,200124,A,4825.9896,N,12422.1196,W,7.89,113,040722,11.9,E,A,V*6A
20220704 200130+00:00 $WIMWV,357.59,R,4.59,N,A*26
20220704 200132+00:00 $IIMDA,29.9,I,1.013,B,11.3,C,,C,94,,,C,,T,,M,,N,,M*3B
20220704 200132+00:00 $HCHDT,111.4,T*2C
20220704 200132+00:00 $GPRMC,200126,A,4825.9896,N,12422.1196,W,7.89,113,040722,11.9,E,A,V*68
20220704 200132+00:00 $WIMWV,352.79,R,4.3,N,A*1E
20220704 200134+00:00 $IIMDA,29.9,I,1.013,B,11.3,C,,C,94,,,C,,T,,M,,N,,M*3B
20220704 200134+00:00 $HCHDT,111.8,T*20
20220704 200134+00:00 $GPRMC,200128,A,4825.9800,N,12422.1100,W,7.89,113,040722,11.9,E,A,V*66
20220704 200134+00:00 $WIMWV,336.79,R,5.09,N,A*27
20220704 200136+00:00 $IIMDA,29.9,I,1.013,B,11.3,C,,C,94,,,C,,T,,M,,N,,M*3B
20220704 200136+00:00 $HCHDT,111.8,T*20
20220704 200136+00:00 $GPRMC,200130,A,4825.9800,N,12422.0998,W,7.89,113,040722,11.9,E,A,V*67
20220704 200136+00:00 $WIMWV,356.19,R,4.49,N,A*22
20220704 200138+00:00 $IIMDA,29.9,I,1.013,B,11.3,C,,C,94,,,C,,T,,M,,N,,M*3B
20220704 200138+00:00 $HCHDT,111.3,T*2B
20220704 200138+00:00 $GPRMC,200132,A,4825.9800,N,12422.0998,W,7.89,113,040722,11.9,E,A,V*65
20220704 200138+00:00 $WIMWV,351.59,R,4.3,N,A*1F
20220704 200140+00:00 $IIMDA,29.9,I,1.013,B,11.3,C,,C,94,,,C,,T,,M,,N,,M*3B
20220704 200140+00:00 $HCHDT,110.7,T*2E
20220704 200140+00:00 $GPRMC,200134,A,4825.9800,N,12422.0896,W,7.89,112,040722,11.9,E,A,V*6D
20220704 200140+00:00 $WIMWV,351.39,R,4.68,N,A*24
20220704 200142+00:00 $IIMDA,29.9,I,1.013,B,11.3,C,,C,94,,,C,,T,,M,,N,,M*3B
20220704 200142+00:00 $HCHDT,110.4,T*2D
20220704 200142+00:00 $GPRMC,200136,A,4825.9800,N,12422.0800,W,7.89,112,040722,11.9,E,A,V*60
20220704 200142+00:00 $WIMWV,335.69,R,5.48,N,A*20
20220704 200144+00:00 $IIMDA,29.9,I,1.013,B,11.3,C,,C,94.1,,,C,,T,,M,,N,,M*24
20220704 200144+00:00 $HCHDT,110.9,T*20
20220704 200144+00:00 $GPRMC,200138,A,4825.9800,N,12422.0800,W,7.89,112,040722,11.9,E,A,V*6E
20220704 200144+00:00 $WIMWV,358.59,R,4.9,N,A*1C
20220704 200146+00:00 $IIMDA,29.9,I,1.013,B,11.3,C,,C,94,,,C,,T,,M,,N,,M*3B
20220704 200146+00:00 $HCHDT,111.5,T*2D
20220704 200146+00:00 $GPRMC,200140,A,4825.9698,N,12422.0698,W,7.89,112,040722,11.9,E,A,V*61
20220704 200146+00:00 $WIMWV,346.59,R,4.9,N,A*13
20220704 200148+00:00 $IIMDA,29.9,I,1.013,B,11.3,C,,C,94,,,C,,T,,M,,N,,M*3B
20220704 200148+00:00 $HCHDT,111.7,T*2F
20220704 200148+00:00 $GPRMC,200142,A,4825.9698,N,12422.0698,W,7.89,112,040722,11.9,E,A,V*63
20220704 200148+00:00 $WIMWV,331.39,R,5.48,N,A*21
20220704 200150+00:00 $IIMDA,29.9,I,1.013,B,11.3,C,,C,94,,,C,,T,,M,,N,,M*3B
20220704 200150+00:00 $HCHDT,111.4,T*2C
20220704 200150+00:00 $GPRMC,200144,A,4825.9698,N,12422.0596,W,7.89,112,040722,11.9,E,A,V*68
20220704 200150+00:00 $WIMWV,355.09,R,4.59,N,A*21
20220704 200152+00:00 $IIMDA,29.9,I,1.013,B,11.3,C,,C,94,,,C,,T,,M,,N,,M*3B
20220704 200152+00:00 $HCHDT,111.1,T*29
20220704 200152+00:00 $GPRMC,200146,A,4825.9698,N,12422.0500,W,7.79,112,040722,11.9,E,A,V*6A
20220704 200152+00:00 $WIMWV,351.69,R,4.78,N,A*20
20220704 200154+00:00 $IIMDA,29.9,I,1.013,B,11.3,C,,C,94,,,C,,T,,M,,N,,M*3B
20220704 200154+00:00 $HCHDT,111,T*36
20220704 200154+00:00 $GPRMC,200148,A,4825.9698,N,12422.0500,W,7.79,112,040722,11.9,E,A,V*64
20220704 200154+00:00 $WIMWV,345.39,R,4.68,N,A*21
20220704 200156+00:00 $IIMDA,29.9,I,1.013,B,11.3,C,,C,94,,,C,,T,,M,,N,,M*3B
20220704 200156+00:00 $HCHDT,111.3,T*2B
20220704 200156+00:00 $GPRMC,200150,A,4825.9698,N,12422.0398,W,7.89,112,040722,11.9,E,A,V*65
20220704 200156+00:00 $WIMWV,344.99,R,5.29,N,A*2E
20220704 200158+00:00 $IIMDA,29.9,I,1.013,B,11.3,C,,C,94,,,C,,T,,M,,N,,M*3B
20220704 200158+00:00 $HCHDT,111.5,T*2D
20220704 200158+00:00 $GPRMC,200152,A,4825.9596,N,12422.0398,W,7.89,112,040722,11.9,E,A,V*6A
20220704 200158+00:00 $WIMWV,349.79,R,5.09,N,A*2F
20220704 200200+00:00 $IIMDA,29.9,I,1.013,B,11.3,C,,C,94,,,C,,T,,M,,N,,M*3B
20220704 200200+00:00 $HCHDT,111.6,T*2E
20220704 200200+00:00 $GPRMC,200154,A,4825.9596,N,12422.0296,W,7.89,112,040722,11.9,E,A,V*63
20220704 200200+00:00 $WIMWV,346.39,R,4.59,N,A*20
20220704 200202+00:00 $IIMDA,29.9,I,1.013,B,11.3,C,,C,94,,,C,,T,,M,,N,,M*3B
20220704 200202+00:00 $HCHDT,111.3,T*2B
20220704 200202+00:00 $GPRMC,200156,A,4825.9596,N,12422.0200,W,7.89,112,040722,11.9,E,A,V*6E
20220704 200202+00:00 $WIMWV,348.79,R,4.3,N,A*15
20220704 200204+00:00 $IIMDA,29.9,I,1.013,B,11.3,C,,C,94,,,C,,T,,M,,N,,M*3B
20220704 200204+00:00 $HCHDT,110.9,T*20
20220704 200204+00:00 $GPRMC,200158,A,4825.9596,N,12422.0200,W,7.89,112,040722,11.9,E,A,V*60
20220704 200204+00:00 $WIMWV,353.19,R,3.98,N,A*2C
20220704 200206+00:00 $IIMDA,29.9,I,1.013,B,11.3,C,,C,94,,,C,,T,,M,,N,,M*3B
20220704 200206+00:00 $HCHDT,110.5,T*2C
20220704 200206+00:00 $GPRMC,200200,A,4825.9596,N,12422.0098,W,7.89,112,040722,11.9,E,A,V*6D
20220704 200206+00:00 $WIMWV,342.59,R,4.59,N,A*22
20220704 200208+00:00 $IIMDA,29.9,I,1.013,B,11.3,C,,C,94,,,C,,T,,M,,N,,M*3B
20220704 200208+00:00 $HCHDT,110.7,T*2E
20220704 200208+00:00 $GPRMC,200202,A,4825.9596,N,12422.0098,W,7.79,112,040722,11.9,E,A,V*60
20220704 200208+00:00 $WIMWV,343.29,R,5.19,N,A*21
20220704 200210+00:00 $IIMDA,29.9,I,1.013,B,11.3,C,,C,94,,,C,,T,,M,,N,,M*3B
20220704 200210+00:00 $HCHDT,111.2,T*2A
20220704 200210+00:00 $GPRMC,200204,A,4825.9500,N,12421.9996,W,7.89,112,040722,11.9,E,A,V*6B
20220704 200210+00:00 $WIMWV,334.39,R,5.6,N,A*1E
20220704 200212+00:00 $IIMDA,29.9,I,1.013,B,11.3,C,,C,94,,,C,,T,,M,,N,,M*3B
20220704 200212+00:00 $HCHDT,111.4,T*2C
20220704 200212+00:00 $GPRMC,200206,A,4825.9500,N,12421.9900,W,7.89,112,040722,11.9,E,A,V*66
20220704 200212+00:00 $WIMWV,349.49,R,4.78,N,A*2B
20220704 200214+00:00 $IIMDA,29.9,I,1.013,B,11.3,C,,C,94,,,C,,T,,M,,N,,M*3B
20220704 200214+00:00 $HCHDT,111.1,T*29
20220704 200214+00:00 $GPRMC,200208,A,4825.9500,N,12421.9900,W,7.89,112,040722,11.9,E,A,V*68
20220704 200214+00:00 $WIMWV,0.19,R,4.49,N,A*22
20220704 200216+00:00 $IIMDA,29.9,I,1.013,B,11.3,C,,C,94,,,C,,T,,M,,N,,M*3B
20220704 200216+00:00 $HCHDT,110.8,T*21
20220704 200216+00:00 $GPRMC,200210,A,4825.9500,N,12421.9798,W,7.89,112,040722,11.9,E,A,V*6E
20220704 200216+00:00 $WIMWV,331.69,R,5.48,N,A*24
20220704 200218+00:00 $IIMDA,29.9,I,1.013,B,11.3,C,,C,94,,,C,,T,,M,,N,,M*3B
20220704 200218+00:00 $HCHDT,110.7,T*2E
20220704 200218+00:00 $GPRMC,200212,A,4825.9500,N,12421.9798,W,7.89,112,040722,11.9,E,A,V*6C
20220704 200218+00:00 $WIMWV,355.49,R,4.49,N,A*24
20220704 200220+00:00 $IIMDA,29.9,I,1.013,B,11.3,C,,C,94,,,C,,T,,M,,N,,M*3B
20220704 200220+00:00 $HCHDT,110.9,T*20
20220704 200220+00:00 $GPRMC,200214,A,4825.9500,N,12421.9696,W,7.89,112,040722,11.9,E,A,V*65
20220704 200220+00:00 $WIMWV,338.59,R,4.59,N,A*2F
20220704 200222+00:00 $IIMDA,29.9,I,1.013,B,11.3,C,,C,94,,,C,,T,,M,,N,,M*3B
20220704 200222+00:00 $HCHDT,111.4,T*2C
20220704 200222+00:00 $GPRMC,200216,A,4825.9398,N,12421.9600,W,7.89,112,040722,11.9,E,A,V*6F
20220704 200222+00:00 $WIMWV,349.39,R,4.68,N,A*2D
20220704 200224+00:00 $IIMDA,29.9,I,1.013,B,11.3,C,,C,94,,,C,,T,,M,,N,,M*3B
20220704 200224+00:00 $HCHDT,111.7,T*2F
20220704 200224+00:00 $GPRMC,200218,A,4825.9398,N,12421.9600,W,7.79,112,040722,11.9,E,A,V*6E
20220704 200224+00:00 $WIMWV,348.59,R,4.68,N,A*2A
20220704 200226+00:00 $IIMDA,29.9,I,1.013,B,11.3,C,,C,94,,,C,,T,,M,,N,,M*3B
20220704 200226+00:00 $HCHDT,111.5,T*2D
20220704 200226+00:00 $GPRMC,200220,A,4825.9398,N,12421.9498,W,7.89,113,040722,11.9,E,A,V*68
20220704 200226+00:00 $WIMWV,353.19,R,4.59,N,A*26
20220704 200228+00:00 $IIMDA,29.9,I,1.013,B,11.3,C,,C,94,,,C,,T,,M,,N,,M*3B
20220704 200228+00:00 $HCHDT,111.2,T*2A
20220704 200228+00:00 $GPRMC,200222,A,4825.9398,N,12421.9498,W,7.89,113,040722,11.9,E,A,V*6A
20220704 200228+00:00 $WIMWV,356.89,R,4.2,N,A*14
20220704 200230+00:00 $IIMDA,29.9,I,1.013,B,11.3,C,,C,94,,,C,,T,,M,,N,,M*3B
20220704 200230+00:00 $HCHDT,111,T*36
20220704 200230+00:00 $GPRMC,200224,A,4825.9398,N,12421.9396,W,7.89,113,040722,11.9,E,A,V*65
20220704 200230+00:00 $WIMWV,344.99,R,4.78,N,A*2B
20220704 200232+00:00 $IIMDA,29.9,I,1.013,B,11.3,C,,C,94,,,C,,T,,M,,N,,M*3B
20220704 200232+00:00 $HCHDT,111.1,T*29
20220704 200232+00:00 $GPRMC,200226,A,4825.9398,N,12421.9300,W,7.89,112,040722,11.9,E,A,V*69
20220704 200232+00:00 $WIMWV,341.59,R,4.9,N,A*14
20220704 200234+00:00 $IIMDA,29.9,I,1.013,B,11.3,C,,C,94,,,C,,T,,M,,N,,M*3B
20220704 200234+00:00 $HCHDT,111.3,T*2B
20220704 200234+00:00 $GPRMC,200228,A,4825.9296,N,12421.9300,W,7.89,112,040722,11.9,E,A,V*68
20220704 200234+00:00 $WIMWV,335.59,R,5.19,N,A*27
20220704 200236+00:00 $IIMDA,29.9,I,1.013,B,11.3,C,,C,94,,,C,,T,,M,,N,,M*3B
20220704 200236+00:00 $HCHDT,111.5,T*2D
20220704 200236+00:00 $GPRMC,200230,A,4825.9296,N,12421.9198,W,7.79,112,040722,11.9,E,A,V*6D
20220704 200236+00:00 $WIMWV,4.6,R,4.9,N,A*2C
20220704 200238+00:00 $IIMDA,29.9,I,1.013,B,11.3,C,,C,94,,,C,,T,,M,,N,,M*3B
20220704 200238+00:00 $HCHDT,111.4,T*2C
20220704 200238+00:00 $GPRMC,200232,A,4825.9296,N,12421.9096,W,7.79,113,040722,11.9,E,A,V*61
20220704 200238+00:00 $WIMWV,359.09,R,4.78,N,A*2E
20220704 200240+00:00 $IIMDA,29.9,I,1.013,B,11.3,C,,C,94,,,C,,T,,M,,N,,M*3B
20220704 200240+00:00 $HCHDT,111.3,T*2B
20220704 200240+00:00 $GPRMC,200234,A,4825.9296,N,12421.9096,W,7.79,113,040722,11.9,E,A,V*67
20220704 200240+00:00 $WIMWV,353.49,R,3.89,N,A*29
20220704 200242+00:00 $IIMDA,29.9,I,1.013,B,11.3,C,,C,94,,,C,,T,,M,,N,,M*3B
20220704 200242+00:00 $HCHDT,111.1,T*29
20220704 200242+00:00 $GPRMC,200236,A,4825.9296,N,12421.9000,W,7.79,113,040722,11.9,E,A,V*6A
20220704 200242+00:00 $WIMWV,354.69,R,4.68,N,A*24
20220704 200244+00:00 $IIMDA,29.9,I,1.013,B,11.3,C,,C,94,,,C,,T,,M,,N,,M*3B
20220704 200244+00:00 $HCHDT,111.3,T*2B
20220704 200244+00:00 $GPRMC,200238,A,4825.9296,N,12421.9000,W,7.89,113,040722,11.9,E,A,V*6B
20220704 200244+00:00 $WIMWV,337.69,R,4.78,N,A*20
20220704 200246+00:00 $IIMDA,29.9,I,1.013,B,11.3,C,,C,94,,,C,,T,,M,,N,,M*3B
20220704 200246+00:00 $HCHDT,111.7,T*2F
20220704 200246+00:00 $GPRMC,200240,A,4825.9200,N,12421.8898,W,7.89,113,040722,11.9,E,A,V*63
20220704 200246+00:00 $WIMWV,348.49,R,4.59,N,A*29
20220704 200248+00:00 $IIMDA,29.9,I,1.013,B,11.3,C,,C,94,,,C,,T,,M,,N,,M*3B
20220704 200248+00:00 $HCHDT,111.9,T*21
20220704 200248+00:00 $GPRMC,200242,A,4825.9200,N,12421.8796,W,7.79,113,040722,11.9,E,A,V*6F
20220704 200248+00:00 $WIMWV,357.69,R,3.98,N,A*2F
20220704 200250+00:00 $IIMDA,29.9,I,1.013,B,11.3,C,,C,94,,,C,,T,,M,,N,,M*3B
20220704 200250+00:00 $HCHDT,111.8,T*20
20220704 200250+00:00 $GPRMC,200244,A,4825.9200,N,12421.8796,W,7.79,113,040722,11.9,E,A,V*69
20220704 200250+00:00 $WIMWV,349.19,R,4.9,N,A*18
20220704 200252+00:00 $IIMDA,29.9,I,1.013,B,11.4,C,,C,94,,,C,,T,,M,,N,,M*3C
20220704 200252+00:00 $HCHDT,111.5,T*2D
20220704 200252+00:00 $GPRMC,200246,A,4825.9200,N,12421.8700,W,7.79,113,040722,11.9,E,A,V*64
20220704 200252+00:00 $WIMWV,345.69,R,4.59,N,A*26
20220704 200254+00:00 $IIMDA,29.9,I,1.013,B,11.4,C,,C,94,,,C,,T,,M,,N,,M*3C
20220704 200254+00:00 $HCHDT,111.3,T*2B
20220704 200254+00:00 $GPRMC,200248,A,4825.9200,N,12421.8700,W,7.79,113,040722,11.9,E,A,V*6A
20220704 200254+00:00 $WIMWV,334.19,R,5,N,A*04
20220704 200256+00:00 $IIMDA,29.9,I,1.013,B,11.4,C,,C,93.9,,,C,,T,,M,,N,,M*2C
20220704 200256+00:00 $HCHDT,111.3,T*2B
20220704 200256+00:00 $GPRMC,200250,A,4825.9200,N,12421.8598,W,7.89,113,040722,11.9,E,A,V*6F
20220704 200256+00:00 $WIMWV,342.29,R,4.2,N,A*1B
20220704 200258+00:00 $IIMDA,29.9,I,1.013,B,11.4,C,,C,94,,,C,,T,,M,,N,,M*3C
20220704 200258+00:00 $HCHDT,111.3,T*2B
20220704 200258+00:00 $GPRMC,200252,A,4825.9098,N,12421.8496,W,7.79,113,040722,11.9,E,A,V*6E
20220704 200258+00:00 $WIMWV,344.79,R,4.49,N,A*27
20220704 200300+00:00 $IIMDA,29.9,I,1.013,B,11.4,C,,C,94,,,C,,T,,M,,N,,M*3C
20220704 200300+00:00 $HCHDT,111.3,T*2B
20220704 200300+00:00 $GPRMC,200254,A,4825.9098,N,12421.8496,W,7.79,113,040722,11.9,E,A,V*68
20220704 200300+00:00 $WIMWV,344.19,R,4.08,N,A*24
20220704 200302+00:00 $IIMDA,29.9,I,1.013,B,11.4,C,,C,94,,,C,,T,,M,,N,,M*3C
20220704 200302+00:00 $HCHDT,111.1,T*29
20220704 200302+00:00 $GPRMC,200256,A,4825.9098,N,12421.8400,W,7.79,113,040722,11.9,E,A,V*65
20220704 200302+00:00 $WIMWV,353.79,R,4.3,N,A*1F
20220704 200304+00:00 $IIMDA,29.9,I,1.013,B,11.4,C,,C,94,,,C,,T,,M,,N,,M*3C
20220704 200304+00:00 $HCHDT,110.6,T*2F
20220704 200304+00:00 $GPRMC,200258,A,4825.9098,N,12421.8400,W,7.79,113,040722,11.9,E,A,V*6B
20220704 200304+00:00 $WIMWV,357.59,R,4.59,N,A*26
20220704 200306+00:00 $IIMDA,29.9,I,1.013,B,11.4,C,,C,93.9,,,C,,T,,M,,N,,M*2C
20220704 200306+00:00 $HCHDT,110.3,T*2A
20220704 200306+00:00 $GPRMC,200300,A,4825.9098,N,12421.8298,W,7.79,112,040722,11.9,E,A,V*61
20220704 200306+00:00 $WIMWV,347.29,R,4.59,N,A*20
20220704 200308+00:00 $IIMDA,29.9,I,1.013,B,11.4,C,,C,94,,,C,,T,,M,,N,,M*3C
20220704 200308+00:00 $HCHDT,110.3,T*2A
20220704 200308+00:00 $GPRMC,200302,A,4825.9098,N,12421.8196,W,7.79,112,040722,11.9,E,A,V*6E
20220704 200308+00:00 $WIMWV,353.19,R,3.89,N,A*2C
20220704 200310+00:00 $IIMDA,29.9,I,1.013,B,11.4,C,,C,94,,,C,,T,,M,,N,,M*3C
20220704 200310+00:00 $HCHDT,110.3,T*2A
20220704 200310+00:00 $GPRMC,200304,A,4825.8996,N,12421.8196,W,7.79,112,040722,11.9,E,A,V*6E
20220704 200310+00:00 $WIMWV,354.69,R,4.49,N,A*27
20220704 200312+00:00 $IIMDA,29.9,I,1.013,B,11.4,C,,C,94,,,C,,T,,M,,N,,M*3C
20220704 200312+00:00 $HCHDT,110.2,T*2B
20220704 200312+00:00 $GPRMC,200306,A,4825.8996,N,12421.8100,W,7.79,112,040722,11.9,E,A,V*63
20220704 200312+00:00 $WIMWV,348.89,R,4.08,N,A*21
20220704 200314+00:00 $IIMDA,29.9,I,1.013,B,11.4,C,,C,94,,,C,,T,,M,,N,,M*3C
20220704 200314+00:00 $HCHDT,110.1,T*28
20220704 200314+00:00 $GPRMC,200308,A,4825.8996,N,12421.8100,W,7.79,112,040722,11.9,E,A,V*6D
20220704 200314+00:00 $WIMWV,345.29,R,4.2,N,A*1C
20220704 200316+00:00 $IIMDA,29.9,I,1.013,B,11.4,C,,C,94,,,C,,T,,M,,N,,M*3C
20220704 200316+00:00 $HCHDT,110.3,T*2A
20220704 200316+00:00 $GPRMC,200310,A,4825.8996,N,12421.7998,W,7.79,112,040722,11.9,E,A,V*62
20220704 200316+00:00 $WIMWV,0.19,R,4.3,N,A*1C
20220704 200318+00:00 $IIMDA,29.9,I,1.013,B,11.4,C,,C,94,,,C,,T,,M,,N,,M*3C
20220704 200318+00:00 $HCHDT,110.6,T*2F
20220704 200318+00:00 $GPRMC,200312,A,4825.8996,N,12421.7896,W,7.79,112,040722,11.9,E,A,V*6F
20220704 200318+00:00 $WIMWV,351.79,R,4.78,N,A*21
20220704 200320+00:00 $IIMDA,29.9,I,1.013,B,11.4,C,,C,93.9,,,C,,T,,M,,N,,M*2C
20220704 200320+00:00 $HCHDT,110.8,T*21
20220704 200320+00:00 $GPRMC,200314,A,4825.8996,N,12421.7896,W,7.79,112,040722,11.9,E,A,V*69
20220704 200320+00:00 $WIMWV,332.99,R,5.7,N,A*13
20220704 200322+00:00 $IIMDA,29.9,I,1.013,B,11.4,C,,C,93.9,,,C,,T,,M,,N,,M*2C
20220704 200322+00:00 $HCHDT,110.8,T*21
20220704 200322+00:00 $GPRMC,200316,A,4825.8996,N,12421.7800,W,7.79,112,040722,11.9,E,A,V*64
20220704 200322+00:00 $WIMWV,350.19,R,4.3,N,A*1A
20220704 200324+00:00 $IIMDA,29.9,I,1.013,B,11.4,C,,C,93.9,,,C,,T,,M,,N,,M*2C
20220704 200324+00:00 $HCHDT,110.5,T*2C
20220704 200324+00:00 $GPRMC,200318,A,4825.8900,N,12421.7800,W,7.79,112,040722,11.9,E,A,V*65
20220704 200324+00:00 $WIMWV,336.89,R,5.38,N,A*2A
20220704 200326+00:00 $IIMDA,29.9,I,1.013,B,11.4,C,,C,94,,,C,,T,,M,,N,,M*3C
20220704 200326+00:00 $HCHDT,110.3,T*2A
20220704 200326+00:00 $GPRMC,200320,A,4825.8900,N,12421.7698,W,7.79,112,040722,11.9,E,A,V*61
20220704 200326+00:00 $WIMWV,0.19,R,4.68,N,A*21
20220704 200328+00:00 $IIMDA,29.9,I,1.013,B,11.4,C,,C,93.9,,,C,,T,,M,,N,,M*2C
20220704 200328+00:00 $HCHDT,110.6,T*2F
20220704 200328+00:00 $GPRMC,200322,A,4825.8900,N,12421.7596,W,7.79,112,040722,11.9,E,A,V*6E
20220704 200328+00:00 $WIMWV,337.29,R,5.09,N,A*23
20220704 200330+00:00 $IIMDA,29.9,I,1.013,B,11.4,C,,C,94,,,C,,T,,M,,N,,M*3C
20220704 200330+00:00 $HCHDT,111,T*36
20220704 200330+00:00 $GPRMC,200324,A,4825.8900,N,12421.7596,W,7.79,112,040722,11.9,E,A,V*68
20220704 200330+00:00 $WIMWV,357.79,R,4.59,N,A*24
20220704 200332+00:00 $IIMDA,29.9,I,1.013,B,11.4,C,,C,93.9,,,C,,T,,M,,N,,M*2C
20220704 200332+00:00 $HCHDT,111.3,T*2B
20220704 200332+00:00 $GPRMC,200326,A,4825.8900,N,12421.7500,W,7.79,112,040722,11.9,E,A,V*65
20220704 200332+00:00 $WIMWV,353.99,R,4.49,N,A*2F
20220704 200334+00:00 $IIMDA,29.9,I,1.013,B,11.4,C,,C,93.9,,,C,,T,,M,,N,,M*2C
20220704 200334+00:00 $HCHDT,110.9,T*20
20220704 200334+00:00 $GPRMC,200328,A,4825.8900,N,12421.7500,W,7.79,112,040722,11.9,E,A,V*6B
20220704 200334+00:00 $WIMWV,350.49,R,3.98,N,A*2A
20220704 200336+00:00 $IIMDA,29.9,I,1.013,B,11.4,C,,C,94,,,C,,T,,M,,N,,M*3C
20220704 200336+00:00 $HCHDT,110.6,T*2F
20220704 200336+00:00 $GPRMC,200330,A,4825.8798,N,12421.7398,W,7.79,112,040722,11.9,E,A,V*6A
20220704 200336+00:00 $WIMWV,339.29,R,4.3,N,A*16
20220704 200338+00:00 $IIMDA,29.9,I,1.013,B,11.4,C,,C,93.9,,,C,,T,,M,,N,,M*2C
20220704 200338+00:00 $HCHDT,110.5,T*2C
20220704 200338+00:00 $GPRMC,200332,A,4825.8798,N,12421.7296,W,7.79,112,040722,11.9,E,A,V*67
20220704 200338+00:00 $WIMWV,346.79,R,4.78,N,A*27
20220704 200340+00:00 $IIMDA,29.9,I,1.013,B,11.4,C,,C,94,,,C,,T,,M,,N,,M*3C
20220704 200340+00:00 $HCHDT,110.9,T*20
20220704 200340+00:00 $GPRMC,200334,A,4825.8798,N,12421.7296,W,7.79,112,040722,11.9,E,A,V*61
20220704 200340+00:00 $WIMWV,353.59,R,4.59,N,A*22
20220704 200342+00:00 $IIMDA,29.9,I,1.013,B,11.4,C,,C,94,,,C,,T,,M,,N,,M*3C
20220704 200342+00:00 $HCHDT,111.4,T*2C
20220704 200342+00:00 $GPRMC,200336,A,4825.8798,N,12421.7200,W,7.79,112,040722,11.9,E,A,V*6C
20220704 200342+00:00 $WIMWV,335.39,R,4.68,N,A*26
20220704 200344+00:00 $IIMDA,29.9,I,1.013,B,11.4,C,,C,93.9,,,C,,T,,M,,N,,M*2C
20220704 200344+00:00 $HCHDT,111.5,T*2D
20220704 200344+00:00 $GPRMC,200338,A,4825.8798,N,12421.7200,W,7.89,112,040722,11.9,E,A,V*6D
20220704 200344+00:00 $WIMWV,347.49,R,4.2,N,A*18
20220704 200346+00:00 $IIMDA,29.9,I,1.013,B,11.4,C,,C,94,,,C,,T,,M,,N,,M*3C
20220704 200346+00:00 $HCHDT,111.4,T*2C
20220704 200346+00:00 $GPRMC,200340,A,4825.8798,N,12421.7098,W,7.79,112,040722,11.9,E,A,V*6E
20220704 200346+00:00 $WIMWV,345.79,R,4.08,N,A*23
20220704 200348+00:00 $IIMDA,29.9,I,1.013,B,11.4,C,,C,94,,,C,,T,,M,,N,,M*3C
20220704 200348+00:00 $HCHDT,111.1,T*29
20220704 200348+00:00 $GPRMC,200342,A,4825.8696,N,12421.6996,W,7.79,112,040722,11.9,E,A,V*65
20220704 200348+00:00 $WIMWV,349.59,R,4.68,N,A*2B
20220704 200350+00:00 $IIMDA,29.9,I,1.013,B,11.4,C,,C,94,,,C,,T,,M,,N,,M*3C
20220704 200350+00:00 $HCHDT,111,T*36
20220704 200350+00:00 $GPRMC,200344,A,4825.8696,N,12421.6996,W,7.79,112,040722,11.9,E,A,V*63
20220704 200350+00:00 $WIMWV,333.59,R,5.29,N,A*22
20220704 200352+00:00 $IIMDA,29.9,I,1.013,B,11.4,C,,C,94,,,C,,T,,M,,N,,M*3C
20220704 200352+00:00 $HCHDT,111.2,T*2A
20220704 200352+00:00 $GPRMC,200346,A,4825.8696,N,12421.6900,W,7.79,112,040722,11.9,E,A,V*6E
20220704 200352+00:00 $WIMWV,342.09,R,4.49,N,A*26
20220704 200354+00:00 $IIMDA,29.9,I,1.013,B,11.4,C,,C,93.9,,,C,,T,,M,,N,,M*2C
20220704 200354+00:00 $HCHDT,111.6,T*2E
20220704 200354+00:00 $GPRMC,200348,A,4825.8696,N,12421.6900,W,7.79,112,040722,11.9,E,A,V*60
20220704 200354+00:00 $WIMWV,348.99,R,4.49,N,A*25
20220704 200356+00:00 $IIMDA,29.9,I,1.013,B,11.4,C,,C,94,,,C,,T,,M,,N,,M*3C
20220704 200356+00:00 $HCHDT,111.9,T*21
20220704 200356+00:00 $GPRMC,200350,A,4825.8696,N,12421.6798,W,7.79,112,040722,11.9,E,A,V*66
20220704 200356+00:00 $WIMWV,336.29,R,4.9,N,A*13
20220704 200358+00:00 $IIMDA,29.9,I,1.013,B,11.4,C,,C,94,,,C,,T,,M,,N,,M*3C
20220704 200358+00:00 $HCHDT,111.8,T*20
20220704 200358+00:00 $GPRMC,200352,A,4825.8696,N,12421.6696,W,7.79,112,040722,11.9,E,A,V*6B
20220704 200358+00:00 $WIMWV,337.89,R,4.49,N,A*2C
20220704 200400+00:00 $IIMDA,29.9,I,1.013,B,11.4,C,,C,94,,,C,,T,,M,,N,,M*3C
20220704 200400+00:00 $HCHDT,111.5,T*2D
20220704 200400+00:00 $GPRMC,200354,A,4825.8600,N,12421.6696,W,7.79,112,040722,11.9,E,A,V*62
20220704 200400+00:00 $WIMWV,337.99,R,4.49,N,A*2D
20220704 200402+00:00 $IIMDA,29.9,I,1.013,B,11.4,C,,C,93.9,,,C,,T,,M,,N,,M*2C
20220704 200402+00:00 $HCHDT,111.3,T*2B
20220704 200402+00:00 $GPRMC,200356,A,4825.8600,N,12421.6600,W,7.79,112,040722,11.9,E,A,V*6F
20220704 200402+00:00 $WIMWV,341.89,R,4.59,N,A*2C
20220704 200404+00:00 $IIMDA,29.9,I,1.013,B,11.4,C,,C,93.9,,,C,,T,,M,,N,,M*2C
20220704 200404+00:00 $HCHDT,111.1,T*29
20220704 200404+00:00 $GPRMC,200358,A,4825.8600,N,12421.6600,W,7.79,112,040722,11.9,E,A,V*61
20220704 200404+00:00 $WIMWV,1.5,R,4.78,N,A*1C
20220704 200406+00:00 $IIMDA,29.9,I,1.013,B,11.4,C,,C,94,,,C,,T,,M,,N,,M*3C
20220704 200406+00:00 $HCHDT,111,T*36
20220704 200406+00:00 $GPRMC,200400,A,4825.8600,N,12421.6498,W,7.79,112,040722,11.9,E,A,V*68
20220704 200406+00:00 $WIMWV,356.69,R,4.49,N,A*25
20220704 200408+00:00 $IIMDA,29.9,I,1.013,B,11.4,C,,C,93.9,,,C,,T,,M,,N,,M*2C
20220704 200408+00:00 $HCHDT,111.1,T*29
20220704 200408+00:00 $GPRMC,200402,A,4825.8600,N,12421.6396,W,7.79,112,040722,11.9,E,A,V*63
20220704 200408+00:00 $WIMWV,348.59,R,4.59,N,A*28
20220704 200410+00:00 $IIMDA,29.9,I,1.013,B,11.4,C,,C,93.9,,,C,,T,,M,,N,,M*2C
20220704 200410+00:00 $HCHDT,111,T*36
20220704 200410+00:00 $GPRMC,200404,A,4825.8600,N,12421.6396,W,7.79,112,040722,11.9,E,A,V*65
20220704 200410+00:00 $WIMWV,343.19,R,4.2,N,A*19
20220704 200412+00:00 $IIMDA,29.9,I,1.013,B,11.4,C,,C,93.9,,,C,,T,,M,,N,,M*2C
20220704 200412+00:00 $HCHDT,110.8,T*21
20220704 200412+00:00 $GPRMC,200406,A,4825.8600,N,12421.6300,W,7.79,112,040722,11.9,E,A,V*68
20220704 200412+00:00 $WIMWV,335.09,R,4.9,N,A*12
20220704 200414+00:00 $IIMDA,29.9,I,1.013,B,11.4,C,,C,93.9,,,C,,T,,M,,N,,M*2C
20220704 200414+00:00 $HCHDT,110.7,T*2E
20220704 200414+00:00 $GPRMC,200408,A,4825.8498,N,12421.6198,W,7.79,112,040722,11.9,E,A,V*66
20220704 200414+00:00 $WIMWV,352.79,R,4.49,N,A*20
20220704 200416+00:00 $IIMDA,29.9,I,1.013,B,11.4,C,,C,93.9,,,C,,T,,M,,N,,M*2C
20220704 200416+00:00 $HCHDT,110.7,T*2E
20220704 200416+00:00 $GPRMC,200410,A,4825.8498,N,12421.6198,W,7.79,112,040722,11.9,E,A,V*6F
20220704 200416+00:00 $WIMWV,352.39,R,4.78,N,A*26
20220704 200418+00:00 $IIMDA,29.9,I,1.013,B,11.4,C,,C,93.9,,,C,,T,,M,,N,,M*2C
20220704 200418+00:00 $HCHDT,110.7,T*2E
20220704 200418+00:00 $GPRMC,200412,A,4825.8498,N,12421.6096,W,7.79,112,040722,11.9,E,A,V*62
20220704 200418+00:00 $WIMWV,335.99,R,4.78,N,A*2D
20220704 200420+00:00 $IIMDA,29.9,I,1.013,B,11.4,C,,C,93.9,,,C,,T,,M,,N,,M*2C
20220704 200420+00:00 $HCHDT,110.8,T*21
20220704 200420+00:00 $GPRMC,200414,A,4825.8498,N,12421.6096,W,7.79,112,040722,11.9,E,A,V*64
20220704 200420+00:00 $WIMWV,352.49,R,4.39,N,A*24
20220704 200422+00:00 $IIMDA,29.9,I,1.013,B,11.4,C,,C,93.9,,,C,,T,,M,,N,,M*2C
20220704 200422+00:00 $HCHDT,110.7,T*2E
20220704 200422+00:00 $GPRMC,200416,A,4825.8498,N,12421.6000,W,7.79,112,040722,11.9,E,A,V*69
20220704 200422+00:00 $WIMWV,349.39,R,4.39,N,A*29
20220704 200424+00:00 $IIMDA,29.9,I,1.013,B,11.4,C,,C,93.9,,,C,,T,,M,,N,,M*2C
20220704 200424+00:00 $HCHDT,110.6,T*2F
20220704 200424+00:00 $GPRMC,200418,A,4825.8498,N,12421.5898,W,7.79,112,040722,11.9,E,A,V*6D
20220704 200424+00:00 $WIMWV,351.19,R,4.39,N,A*22
20220704 200426+00:00 $IIMDA,29.9,I,1.014,B,11.4,C,,C,93.9,,,C,,T,,M,,N,,M*2B
20220704 200426+00:00 $HCHDT,110.6,T*2F
20220704 200426+00:00 $GPRMC,200420,A,4825.8396,N,12421.5898,W,7.79,112,040722,11.9,E,A,V*6F
20220704 200426+00:00 $WIMWV,333.59,R,5.29,N,A*22
20220704 200428+00:00 $IIMDA,29.9,I,1.013,B,11.4,C,,C,93.9,,,C,,T,,M,,N,,M*2C
20220704 200428+00:00 $HCHDT,110.5,T*2C
20220704 200428+00:00 $GPRMC,200422,A,4825.8396,N,12421.5796,W,7.79,112,040722,11.9,E,A,V*6C
20220704 200428+00:00 $WIMWV,335.69,R,4.78,N,A*22
20220704 200430+00:00 $IIMDA,29.9,I,1.013,B,11.4,C,,C,93.9,,,C,,T,,M,,N,,M*2C
20220704 200430+00:00 $HCHDT,110.4,T*2D
20220704 200430+00:00 $GPRMC,200424,A,4825.8396,N,12421.5796,W,7.79,112,040722,11.9,E,A,V*6A
20220704 200430+00:00 $WIMWV,347.29,R,4.2,N,A*1E
20220704 200432+00:00 $IIMDA,29.9,I,1.013,B,11.4,C,,C,93.9,,,C,,T,,M,,N,,M*2C
20220704 200432+00:00 $HCHDT,110.4,T*2D
20220704 200432+00:00 $GPRMC,200426,A,4825.8396,N,12421.5700,W,7.79,112,040722,11.9,E,A,V*67
20220704 200432+00:00 $WIMWV,350.99,R,4.3,N,A*12
20220704 200434+00:00 $IIMDA,29.9,I,1.013,B,11.4,C,,C,93.9,,,C,,T,,M,,N,,M*2C
20220704 200434+00:00 $HCHDT,110.5,T*2C
20220704 200434+00:00 $GPRMC,200428,A,4825.8396,N,12421.5598,W,7.79,112,040722,11.9,E,A,V*6A
20220704 200434+00:00 $WIMWV,339.19,R,3.98,N,A*20
20220704 200436+00:00 $IIMDA,29.9,I,1.013,B,11.4,C,,C,93.9,,,C,,T,,M,,N,,M*2C
20220704 200436+00:00 $HCHDT,110.6,T*2F
20220704 200436+00:00 $GPRMC,200430,A,4825.8396,N,12421.5598,W,7.79,112,040722,11.9,E,A,V*63
20220704 200436+00:00 $WIMWV,347.09,R,4.3,N,A*1D
20220704 200438+00:00 $IIMDA,29.9,I,1.013,B,11.4,C,,C,93.9,,,C,,T,,M,,N,,M*2C
20220704 200438+00:00 $HCHDT,110.7,T*2E
20220704 200438+00:00 $GPRMC,200432,A,4825.8300,N,12421.5496,W,7.79,112,040722,11.9,E,A,V*61
20220704 200438+00:00 $WIMWV,350.29,R,4.49,N,A*27
20220704 200440+00:00 $IIMDA,29.9,I,1.013,B,11.4,C,,C,93.9,,,C,,T,,M,,N,,M*2C
20220704 200440+00:00 $HCHDT,110.7,T*2E
20220704 200440+00:00 $GPRMC,200434,A,4825.8300,N,12421.5496,W,7.79,112,040722,11.9,E,A,V*67
20220704 200440+00:00 $WIMWV,357.89,R,4.39,N,A*2D
20220704 200442+00:00 $IIMDA,29.9,I,1.013,B,11.4,C,,C,93.9,,,C,,T,,M,,N,,M*2C
20220704 200442+00:00 $HCHDT,110.8,T*21
20220704 200442+00:00 $GPRMC,200436,A,4825.8300,N,12421.5400,W,7.79,112,040722,11.9,E,A,V*6A
20220704 200442+00:00 $WIMWV,344.89,R,4.2,N,A*17
20220704 200444+00:00 $IIMDA,29.9,I,1.013,B,11.4,C,,C,93.9,,,C,,T,,M,,N,,M*2C
20220704 200444+00:00 $HCHDT,110.7,T*2E
20220704 200444+00:00 $GPRMC,200438,A,4825.8300,N,12421.5298,W,7.79,112,040722,11.9,E,A,V*63
20220704 200444+00:00 $WIMWV,336.29,R,4.3,N,A*19
20220704 200446+00:00 $IIMDA,29.9,I,1.013,B,11.4,C,,C,93.9,,,C,,T,,M,,N,,M*2C
20220704 200446+00:00 $HCHDT,110.7,T*2E
20220704 200446+00:00 $GPRMC,200440,A,4825.8300,N,12421.5298,W,7.79,112,040722,11.9,E,A,V*6C
20220704 200446+00:00 $WIMWV,353.29,R,4.2,N,A*1B
20220704 200448+00:00 $IIMDA,29.9,I,1.013,B,11.4,C,,C,93.9,,,C,,T,,M,,N,,M*2C
20220704 200448+00:00 $HCHDT,110.6,T*2F
20220704 200448+00:00 $GPRMC,200442,A,4825.8300,N,12421.5196,W,7.79,112,040722,11.9,E,A,V*63
20220704 200448+00:00 $WIMWV,348.09,R,5,N,A*0E
20220704 200450+00:00 $IIMDA,29.9,I,1.013,B,11.4,C,,C,93.9,,,C,,T,,M,,N,,M*2C
20220704 200450+00:00 $HCHDT,110.5,T*2C
20220704 200450+00:00 $GPRMC,200444,A,4825.8198,N,12421.5196,W,7.79,112,040722,11.9,E,A,V*66
20220704 200450+00:00 $WIMWV,341.99,R,4.9,N,A*18
20220704 200452+00:00 $IIMDA,29.9,I,1.013,B,11.4,C,,C,93.9,,,C,,T,,M,,N,,M*2C
20220704 200452+00:00 $HCHDT,110.6,T*2F
20220704 200452+00:00 $GPRMC,200446,A,4825.8198,N,12421.5100,W,7.79,112,040722,11.9,E,A,V*6B
20220704 200452+00:00 $WIMWV,343.59,R,4.49,N,A*22
20220704 200454+00:00 $IIMDA,29.9,I,1.013,B,11.4,C,,C,93.9,,,C,,T,,M,,N,,M*2C
20220704 200454+00:00 $HCHDT,110.7,T*2E
20220704 200454+00:00 $GPRMC,200448,A,4825.8198,N,12421.4998,W,7.79,112,040722,11.9,E,A,V*6D
20220704 200454+00:00 $WIMWV,333.29,R,5.48,N,A*22
20220704 200456+00:00 $IIMDA,29.9,I,1.013,B,11.4,C,,C,93.9,,,C,,T,,M,,N,,M*2C
20220704 200456+00:00 $HCHDT,110.6,T*2F
20220704 200456+00:00 $GPRMC,200450,A,4825.8198,N,12421.4998,W,7.79,112,040722,11.9,E,A,V*64
20220704 200456+00:00 $WIMWV,349.39,R,4.39,N,A*29
20220704 200458+00:00 $IIMDA,29.9,I,1.013,B,11.4,C,,C,93.9,,,C,,T,,M,,N,,M*2C
20220704 200458+00:00 $HCHDT,110.7,T*2E
20220704 200458+00:00 $GPRMC,200452,A,4825.8198,N,12421.4896,W,7.79,112,040722,11.9,E,A,V*69
20220704 200458+00:00 $WIMWV,337.19,R,4.59,N,A*24
20220704 200500+00:00 $IIMDA,29.9,I,1.013,B,11.4,C,,C,93.9,,,C,,T,,M,,N,,M*2C
20220704 200500+00:00 $HCHDT,110.8,T*21
20220704 200500+00:00 $GPRMC,200454,A,4825.8198,N,12421.4896,W,7.79,112,040722,11.9,E,A,V*6F
20220704 200500+00:00 $WIMWV,348.99,R,4.49,N,A*25
20220704 200502+00:00 $IIMDA,29.9,I,1.013,B,11.4,C,,C,93.9,,,C,,T,,M,,N,,M*2C
20220704 200502+00:00 $HCHDT,110.6,T*2F
20220704 200502+00:00 $GPRMC,200456,A,4825.8096,N,12421.4800,W,7.79,112,040722,11.9,E,A,V*6D
20220704 200502+00:00 $WIMWV,348.99,R,4.9,N,A*11
20220704 200504+00:00 $IIMDA,29.9,I,1.013,B,11.4,C,,C,93.9,,,C,,T,,M,,N,,M*2C
20220704 200504+00:00 $HCHDT,110.5,T*2C
20220704 200504+00:00 $GPRMC,200458,A,4825.8096,N,12421.4698,W,7.79,112,040722,11.9,E,A,V*6C
20220704 200504+00:00 $WIMWV,346.69,R,5,N,A*06
20220704 200506+00:00 $IIMDA,29.9,I,1.013,B,11.4,C,,C,93.9,,,C,,T,,M,,N,,M*2C
20220704 200506+00:00 $HCHDT,110.6,T*2F
20220704 200506+00:00 $GPRMC,200500,A,4825.8096,N,12421.4698,W,7.79,112,040722,11.9,E,A,V*60
20220704 200506+00:00 $WIMWV,356.09,R,4.39,N,A*24
20220704 200508+00:00 $IIMDA,29.9,I,1.013,B,11.4,C,,C,93.9,,,C,,T,,M,,N,,M*2C
20220704 200508+00:00 $HCHDT,110.7,T*2E
20220704 200508+00:00 $GPRMC,200502,A,4825.8096,N,12421.4596,W,7.79,112,040722,11.9,E,A,V*6F
20220704 200508+00:00 $WIMWV,334.79,R,5.19,N,A*24
20220704 200510+00:00 $IIMDA,29.9,I,1.013,B,11.4,C,,C,93.9,,,C,,T,,M,,N,,M*2C
20220704 200510+00:00 $HCHDT,110.8,T*21
20220704 200510+00:00 $GPRMC,200504,A,4825.8096,N,12421.4596,W,7.79,112,040722,11.9,E,A,V*69
20220704 200510+00:00 $WIMWV,337.69,R,4.78,N,A*20
20220704 200512+00:00 $IIMDA,29.9,I,1.013,B,11.4,C,,C,93.9,,,C,,T,,M,,N,,M*2C
20220704 200512+00:00 $HCHDT,111.1,T*29
20220704 200512+00:00 $GPRMC,200506,A,4825.8096,N,12421.4500,W,7.79,112,040722,11.9,E,A,V*64
20220704 200512+00:00 $WIMWV,357.69,R,4.3,N,A*1A
20220704 200514+00:00 $IIMDA,29.9,I,1.013,B,11.4,C,,C,93.9,,,C,,T,,M,,N,,M*2C
20220704 200514+00:00 $HCHDT,111,T*36
20220704 200514+00:00 $GPRMC,200508,A,4825.8096,N,12421.4398,W,7.79,112,040722,11.9,E,A,V*6D
20220704 200514+00:00 $WIMWV,347.59,R,4.2,N,A*19
20220704 200516+00:00 $IIMDA,29.9,I,1.013,B,11.4,C,,C,93.9,,,C,,T,,M,,N,,M*2C
20220704 200516+00:00 $HCHDT,110.9,T*20
20220704 200516+00:00 $GPRMC,200510,A,4825.8000,N,12421.4398,W,7.79,112,040722,11.9,E,A,V*6B
20220704 200516+00:00 $WIMWV,344.79,R,4.3,N,A*19
20220704 200518+00:00 $IIMDA,29.9,I,1.013,B,11.4,C,,C,93.9,,,C,,T,,M,,N,,M*2C
20220704 200518+00:00 $HCHDT,110.9,T*20
20220704 200518+00:00 $GPRMC,200512,A,4825.8000,N,12421.4296,W,7.79,112,040722,11.9,E,A,V*66
20220704 200518+00:00 $WIMWV,349.49,R,4.68,N,A*2A
20220704 200520+00:00 $IIMDA,29.9,I,1.013,B,11.4,C,,C,93.9,,,C,,T,,M,,N,,M*2C
20220704 200520+00:00 $HCHDT,110.9,T*20
20220704 200520+00:00 $GPRMC,200514,A,4825.8000,N,12421.4296,W,7.79,112,040722,11.9,E,A,V*60
20220704 200520+00:00 $WIMWV,338.19,R,4.68,N,A*29
20220704 200522+00:00 $IIMDA,29.9,I,1.013,B,11.4,C,,C,93.9,,,C,,T,,M,,N,,M*2C
20220704 200522+00:00 $HCHDT,111.1,T*29
20220704 200522+00:00 $GPRMC,200516,A,4825.8000,N,12421.4200,W,7.79,112,040722,11.9,E,A,V*6D
20220704 200522+00:00 $WIMWV,341.69,R,4.49,N,A*23
20220704 200524+00:00 $IIMDA,29.9,I,1.013,B,11.4,C,,C,93.9,,,C,,T,,M,,N,,M*2C
20220704 200524+00:00 $HCHDT,111.1,T*29
20220704 200524+00:00 $GPRMC,200518,A,4825.8000,N,12421.4098,W,7.79,112,040722,11.9,E,A,V*60
20220704 200524+00:00 $WIMWV,354.99,R,4.78,N,A*2A
20220704 200526+00:00 $IIMDA,29.9,I,1.013,B,11.4,C,,C,93.9,,,C,,T,,M,,N,,M*2C
20220704 200526+00:00 $HCHDT,111,T*36
20220704 200526+00:00 $GPRMC,200520,A,4825.8000,N,12421.4098,W,7.79,112,040722,11.9,E,A,V*6B
20220704 200526+00:00 $WIMWV,354.09,R,4.59,N,A*20
20220704 200528+00:00 $IIMDA,29.9,I,1.013,B,11.4,C,,C,93.9,,,C,,T,,M,,N,,M*2C
20220704 200528+00:00 $HCHDT,110.9,T*20
20220704 200528+00:00 $GPRMC,200522,A,4825.7898,N,12421.3996,W,7.79,112,040722,11.9,E,A,V*6F
20220704 200528+00:00 $WIMWV,343.39,R,4.59,N,A*25
20220704 200530+00:00 $IIMDA,29.9,I,1.013,B,11.4,C,,C,93.9,,,C,,T,,M,,N,,M*2C
20220704 200530+00:00 $HCHDT,110.7,T*2E
20220704 200530+00:00 $GPRMC,200524,A,4825.7898,N,12421.3996,W,7.79,112,040722,11.9,E,A,V*69
20220704 200530+00:00 $WIMWV,350.39,R,4.08,N,A*23
20220704 200532+00:00 $IIMDA,29.9,I,1.013,B,11.4,C,,C,93.9,,,C,,T,,M,,N,,M*2C
20220704 200532+00:00 $HCHDT,110.6,T*2F
20220704 200532+00:00 $GPRMC,200526,A,4825.7898,N,12421.3900,W,7.79,112,040722,11.9,E,A,V*64
20220704 200532+00:00 $WIMWV,353.59,R,4.08,N,A*26
20220704 200534+00:00 $IIMDA,29.9,I,1.013,B,11.4,C,,C,93.9,,,C,,T,,M,,N,,M*2C
20220704 200534+00:00 $HCHDT,110.8,T*21
20220704 200534+00:00 $GPRMC,200528,A,4825.7898,N,12421.3798,W,7.79,112,040722,11.9,E,A,V*65
20220704 200534+00:00 $WIMWV,352.19,R,4.49,N,A*26
20220704 200536+00:00 $IIMDA,29.9,I,1.013,B,11.4,C,,C,93.9,,,C,,T,,M,,N,,M*2C
20220704 200536+00:00 $HCHDT,110.8,T*21
20220704 200536+00:00 $GPRMC,200530,A,4825.7898,N,12421.3798,W,7.79,112,040722,11.9,E,A,V*6C
20220704 200536+00:00 $WIMWV,332.09,R,5.09,N,A*24
20220704 200538+00:00 $IIMDA,29.9,I,1.013,B,11.4,C,,C,93.9,,,C,,T,,M,,N,,M*2C
20220704 200538+00:00 $HCHDT,110.7,T*2E
20220704 200538+00:00 $GPRMC,200532,A,4825.7898,N,12421.3696,W,7.79,112,040722,11.9,E,A,V*61
20220704 200538+00:00 $WIMWV,328.39,R,5.79,N,A*2B
20220704 200540+00:00 $IIMDA,29.9,I,1.013,B,11.4,C,,C,93.9,,,C,,T,,M,,N,,M*2C
20220704 200540+00:00 $HCHDT,110.4,T*2D
20220704 200540+00:00 $GPRMC,200534,A,4825.7796,N,12421.3696,W,7.79,112,040722,11.9,E,A,V*66
20220704 200540+00:00 $WIMWV,344.09,R,4.39,N,A*27
20220704 200542+00:00 $IIMDA,29.9,I,1.013,B,11.4,C,,C,93.8,,,C,,T,,M,,N,,M*2D
20220704 200542+00:00 $HCHDT,110.2,T*2B
20220704 200542+00:00 $GPRMC,200536,A,4825.7796,N,12421.3600,W,7.79,112,040722,11.9,E,A,V*6B
20220704 200542+00:00 $WIMWV,338.79,R,4.59,N,A*2D
20220704 200544+00:00 $IIMDA,29.9,I,1.013,B,11.4,C,,C,93.8,,,C,,T,,M,,N,,M*2D
20220704 200544+00:00 $HCHDT,110.1,T*28
20220704 200544+00:00 $GPRMC,200538,A,4825.7796,N,12421.3498,W,7.79,112,040722,11.9,E,A,V*66
20220704 200544+00:00 $WIMWV,343.39,R,4.49,N,A*24
20220704 200546+00:00 $IIMDA,29.9,I,1.013,B,11.4,C,,C,93.9,,,C,,T,,M,,N,,M*2C
20220704 200546+00:00 $HCHDT,110,T*37
20220704 200546+00:00 $GPRMC,200540,A,4825.7796,N,12421.3498,W,7.79,112,040722,11.9,E,A,V*69
20220704 200546+00:00 $WIMWV,336.79,R,5.09,N,A*27
20220704 200548+00:00 $IIMDA,29.9,I,1.013,B,11.4,C,,C,93.8,,,C,,T,,M,,N,,M*2D
20220704 200548+00:00 $HCHDT,109.9,T*28
20220704 200548+00:00 $GPRMC,200542,A,4825.7796,N,12421.3396,W,7.79,112,040722,11.9,E,A,V*62
20220704 200548+00:00 $WIMWV,346.59,R,4.49,N,A*27
20220704 200550+00:00 $IIMDA,29.9,I,1.013,B,11.4,C,,C,93.9,,,C,,T,,M,,N,,M*2C
20220704 200550+00:00 $HCHDT,109.9,T*28
20220704 200550+00:00 $GPRMC,200544,A,4825.7796,N,12421.3300,W,7.79,112,040722,11.9,E,A,V*6B
20220704 200550+00:00 $WIMWV,356.99,R,4.39,N,A*2D
20220704 200552+00:00 $IIMDA,29.9,I,1.013,B,11.4,C,,C,93.9,,,C,,T,,M,,N,,M*2C
20220704 200552+00:00 $HCHDT,109.9,T*28
20220704 200552+00:00 $GPRMC,200546,A,4825.7700,N,12421.3300,W,7.79,112,040722,11.9,E,A,V*66
20220704 200552+00:00 $WIMWV,345.29,R,3.98,N,A*28
20220704 200554+00:00 $IIMDA,29.9,I,1.013,B,11.4,C,,C,93.8,,,C,,T,,M,,N,,M*2D
20220704 200554+00:00 $HCHDT,109.8,T*29
20220704 200554+00:00 $GPRMC,200548,A,4825.7700,N,12421.3198,W,7.79,112,040722,11.9,E,A,V*6B
20220704 200554+00:00 $WIMWV,332.69,R,6.08,N,A*20
20220704 200556+00:00 $IIMDA,29.9,I,1.013,B,11.4,C,,C,93.9,,,C,,T,,M,,N,,M*2C
20220704 200556+00:00 $HCHDT,109.8,T*29
20220704 200556+00:00 $GPRMC,200550,A,4825.7700,N,12421.3198,W,7.79,112,040722,11.9,E,A,V*62
20220704 200556+00:00 $WIMWV,353.19,R,4.68,N,A*24
20220704 200558+00:00 $IIMDA,29.9,I,1.013,B,11.4,C,,C,93.8,,,C,,T,,M,,N,,M*2D
20220704 200558+00:00 $HCHDT,110.1,T*28
20220704 200558+00:00 $GPRMC,200552,A,4825.7700,N,12421.3096,W,7.79,112,040722,11.9,E,A,V*6F
20220704 200558+00:00 $WIMWV,346.69,R,4.2,N,A*1B
20220704 200600+00:00 $IIMDA,29.9,I,1.013,B,11.4,C,,C,93.9,,,C,,T,,M,,N,,M*2C
20220704 200600+00:00 $HCHDT,110.4,T*2D
20220704 200600+00:00 $GPRMC,200554,A,4825.7700,N,12421.3000,W,7.79,112,040722,11.9,E,A,V*66
20220704 200600+00:00 $WIMWV,337.99,R,4.68,N,A*2E
20220704 200602+00:00 $IIMDA,29.9,I,1.013,B,11.4,C,,C,93.8,,,C,,T,,M,,N,,M*2D
20220704 200602+00:00 $HCHDT,110.7,T*2E
20220704 200602+00:00 $GPRMC,200556,A,4825.7700,N,12421.3000,W,7.79,112,040722,11.9,E,A,V*64
20220704 200602+00:00 $WIMWV,346.29,R,4.39,N,A*27
20220704 200604+00:00 $IIMDA,29.9,I,1.013,B,11.4,C,,C,93.8,,,C,,T,,M,,N,,M*2D
20220704 200604+00:00 $HCHDT,110.8,T*21
20220704 200604+00:00 $GPRMC,200558,A,4825.7598,N,12421.2898,W,7.79,112,040722,11.9,E,A,V*61
20220704 200604+00:00 $WIMWV,339.29,R,4.78,N,A*2A
20220704 200606+00:00 $IIMDA,29.9,I,1.014,B,11.4,C,,C,93.8,,,C,,T,,M,,N,,M*2A
20220704 200606+00:00 $HCHDT,111,T*36
20220704 200606+00:00 $GPRMC,200600,A,4825.7598,N,12421.2898,W,7.79,112,040722,11.9,E,A,V*6F
20220704 200606+00:00 $WIMWV,341.49,R,4.2,N,A*1E
20220704 200608+00:00 $IIMDA,29.9,I,1.014,B,11.4,C,,C,93.8,,,C,,T,,M,,N,,M*2A
20220704 200608+00:00 $HCHDT,111.3,T*2B
20220704 200608+00:00 $GPRMC,200602,A,4825.7598,N,12421.2796,W,7.79,112,040722,11.9,E,A,V*6C
20220704 200608+00:00 $WIMWV,351.49,R,4.39,N,A*27
20220704 200610+00:00 $IIMDA,29.9,I,1.014,B,11.4,C,,C,93.8,,,C,,T,,M,,N,,M*2A
20220704 200610+00:00 $HCHDT,111.8,T*20
20220704 200610+00:00 $GPRMC,200604,A,4825.7598,N,12421.2700,W,7.79,112,040722,11.9,E,A,V*65
20220704 200610+00:00 $WIMWV,344.59,R,4.49,N,A*25
20220704 200612+00:00 $IIMDA,29.9,I,1.014,B,11.4,C,,C,93.8,,,C,,T,,M,,N,,M*2A
20220704 200612+00:00 $HCHDT,112.1,T*2A
20220704 200612+00:00 $GPRMC,200606,A,4825.7598,N,12421.2700,W,7.79,113,040722,11.9,E,A,V*66
20220704 200612+00:00 $WIMWV,340.69,R,4.39,N,A*25
20220704 200614+00:00 $IIMDA,29.9,I,1.014,B,11.4,C,,C,93.8,,,C,,T,,M,,N,,M*2A
20220704 200614+00:00 $HCHDT,112,T*35
20220704 200614+00:00 $GPRMC,200608,A,4825.7598,N,12421.2598,W,7.79,113,040722,11.9,E,A,V*6B
20220704 200614+00:00 $WIMWV,347.19,R,4.08,N,A*27
20220704 200616+00:00 $IIMDA,29.9,I,1.013,B,11.4,C,,C,93.8,,,C,,T,,M,,N,,M*2D
20220704 200616+00:00 $HCHDT,111.7,T*2F
20220704 200616+00:00 $GPRMC,200610,A,4825.7496,N,12421.2598,W,7.79,113,040722,11.9,E,A,V*6D
20220704 200616+00:00 $WIMWV,339.89,R,4.3,N,A*1C
20220704 200618+00:00 $IIMDA,29.9,I,1.013,B,11.4,C,,C,93.8,,,C,,T,,M,,N,,M*2D
20220704 200618+00:00 $HCHDT,111.6,T*2E
20220704 200618+00:00 $GPRMC,200612,A,4825.7496,N,12421.2496,W,7.79,113,040722,11.9,E,A,V*60
20220704 200618+00:00 $WIMWV,341.99,R,4.49,N,A*2C
20220704 200620+00:00 $IIMDA,29.9,I,1.014,B,11.4,C,,C,93.9,,,C,,T,,M,,N,,M*2B
20220704 200620+00:00 $HCHDT,111.6,T*2E
20220704 200620+00:00 $GPRMC,200614,A,4825.7496,N,12421.2400,W,7.79,113,040722,11.9,E,A,V*69
20220704 200620+00:00 $WIMWV,332.09,R,5.38,N,A*26
20220704 200622+00:00 $IIMDA,29.9,I,1.014,B,11.4,C,,C,93.8,,,C,,T,,M,,N,,M*2A
20220704 200622+00:00 $HCHDT,111.7,T*2F
20220704 200622+00:00 $GPRMC,200616,A,4825.7496,N,12421.2400,W,7.79,114,040722,11.9,E,A,V*6C
20220704 200622+00:00 $WIMWV,337.19,R,4.2,N,A*1A
20220704 200624+00:00 $IIMDA,29.9,I,1.014,B,11.4,C,,C,93.8,,,C,,T,,M,,N,,M*2A
20220704 200624+00:00 $HCHDT,111.7,T*2F
20220704 200624+00:00 $GPRMC,200618,A,4825.7496,N,12421.2298,W,7.79,114,040722,11.9,E,A,V*65
20220704 200624+00:00 $WIMWV,344.39,R,4.08,N,A*26
20220704 200626+00:00 $IIMDA,29.9,I,1.014,B,11.4,C,,C,93.8,,,C,,T,,M,,N,,M*2A
20220704 200626+00:00 $HCHDT,111.4,T*2C
20220704 200626+00:00 $GPRMC,200620,A,4825.7496,N,12421.2298,W,7.79,113,040722,11.9,E,A,V*69
20220704 200626+00:00 $WIMWV,0.19,R,4.39,N,A*25
20220704 200628+00:00 $IIMDA,29.9,I,1.014,B,11.4,C,,C,93.8,,,C,,T,,M,,N,,M*2A
20220704 200628+00:00 $HCHDT,111.1,T*29
20220704 200628+00:00 $GPRMC,200622,A,4825.7400,N,12421.2196,W,7.79,113,040722,11.9,E,A,V*69
20220704 200628+00:00 $WIMWV,342.09,R,4.2,N,A*19
20220704 200630+00:00 $IIMDA,29.9,I,1.014,B,11.4,C,,C,93.9,,,C,,T,,M,,N,,M*2B
20220704 200630+00:00 $HCHDT,110.9,T*20
20220704 200630+00:00 $GPRMC,200624,A,4825.7400,N,12421.2100,W,7.79,113,040722,11.9,E,A,V*60
20220704 200630+00:00 $WIMWV,333.69,R,5.38,N,A*21
20220704 200632+00:00 $IIMDA,29.9,I,1.014,B,11.4,C,,C,93.9,,,C,,T,,M,,N,,M*2B
20220704 200632+00:00 $HCHDT,110.9,T*20
20220704 200632+00:00 $GPRMC,200626,A,4825.7400,N,12421.2100,W,7.79,113,040722,11.9,E,A,V*62
20220704 200632+00:00 $WIMWV,340.99,R,4.49,N,A*2D
20220704 200634+00:00 $IIMDA,29.9,I,1.013,B,11.4,C,,C,93.8,,,C,,T,,M,,N,,M*2D
20220704 200634+00:00 $HCHDT,111,T*36
20220704 200634+00:00 $GPRMC,200628,A,4825.7400,N,12421.1998,W,7.79,113,040722,11.9,E,A,V*66
20220704 200634+00:00 $WIMWV,353.59,R,4.9,N,A*17
20220704 200636+00:00 $IIMDA,29.9,I,1.013,B,11.4,C,,C,93.8,,,C,,T,,M,,N,,M*2D
20220704 200636+00:00 $HCHDT,111,T*36
20220704 200636+00:00 $GPRMC,200630,A,4825.7400,N,12421.1998,W,7.79,113,040722,11.9,E,A,V*6F
20220704 200636+00:00 $WIMWV,344.49,R,3.98,N,A*2F
20220704 200638+00:00 $IIMDA,29.9,I,1.013,B,11.4,C,,C,93.9,,,C,,T,,M,,N,,M*2C
20220704 200638+00:00 $HCHDT,110.9,T*20
20220704 200638+00:00 $GPRMC,200632,A,4825.7400,N,12421.1896,W,7.79,113,040722,11.9,E,A,V*62
20220704 200638+00:00 $WIMWV,337.59,R,4.39,N,A*26
20220704 200640+00:00 $IIMDA,29.9,I,1.013,B,11.4,C,,C,93.9,,,C,,T,,M,,N,,M*2C
20220704 200640+00:00 $HCHDT,110.6,T*2F
20220704 200640+00:00 $GPRMC,200634,A,4825.7298,N,12421.1800,W,7.79,112,040722,11.9,E,A,V*6D
20220704 200640+00:00 $WIMWV,338.49,R,4.68,N,A*2C
20220704 200642+00:00 $IIMDA,29.9,I,1.013,B,11.4,C,,C,93.8,,,C,,T,,M,,N,,M*2D
20220704 200642+00:00 $HCHDT,110.6,T*2F
20220704 200642+00:00 $GPRMC,200636,A,4825.7298,N,12421.1800,W,7.79,112,040722,11.9,E,A,V*6F
20220704 200642+00:00 $WIMWV,342.29,R,4.68,N,A*27
20220704 200644+00:00 $IIMDA,29.9,I,1.013,B,11.4,C,,C,93.8,,,C,,T,,M,,N,,M*2D
20220704 200644+00:00 $HCHDT,110.7,T*2E
20220704 200644+00:00 $GPRMC,200638,A,4825.7298,N,12421.1698,W,7.79,112,040722,11.9,E,A,V*6E
20220704 200644+00:00 $WIMWV,334.99,R,5.7,N,A*15
20220704 200646+00:00 $IIMDA,29.9,I,1.013,B,11.4,C,,C,93.8,,,C,,T,,M,,N,,M*2D
20220704 200646+00:00 $HCHDT,110.9,T*20
20220704 200646+00:00 $GPRMC,200640,A,4825.7298,N,12421.1698,W,7.79,112,040722,11.9,E,A,V*61
20220704 200646+00:00 $WIMWV,355.69,R,4.49,N,A*26
20220704 200648+00:00 $IIMDA,29.9,I,1.013,B,11.4,C,,C,93.8,,,C,,T,,M,,N,,M*2D
20220704 200648+00:00 $HCHDT,110.8,T*21
20220704 200648+00:00 $GPRMC,200642,A,4825.7298,N,12421.1596,W,7.79,112,040722,11.9,E,A,V*6E
20220704 200648+00:00 $WIMWV,349.79,R,4.68,N,A*29
20220704 200650+00:00 $IIMDA,29.9,I,1.013,B,11.4,C,,C,93.8,,,C,,T,,M,,N,,M*2D
20220704 200650+00:00 $HCHDT,110.6,T*2F
20220704 200650+00:00 $GPRMC,200644,A,4825.7298,N,12421.1500,W,7.79,112,040722,11.9,E,A,V*67
20220704 200650+00:00 $WIMWV,347.99,R,4.2,N,A*15
20220704 200652+00:00 $IIMDA,29.9,I,1.013,B,11.4,C,,C,93.8,,,C,,T,,M,,N,,M*2D
20220704 200652+00:00 $HCHDT,110.8,T*21
20220704 200652+00:00 $GPRMC,200646,A,4825.7196,N,12421.1500,W,7.79,112,040722,11.9,E,A,V*68
20220704 200652+00:00 $WIMWV,347.49,R,4.68,N,A*24
20220704 200654+00:00 $IIMDA,29.9,I,1.013,B,11.4,C,,C,93.8,,,C,,T,,M,,N,,M*2D
20220704 200654+00:00 $HCHDT,110.9,T*20
20220704 200654+00:00 $GPRMC,200648,A,4825.7196,N,12421.1398,W,7.79,112,040722,11.9,E,A,V*61
20220704 200654+00:00 $WIMWV,334.39,R,5.19,N,A*20
20220704 200656+00:00 $IIMDA,29.9,I,1.013,B,11.4,C,,C,93.8,,,C,,T,,M,,N,,M*2D
20220704 200656+00:00 $HCHDT,111,T*36
20220704 200656+00:00 $GPRMC,200650,A,4825.7196,N,12421.1398,W,7.79,112,040722,11.9,E,A,V*68
20220704 200656+00:00 $WIMWV,336.79,R,4.78,N,A*20
20220704 200658+00:00 $IIMDA,29.9,I,1.013,B,11.4,C,,C,93.8,,,C,,T,,M,,N,,M*2D
20220704 200658+00:00 $HCHDT,111,T*36
20220704 200658+00:00 $GPRMC,200652,A,4825.7196,N,12421.1296,W,7.79,113,040722,11.9,E,A,V*64
20220704 200658+00:00 $WIMWV,337.39,R,4.9,N,A*13
20220704 200700+00:00 $IIMDA,29.9,I,1.013,B,11.4,C,,C,93.8,,,C,,T,,M,,N,,M*2D
20220704 200700+00:00 $HCHDT,110.9,T*20
20220704 200700+00:00 $GPRMC,200654,A,4825.7196,N,12421.1200,W,7.79,113,040722,11.9,E,A,V*6D
20220704 200700+00:00 $WIMWV,348.79,R,4.59,N,A*2A
20220704 200702+00:00 $IIMDA,29.9,I,1.013,B,11.4,C,,C,93.8,,,C,,T,,M,,N,,M*2D
20220704 200702+00:00 $HCHDT,110.8,T*21
20220704 200702+00:00 $GPRMC,200656,A,4825.7196,N,12421.1200,W,7.79,113,040722,11.9,E,A,V*6F
20220704 200702+00:00 $WIMWV,353.89,R,4.49,N,A*2E
20220704 200704+00:00 $IIMDA,29.9,I,1.013,B,11.4,C,,C,93.8,,,C,,T,,M,,N,,M*2D
20220704 200704+00:00 $HCHDT,110.5,T*2C
20220704 200704+00:00 $GPRMC,200658,A,4825.7100,N,12421.1098,W,7.79,113,040722,11.9,E,A,V*6D
20220704 200704+00:00 $WIMWV,335.69,R,4.9,N,A*14
20220704 200706+00:00 $IIMDA,29.9,I,1.013,B,11.4,C,,C,93.8,,,C,,T,,M,,N,,M*2D
20220704 200706+00:00 $HCHDT,110.8,T*21
20220704 200706+00:00 $GPRMC,200700,A,4825.7100,N,12421.1098,W,7.79,113,040722,11.9,E,A,V*61
20220704 200706+00:00 $WIMWV,351.69,R,4.68,N,A*21
20220704 200708+00:00 $IIMDA,29.9,I,1.013,B,11.4,C,,C,93.8,,,C,,T,,M,,N,,M*2D
20220704 200708+00:00 $HCHDT,111.1,T*29
20220704 200708+00:00 $GPRMC,200702,A,4825.7100,N,12421.0996,W,7.79,113,040722,11.9,E,A,V*65
20220704 200708+00:00 $WIMWV,352.29,R,4.49,N,A*25
20220704 200710+00:00 $IIMDA,29.9,I,1.013,B,11.4,C,,C,93.8,,,C,,T,,M,,N,,M*2D
20220704 200710+00:00 $HCHDT,111.1,T*29
20220704 200710+00:00 $GPRMC,200704,A,4825.7100,N,12421.0900,W,7.79,113,040722,11.9,E,A,V*6C
20220704 200710+00:00 $WIMWV,353.79,R,4.08,N,A*24
20220704 200712+00:00 $IIMDA,29.9,I,1.013,B,11.4,C,,C,93.8,,,C,,T,,M,,N,,M*2D
20220704 200712+00:00 $HCHDT,110.9,T*20
20220704 200712+00:00 $GPRMC,200706,A,4825.7100,N,12421.0900,W,7.79,113,040722,11.9,E,A,V*6E
20220704 200712+00:00 $WIMWV,340.59,R,4.3,N,A*1F
20220704 200714+00:00 $IIMDA,29.9,I,1.014,B,11.4,C,,C,93.8,,,C,,T,,M,,N,,M*2A
20220704 200714+00:00 $HCHDT,110.7,T*2E
20220704 200714+00:00 $GPRMC,200708,A,4825.7100,N,12421.0798,W,7.79,113,040722,11.9,E,A,V*6F
20220704 200714+00:00 $WIMWV,355.59,R,4.49,N,A*25
20220704 200716+00:00 $IIMDA,29.9,I,1.013,B,11.4,C,,C,93.8,,,C,,T,,M,,N,,M*2D
20220704 200716+00:00 $HCHDT,110.8,T*21
20220704 200716+00:00 $GPRMC,200710,A,4825.6998,N,12421.0798,W,7.79,113,040722,11.9,E,A,V*6E
20220704 200716+00:00 $WIMWV,334.79,R,5.19,N,A*24
20220704 200718+00:00 $IIMDA,29.9,I,1.013,B,11.4,C,,C,93.8,,,C,,T,,M,,N,,M*2D
20220704 200718+00:00 $HCHDT,110.9,T*20
20220704 200718+00:00 $GPRMC,200712,A,4825.6998,N,12421.0696,W,7.79,113,040722,11.9,E,A,V*63
20220704 200718+00:00 $WIMWV,354.39,R,4.39,N,A*25
20220704 200720+00:00 $IIMDA,29.9,I,1.013,B,11.4,C,,C,93.8,,,C,,T,,M,,N,,M*2D
20220704 200720+00:00 $HCHDT,111,T*36
20220704 200720+00:00 $GPRMC,200714,A,4825.6998,N,12421.0600,W,7.79,113,040722,11.9,E,A,V*6A
20220704 200720+00:00 $WIMWV,342.59,R,4.49,N,A*23
20220704 200722+00:00 $IIMDA,29.9,I,1.013,B,11.4,C,,C,93.8,,,C,,T,,M,,N,,M*2D
20220704 200722+00:00 $HCHDT,110.9,T*20
20220704 200722+00:00 $GPRMC,200716,A,4825.6998,N,12421.0600,W,7.79,113,040722,11.9,E,A,V*68
20220704 200722+00:00 $WIMWV,344.59,R,4.59,N,A*24
20220704 200724+00:00 $IIMDA,29.9,I,1.013,B,11.4,C,,C,93.8,,,C,,T,,M,,N,,M*2D
20220704 200724+00:00 $HCHDT,110.8,T*21
20220704 200724+00:00 $GPRMC,200718,A,4825.6998,N,12421.0498,W,7.79,113,040722,11.9,E,A,V*65
20220704 200724+00:00 $WIMWV,337.79,R,4.49,N,A*23
20220704 200726+00:00 $IIMDA,29.9,I,1.013,B,11.4,C,,C,93.8,,,C,,T,,M,,N,,M*2D
20220704 200726+00:00 $HCHDT,110.6,T*2F
20220704 200726+00:00 $GPRMC,200720,A,4825.6998,N,12421.0498,W,7.79,113,040722,11.9,E,A,V*6E
20220704 200726+00:00 $WIMWV,342.59,R,4.39,N,A*24
20220704 200728+00:00 $IIMDA,29.9,I,1.013,B,11.4,C,,C,93.8,,,C,,T,,M,,N,,M*2D
20220704 200728+00:00 $HCHDT,110.6,T*2F
20220704 200728+00:00 $GPRMC,200722,A,4825.6896,N,12421.0396,W,7.79,113,040722,11.9,E,A,V*6A
20220704 200728+00:00 $WIMWV,341.69,R,5.09,N,A*26
20220704 200730+00:00 $IIMDA,29.9,I,1.013,B,11.4,C,,C,93.8,,,C,,T,,M,,N,,M*2D
20220704 200730+00:00 $HCHDT,110.7,T*2E
20220704 200730+00:00 $GPRMC,200724,A,4825.6896,N,12421.0300,W,7.79,113,040722,11.9,E,A,V*63
20220704 200730+00:00 $WIMWV,343.79,R,4.39,N,A*27
20220704 200732+00:00 $IIMDA,29.9,I,1.014,B,11.4,C,,C,93.8,,,C,,T,,M,,N,,M*2A
20220704 200732+00:00 $HCHDT,110.6,T*2F
20220704 200732+00:00 $GPRMC,200726,A,4825.6896,N,12421.0300,W,7.79,113,040722,11.9,E,A,V*61
20220704 200732+00:00 $WIMWV,350.49,R,4.39,N,A*26
20220704 200734+00:00 $IIMDA,29.9,I,1.013,B,11.4,C,,C,93.8,,,C,,T,,M,,N,,M*2D
20220704 200734+00:00 $HCHDT,110.3,T*2A
20220704 200734+00:00 $GPRMC,200728,A,4825.6896,N,12421.0198,W,7.79,113,040722,11.9,E,A,V*6C
20220704 200734+00:00 $WIMWV,348.79,R,4.78,N,A*29
20220704 200736+00:00 $IIMDA,29.9,I,1.013,B,11.4,C,,C,93.7,,,C,,T,,M,,N,,M*22
20220704 200736+00:00 $HCHDT,110,T*37
20220704 200736+00:00 $GPRMC,200730,A,4825.6896,N,12421.0198,W,7.79,112,040722,11.9,E,A,V*64
20220704 200736+00:00 $WIMWV,358.09,R,5,N,A*0F
20220704 200738+00:00 $IIMDA,29.9,I,1.013,B,11.4,C,,C,93.7,,,C,,T,,M,,N,,M*22
20220704 200738+00:00 $HCHDT,110.1,T*28
20220704 200738+00:00 $GPRMC,200732,A,4825.6896,N,12421.0096,W,7.79,112,040722,11.9,E,A,V*69
20220704 200738+00:00 $WIMWV,6.59,R,5.29,N,A*27
20220704 200740+00:00 $IIMDA,29.9,I,1.013,B,11.4,C,,C,93.8,,,C,,T,,M,,N,,M*2D
20220704 200740+00:00 $HCHDT,110.2,T*2B
20220704 200740+00:00 $GPRMC,200734,A,4825.6800,N,12421.0000,W,7.79,112,040722,11.9,E,A,V*6F
20220704 200740+00:00 $WIMWV,353.09,R,4.59,N,A*27
