20220705 080001+00:00 $IIMDA,29.9,I,1.013,B,13.4,C,,C,88.8,,,C,,T,,M,,N,,M*25
20220705 080001+00:00 $HCHDT,313.6,T*2E
20220705 080001+00:00 $GPRMC,075956,A,4901.1700,N,12316.5600,W,6.01,313,050722,11.8,E,A,V*67
20220705 080001+00:00 $WIMWV,22.3,R,2.9,N,A*1B
20220705 080003+00:00 $IIMDA,29.9,I,1.013,B,13.4,C,,C,88.9,,,C,,T,,M,,N,,M*24
20220705 080003+00:00 $HCHDT,313.7,T*2F
20220705 080003+00:00 $GPRMC,075958,A,4901.1700,N,12316.5600,W,6.01,313,050722,11.8,E,A,V*69
20220705 080003+00:00 $WIMWV,0.19,R,4.9,N,A*16
20220705 080005+00:00 $IIMDA,29.9,I,1.013,B,13.4,C,,C,88.8,,,C,,T,,M,,N,,M*25
20220705 080005+00:00 $HCHDT,313.9,T*21
20220705 080005+00:00 $GPRMC,080000,A,4901.1700,N,12316.5696,W,6.01,313,050722,11.8,E,A,V*68
20220705 080005+00:00 $WIMWV,17.8,R,3.38,N,A*25
20220705 080007+00:00 $IIMDA,29.9,I,1.013,B,13.4,C,,C,88.8,,,C,,T,,M,,N,,M*25
20220705 080007+00:00 $HCHDT,314.1,T*2E
20220705 080007+00:00 $GPRMC,080002,A,4901.1796,N,12316.5696,W,6.01,313,050722,11.8,E,A,V*65
20220705 080007+00:00 $WIMWV,10.79,R,2.99,N,A*1E
20220705 080009+00:00 $IIMDA,29.9,I,1.013,B,13.4,C,,C,88.8,,,C,,T,,M,,N,,M*25
20220705 080009+00:00 $HCHDT,314.3,T*2C
20220705 080009+00:00 $GPRMC,080004,A,4901.1796,N,12316.5696,W,6.01,313,050722,11.8,E,A,V*63
20220705 080009+00:00 $WIMWV,12.6,R,3.79,N,A*2B
20220705 080011+00:00 $IIMDA,29.9,I,1.013,B,13.4,C,,C,88.8,,,C,,T,,M,,N,,M*25
20220705 080011+00:00 $HCHDT,314.4,T*2B
20220705 080011+00:00 $GPRMC,080006,A,4901.1796,N,12316.5798,W,6.01,313,050722,11.8,E,A,V*6E
20220705 080011+00:00 $WIMWV,10.4,R,4.2,N,A*10
20220705 080013+00:00 $IIMDA,29.9,I,1.013,B,13.4,C,,C,88.8,,,C,,T,,M,,N,,M*25
20220705 080013+00:00 $HCHDT,314.5,T*2A
20220705 080013+00:00 $GPRMC,080008,A,4901.1796,N,12316.5798,W,6.01,313,050722,11.8,E,A,V*60
20220705 080013+00:00 $WIMWV,8.2,R,3.29,N,A*11
20220705 080015+00:00 $IIMDA,29.9,I,1.013,B,13.4,C,,C,88.8,,,C,,T,,M,,N,,M*25
20220705 080015+00:00 $HCHDT,314.7,T*28
20220705 080015+00:00 $GPRMC,080010,A,4901.1898,N,12316.5798,W,6.01,313,050722,11.8,E,A,V*68
20220705 080015+00:00 $WIMWV,8.3,R,3.98,N,A*1A
20220705 080017+00:00 $IIMDA,29.9,I,1.013,B,13.4,C,,C,88.8,,,C,,T,,M,,N,,M*25
20220705 080017+00:00 $HCHDT,314.7,T*28
20220705 080017+00:00 $GPRMC,080012,A,4901.1898,N,12316.5900,W,6.01,313,050722,11.8,E,A,V*65
20220705 080017+00:00 $WIMWV,11.6,R,3.69,N,A*29
20220705 080019+00:00 $IIMDA,29.9,I,1.013,B,13.4,C,,C,88.8,,,C,,T,,M,,N,,M*25
20220705 080019+00:00 $HCHDT,314.8,T*27
20220705 080019+00:00 $GPRMC,080014,A,4901.1898,N,12316.5900,W,6.01,313,050722,11.8,E,A,V*63
20220705 080019+00:00 $WIMWV,17.3,R,3.79,N,A*2B
20220705 080021+00:00 $IIMDA,29.9,I,1.013,B,13.4,C,,C,88.7,,,C,,T,,M,,N,,M*2A
20220705 080021+00:00 $HCHDT,314.9,T*26
20220705 080021+00:00 $GPRMC,080016,A,4901.1898,N,12316.5900,W,6.01,313,050722,11.8,E,A,V*61
20220705 080021+00:00 $WIMWV,19.9,R,3.79,N,A*2F
20220705 080023+00:00 $IIMDA,29.9,I,1.013,B,13.4,C,,C,88.8,,,C,,T,,M,,N,,M*25
20220705 080023+00:00 $HCHDT,314.9,T*26
20220705 080023+00:00 $GPRMC,080018,A,4901.1898,N,12316.5996,W,6.01,313,050722,11.8,E,A,V*60
20220705 080023+00:00 $WIMWV,9.8,R,3.98,N,A*10
20220705 080025+00:00 $IIMDA,29.9,I,1.013,B,13.4,C,,C,88.8,,,C,,T,,M,,N,,M*25
20220705 080025+00:00 $HCHDT,314.9,T*26
20220705 080025+00:00 $GPRMC,080020,A,4901.2000,N,12316.5996,W,6.01,313,050722,11.8,E,A,V*61
20220705 080025+00:00 $WIMWV,14.09,R,4.49,N,A*16
20220705 080027+00:00 $IIMDA,29.9,I,1.013,B,13.4,C,,C,88.7,,,C,,T,,M,,N,,M*2A
20220705 080027+00:00 $HCHDT,314.9,T*26
20220705 080027+00:00 $GPRMC,080022,A,4901.2000,N,12316.6098,W,6.01,313,050722,11.8,E,A,V*67
20220705 080027+00:00 $WIMWV,22,R,3.29,N,A*35
20220705 080029+00:00 $IIMDA,29.9,I,1.013,B,13.4,C,,C,88.8,,,C,,T,,M,,N,,M*25
20220705 080029+00:00 $HCHDT,314.8,T*27
20220705 080029+00:00 $GPRMC,080024,A,4901.2000,N,12316.6098,W,6.01,313,050722,11.8,E,A,V*61
20220705 080029+00:00 $WIMWV,8.79,R,4.59,N,A*2D
20220705 080031+00:00 $IIMDA,29.9,I,1.013,B,13.4,C,,C,88.7,,,C,,T,,M,,N,,M*2A
20220705 080031+00:00 $HCHDT,314.7,T*28
20220705 080031+00:00 $GPRMC,080026,A,4901.2000,N,12316.6098,W,6.01,313,050722,11.8,E,A,V*63
20220705 080031+00:00 $WIMWV,29.9,R,4.49,N,A*28
20220705 080033+00:00 $IIMDA,29.9,I,1.013,B,13.4,C,,C,88.7,,,C,,T,,M,,N,,M*2A
20220705 080033+00:00 $HCHDT,314.5,T*2A
20220705 080033+00:00 $GPRMC,080028,A,4901.2096,N,12316.6200,W,6.01,313,050722,11.8,E,A,V*61
20220705 080033+00:00 $WIMWV,18.8,R,3.98,N,A*20
20220705 080035+00:00 $IIMDA,29.9,I,1.013,B,13.4,C,,C,88.7,,,C,,T,,M,,N,,M*2A
20220705 080035+00:00 $HCHDT,314.3,T*2C
20220705 080035+00:00 $GPRMC,080030,A,4901.2096,N,12316.6200,W,6.01,313,050722,11.8,E,A,V*68
20220705 080035+00:00 $WIMWV,20.4,R,4.2,N,A*13
20220705 080037+00:00 $IIMDA,29.9,I,1.013,B,13.4,C,,C,88.7,,,C,,T,,M,,N,,M*2A
20220705 080037+00:00 $HCHDT,313.9,T*21
20220705 080037+00:00 $GPRMC,080032,A,4901.2096,N,12316.6200,W,6.01,313,050722,11.8,E,A,V*6A
20220705 080037+00:00 $WIMWV,14.4,R,4.08,N,A*2E
20220705 080039+00:00 $IIMDA,29.9,I,1.013,B,13.4,C,,C,88.8,,,C,,T,,M,,N,,M*25
20220705 080039+00:00 $HCHDT,313.6,T*2E
20220705 080039+00:00 $GPRMC,080034,A,4901.2096,N,12316.6296,W,6.01,313,050722,11.8,E,A,V*63
20220705 080039+00:00 $WIMWV,3.2,R,3.98,N,A*10
20220705 080041+00:00 $IIMDA,29.9,I,1.013,B,13.4,C,,C,88.7,,,C,,T,,M,,N,,M*2A
20220705 080041+00:00 $HCHDT,313.2,T*2A
20220705 080041+00:00 $GPRMC,080036,A,4901.2198,N,12316.6296,W,6.01,313,050722,11.8,E,A,V*6E
20220705 080041+00:00 $WIMWV,13.89,R,4.08,N,A*1C
20220705 080043+00:00 $IIMDA,29.9,I,1.013,B,13.4,C,,C,88.7,,,C,,T,,M,,N,,M*2A
20220705 080043+00:00 $HCHDT,312.9,T*20
20220705 080043+00:00 $GPRMC,080038,A,4901.2198,N,12316.6398,W,6.01,313,050722,11.8,E,A,V*6F
20220705 080043+00:00 $WIMWV,29.09,R,4.2,N,A*27
20220705 080045+00:00 $IIMDA,29.9,I,1.013,B,13.4,C,,C,88.7,,,C,,T,,M,,N,,M*2A
20220705 080045+00:00 $HCHDT,312.6,T*2F
20220705 080045+00:00 $GPRMC,080040,A,4901.2198,N,12316.6398,W,6.01,312,050722,11.8,E,A,V*61
20220705 080045+00:00 $WIMWV,22.1,R,4.08,N,A*2E
20220705 080047+00:00 $IIMDA,29.9,I,1.013,B,13.4,C,,C,88.7,,,C,,T,,M,,N,,M*2A
20220705 080047+00:00 $HCHDT,312.4,T*2D
20220705 080047+00:00 $GPRMC,080042,A,4901.2198,N,12316.6398,W,6.01,312,050722,11.8,E,A,V*63
20220705 080047+00:00 $WIMWV,20.1,R,3.38,N,A*28
20220705 080049+00:00 $IIMDA,29.9,I,1.013,B,13.4,C,,C,88.7,,,C,,T,,M,,N,,M*2A
20220705 080049+00:00 $HCHDT,312.3,T*2A
20220705 080049+00:00 $GPRMC,080044,A,4901.2198,N,12316.6500,W,6.01,312,050722,11.8,E,A,V*62
20220705 080049+00:00 $WIMWV,21.59,R,3.69,N,A*10
20220705 080051+00:00 $IIMDA,29.9,I,1.013,B,13.4,C,,C,88.7,,,C,,T,,M,,N,,M*2A
20220705 080051+00:00 $HCHDT,312.3,T*2A
20220705 080051+00:00 $GPRMC,080046,A,4901.2300,N,12316.6500,W,6.01,312,050722,11.8,E,A,V*63
20220705 080051+00:00 $WIMWV,15.9,R,3.79,N,A*23
20220705 080053+00:00 $IIMDA,29.9,I,1.013,B,13.4,C,,C,88.7,,,C,,T,,M,,N,,M*2A
20220705 080053+00:00 $HCHDT,312.2,T*2B
20220705 080053+00:00 $GPRMC,080048,A,4901.2300,N,12316.6500,W,6.01,312,050722,11.8,E,A,V*6D
20220705 080053+00:00 $WIMWV,17,R,3.69,N,A*37
20220705 080055+00:00 $IIMDA,29.9,I,1.013,B,13.4,C,,C,88.7,,,C,,T,,M,,N,,M*2A
20220705 080055+00:00 $HCHDT,312.1,T*28
20220705 080055+00:00 $GPRMC,080050,A,4901.2300,N,12316.6596,W,6.01,312,050722,11.8,E,A,V*6B
20220705 080055+00:00 $WIMWV,22.6,R,3.79,N,A*28
20220705 080057+00:00 $IIMDA,29.9,I,1.013,B,13.4,C,,C,88.7,,,C,,T,,M,,N,,M*2A
20220705 080057+00:00 $HCHDT,312.2,T*2B
20220705 080057+00:00 $GPRMC,080052,A,4901.2300,N,12316.6596,W,6.01,312,050722,11.8,E,A,V*69
20220705 080057+00:00 $WIMWV,25.5,R,3.6,N,A*14
20220705 080059+00:00 $IIMDA,29.9,I,1.013,B,13.4,C,,C,88.7,,,C,,T,,M,,N,,M*2A
20220705 080059+00:00 $HCHDT,312.3,T*2A
20220705 080059+00:00 $GPRMC,080054,A,4901.2396,N,12316.6698,W,6.01,312,050722,11.8,E,A,V*6D
20220705 080059+00:00 $WIMWV,27.9,R,3.38,N,A*27
20220705 080101+00:00 $IIMDA,29.9,I,1.013,B,13.4,C,,C,88.7,,,C,,T,,M,,N,,M*2A
20220705 080101+00:00 $HCHDT,312.4,T*2D
20220705 080101+00:00 $GPRMC,080056,A,4901.2396,N,12316.6698,W,6.01,312,050722,11.8,E,A,V*6F
20220705 080101+00:00 $WIMWV,7.4,R,3.79,N,A*1D
20220705 080103+00:00 $IIMDA,29.9,I,1.013,B,13.4,C,,C,88.7,,,C,,T,,M,,N,,M*2A
20220705 080103+00:00 $HCHDT,312.6,T*2F
20220705 080103+00:00 $GPRMC,080058,A,4901.2396,N,12316.6698,W,6.01,312,050722,11.8,E,A,V*61
20220705 080103+00:00 $WIMWV,23.1,R,3.6,N,A*16
20220705 080105+00:00 $IIMDA,29.9,I,1.013,B,13.4,C,,C,88.7,,,C,,T,,M,,N,,M*2A
20220705 080105+00:00 $HCHDT,312.9,T*20
20220705 080105+00:00 $GPRMC,080100,A,4901.2396,N,12316.6800,W,6.01,312,050722,11.8,E,A,V*62
20220705 080105+00:00 $WIMWV,24.3,R,4.39,N,A*28
20220705 080107+00:00 $IIMDA,29.9,I,1.013,B,13.4,C,,C,88.7,,,C,,T,,M,,N,,M*2A
20220705 080107+00:00 $HCHDT,313.1,T*29
20220705 080107+00:00 $GPRMC,080102,A,4901.2396,N,12316.6800,W,6.01,312,050722,11.8,E,A,V*60
20220705 080107+00:00 $WIMWV,353.19,R,3.79,N,A*23
20220705 080109+00:00 $IIMDA,29.9,I,1.013,B,13.4,C,,C,88.7,,,C,,T,,M,,N,,M*2A
20220705 080109+00:00 $HCHDT,313.3,T*2B
20220705 080109+00:00 $GPRMC,080104,A,4901.2498,N,12316.6800,W,6.01,312,050722,11.8,E,A,V*6F
20220705 080109+00:00 $WIMWV,24,R,4.08,N,A*37
20220705 080111+00:00 $IIMDA,29.9,I,1.013,B,13.4,C,,C,88.7,,,C,,T,,M,,N,,M*2A
20220705 080111+00:00 $HCHDT,313.5,T*2D
20220705 080111+00:00 $GPRMC,080106,A,4901.2498,N,12316.6896,W,6.01,312,050722,11.8,E,A,V*62
20220705 080111+00:00 $WIMWV,24.6,R,4.3,N,A*14
20220705 080113+00:00 $IIMDA,29.9,I,1.013,B,13.4,C,,C,88.7,,,C,,T,,M,,N,,M*2A
20220705 080113+00:00 $HCHDT,313.7,T*2F
20220705 080113+00:00 $GPRMC,080108,A,4901.2498,N,12316.6896,W,6.01,312,050722,11.8,E,A,V*6C
20220705 080113+00:00 $WIMWV,21.9,R,3.38,N,A*21
20220705 080115+00:00 $IIMDA,29.9,I,1.013,B,13.4,C,,C,88.7,,,C,,T,,M,,N,,M*2A
20220705 080115+00:00 $HCHDT,313.8,T*20
20220705 080115+00:00 $GPRMC,080110,A,4901.2498,N,12316.6998,W,6.01,312,050722,11.8,E,A,V*6A
20220705 080115+00:00 $WIMWV,30.89,R,4.9,N,A*2C
20220705 080117+00:00 $IIMDA,29.9,I,1.013,B,13.4,C,,C,88.7,,,C,,T,,M,,N,,M*2A
20220705 080117+00:00 $HCHDT,313.9,T*21
20220705 080117+00:00 $GPRMC,080112,A,4901.2600,N,12316.6998,W,6.01,312,050722,11.8,E,A,V*6B
20220705 080117+00:00 $WIMWV,24.69,R,3.79,N,A*17
20220705 080119+00:00 $IIMDA,29.9,I,1.013,B,13.4,C,,C,88.6,,,C,,T,,M,,N,,M*2B
20220705 080119+00:00 $HCHDT,314,T*31
20220705 080119+00:00 $GPRMC,080114,A,4901.2600,N,12316.6998,W,6.01,313,050722,11.8,E,A,V*6C
20220705 080119+00:00 $WIMWV,18.6,R,4.3,N,A*1B
20220705 080121+00:00 $IIMDA,29.9,I,1.013,B,13.4,C,,C,88.7,,,C,,T,,M,,N,,M*2A
20220705 080121+00:00 $HCHDT,314.1,T*2E
20220705 080121+00:00 $GPRMC,080116,A,4901.2600,N,12316.7100,W,6.01,313,050722,11.8,E,A,V*66
20220705 080121+00:00 $WIMWV,15.5,R,3.6,N,A*17
20220705 080123+00:00 $IIMDA,29.9,I,1.013,B,13.4,C,,C,88.7,,,C,,T,,M,,N,,M*2A
20220705 080123+00:00 $HCHDT,314.2,T*2D
20220705 080123+00:00 $GPRMC,080118,A,4901.2600,N,12316.7100,W,6.01,313,050722,11.8,E,A,V*68
20220705 080123+00:00 $WIMWV,21.1,R,2.59,N,A*2F
20220705 080125+00:00 $IIMDA,29.9,I,1.013,B,13.4,C,,C,88.7,,,C,,T,,M,,N,,M*2A
20220705 080125+00:00 $HCHDT,314.3,T*2C
20220705 080125+00:00 $GPRMC,080120,A,4901.2600,N,12316.7100,W,6.01,313,050722,11.8,E,A,V*63
20220705 080125+00:00 $WIMWV,20.6,R,3.6,N,A*12
20220705 080127+00:00 $IIMDA,29.9,I,1.013,B,13.4,C,,C,88.6,,,C,,T,,M,,N,,M*2B
20220705 080127+00:00 $HCHDT,314.5,T*2A
20220705 080127+00:00 $GPRMC,080122,A,4901.2696,N,12316.7196,W,6.01,313,050722,11.8,E,A,V*61
20220705 080127+00:00 $WIMWV,17.6,R,3.19,N,A*28
20220705 080129+00:00 $IIMDA,29.9,I,1.013,B,13.4,C,,C,88.7,,,C,,T,,M,,N,,M*2A
20220705 080129+00:00 $HCHDT,314.4,T*2B
20220705 080129+00:00 $GPRMC,080124,A,4901.2696,N,12316.7196,W,6.01,313,050722,11.8,E,A,V*67
20220705 080129+00:00 $WIMWV,9,R,4.2,N,A*32
20220705 080131+00:00 $IIMDA,29.9,I,1.013,B,13.4,C,,C,88.6,,,C,,T,,M,,N,,M*2B
20220705 080131+00:00 $HCHDT,314.4,T*2B
20220705 080131+00:00 $GPRMC,080126,A,4901.2696,N,12316.7298,W,6.01,313,050722,11.8,E,A,V*68
20220705 080131+00:00 $WIMWV,24.3,R,3.69,N,A*2A
20220705 080133+00:00 $IIMDA,29.9,I,1.013,B,13.4,C,,C,88.6,,,C,,T,,M,,N,,M*2B
20220705 080133+00:00 $HCHDT,314.4,T*2B
20220705 080133+00:00 $GPRMC,080128,A,4901.2696,N,12316.7298,W,6.01,313,050722,11.8,E,A,V*66
20220705 080133+00:00 $WIMWV,14.9,R,3.79,N,A*22
20220705 080135+00:00 $IIMDA,29.9,I,1.013,B,13.4,C,,C,88.6,,,C,,T,,M,,N,,M*2B
20220705 080135+00:00 $HCHDT,314.4,T*2B
20220705 080135+00:00 $GPRMC,080130,A,4901.2798,N,12316.7298,W,6.01,313,050722,11.8,E,A,V*60
20220705 080135+00:00 $WIMWV,25.5,R,3.79,N,A*2C
20220705 080137+00:00 $IIMDA,29.9,I,1.013,B,13.4,C,,C,88.6,,,C,,T,,M,,N,,M*2B
20220705 080137+00:00 $HCHDT,314.4,T*2B
20220705 080137+00:00 $GPRMC,080132,A,4901.2798,N,12316.7400,W,6.01,313,050722,11.8,E,A,V*65
20220705 080137+00:00 $WIMWV,26.89,R,3.89,N,A*14
20220705 080139+00:00 $IIMDA,29.9,I,1.013,B,13.4,C,,C,88.6,,,C,,T,,M,,N,,M*2B
20220705 080139+00:00 $HCHDT,314.3,T*2C
20220705 080139+00:00 $GPRMC,080134,A,4901.2798,N,12316.7400,W,6.01,313,050722,11.8,E,A,V*63
20220705 080139+00:00 $WIMWV,29.09,R,3.98,N,A*13
20220705 080141+00:00 $IIMDA,29.9,I,1.013,B,13.4,C,,C,88.7,,,C,,T,,M,,N,,M*2A
20220705 080141+00:00 $HCHDT,314.3,T*2C
20220705 080141+00:00 $GPRMC,080136,A,4901.2798,N,12316.7400,W,6.01,313,050722,11.8,E,A,V*61
20220705 080141+00:00 $WIMWV,17.9,R,3.69,N,A*20
20220705 080143+00:00 $IIMDA,29.9,I,1.013,B,13.4,C,,C,88.6,,,C,,T,,M,,N,,M*2B
20220705 080143+00:00 $HCHDT,314.3,T*2C
20220705 080143+00:00 $GPRMC,080138,A,4901.2798,N,12316.7496,W,6.01,313,050722,11.8,E,A,V*60
20220705 080143+00:00 $WIMWV,22.69,R,3.5,N,A*2A
20220705 080145+00:00 $IIMDA,29.9,I,1.013,B,13.4,C,,C,88.6,,,C,,T,,M,,N,,M*2B
20220705 080145+00:00 $HCHDT,314.3,T*2C
20220705 080145+00:00 $GPRMC,080140,A,4901.2900,N,12316.7496,W,6.01,313,050722,11.8,E,A,V*60
20220705 080145+00:00 $WIMWV,19.39,R,3.89,N,A*13
20220705 080147+00:00 $IIMDA,29.9,I,1.013,B,13.4,C,,C,88.6,,,C,,T,,M,,N,,M*2B
20220705 080147+00:00 $HCHDT,314.2,T*2D
20220705 080147+00:00 $GPRMC,080142,A,4901.2900,N,12316.7598,W,6.01,313,050722,11.8,E,A,V*6D
20220705 080147+00:00 $WIMWV,20.29,R,3.69,N,A*16
20220705 080149+00:00 $IIMDA,29.9,I,1.013,B,13.4,C,,C,88.6,,,C,,T,,M,,N,,M*2B
20220705 080149+00:00 $HCHDT,314.1,T*2E
20220705 080149+00:00 $GPRMC,080144,A,4901.2900,N,12316.7598,W,6.01,313,050722,11.8,E,A,V*6B
20220705 080149+00:00 $WIMWV,24.1,R,4.49,N,A*2D
20220705 080151+00:00 $IIMDA,29.9,I,1.013,B,13.4,C,,C,88.6,,,C,,T,,M,,N,,M*2B
20220705 080151+00:00 $HCHDT,314.1,T*2E
20220705 080151+00:00 $GPRMC,080146,A,4901.2900,N,12316.7598,W,6.01,313,050722,11.8,E,A,V*69
20220705 080151+00:00 $WIMWV,22.69,R,3.6,N,A*29
20220705 080153+00:00 $IIMDA,29.9,I,1.013,B,13.4,C,,C,88.6,,,C,,T,,M,,N,,M*2B
20220705 080153+00:00 $HCHDT,314,T*31
20220705 080153+00:00 $GPRMC,080148,A,4901.2996,N,12316.7700,W,6.01,313,050722,11.8,E,A,V*6B
20220705 080153+00:00 $WIMWV,24.3,R,3.98,N,A*24
20220705 080155+00:00 $IIMDA,29.9,I,1.013,B,13.4,C,,C,88.5,,,C,,T,,M,,N,,M*28
20220705 080155+00:00 $HCHDT,314,T*31
20220705 080155+00:00 $GPRMC,080150,A,4901.2996,N,12316.7700,W,6.01,313,050722,11.8,E,A,V*62
20220705 080155+00:00 $WIMWV,24.2,R,3.89,N,A*25
20220705 080157+00:00 $IIMDA,29.9,I,1.013,B,13.4,C,,C,88.6,,,C,,T,,M,,N,,M*2B
20220705 080157+00:00 $HCHDT,313.9,T*21
20220705 080157+00:00 $GPRMC,080152,A,4901.2996,N,12316.7700,W,6.01,313,050722,11.8,E,A,V*60
20220705 080157+00:00 $WIMWV,3.4,R,4.2,N,A*22
20220705 080159+00:00 $IIMDA,29.9,I,1.013,B,13.4,C,,C,88.6,,,C,,T,,M,,N,,M*2B
20220705 080159+00:00 $HCHDT,313.8,T*20
20220705 080159+00:00 $GPRMC,080154,A,4901.2996,N,12316.7796,W,6.01,313,050722,11.8,E,A,V*69
20220705 080159+00:00 $WIMWV,27.79,R,3.6,N,A*2D
20220705 080201+00:00 $IIMDA,29.9,I,1.013,B,13.4,C,,C,88.6,,,C,,T,,M,,N,,M*2B
20220705 080201+00:00 $HCHDT,313.8,T*20
20220705 080201+00:00 $GPRMC,080156,A,4901.3098,N,12316.7796,W,6.01,313,050722,11.8,E,A,V*6D
20220705 080201+00:00 $WIMWV,12.79,R,4.2,N,A*28
20220705 080203+00:00 $IIMDA,29.9,I,1.013,B,13.4,C,,C,88.6,,,C,,T,,M,,N,,M*2B
20220705 080203+00:00 $HCHDT,313.9,T*21
20220705 080203+00:00 $GPRMC,080158,A,4901.3098,N,12316.7898,W,6.01,312,050722,11.8,E,A,V*63
20220705 080203+00:00 $WIMWV,10.79,R,4.3,N,A*2B
20220705 080205+00:00 $IIMDA,29.9,I,1.013,B,13.4,C,,C,88.6,,,C,,T,,M,,N,,M*2B
20220705 080205+00:00 $HCHDT,313.9,T*21
20220705 080205+00:00 $GPRMC,080200,A,4901.3098,N,12316.7898,W,6.01,312,050722,11.8,E,A,V*6D
20220705 080205+00:00 $WIMWV,16.6,R,3.79,N,A*2F
20220705 080207+00:00 $IIMDA,29.9,I,1.013,B,13.4,C,,C,88.6,,,C,,T,,M,,N,,M*2B
20220705 080207+00:00 $HCHDT,313.9,T*21
20220705 080207+00:00 $GPRMC,080202,A,4901.3098,N,12316.7898,W,6.01,312,050722,11.8,E,A,V*6F
20220705 080207+00:00 $WIMWV,25,R,3.5,N,A*0C
20220705 080209+00:00 $IIMDA,29.9,I,1.013,B,13.4,C,,C,88.6,,,C,,T,,M,,N,,M*2B
20220705 080209+00:00 $HCHDT,313.9,T*21
20220705 080209+00:00 $GPRMC,080204,A,4901.3098,N,12316.8000,W,6.01,313,050722,11.8,E,A,V*6E
20220705 080209+00:00 $WIMWV,4.8,R,3.98,N,A*1D
20220705 080211+00:00 $IIMDA,29.9,I,1.013,B,13.4,C,,C,88.5,,,C,,T,,M,,N,,M*28
20220705 080211+00:00 $HCHDT,313.9,T*21
20220705 080211+00:00 $GPRMC,080206,A,4901.3200,N,12316.8000,W,6.01,313,050722,11.8,E,A,V*6F
20220705 080211+00:00 $WIMWV,16.09,R,3.89,N,A*1F
20220705 080213+00:00 $IIMDA,29.9,I,1.013,B,13.4,C,,C,88.6,,,C,,T,,M,,N,,M*2B
20220705 080213+00:00 $HCHDT,313.9,T*21
20220705 080213+00:00 $GPRMC,080208,A,4901.3200,N,12316.8000,W,6.01,313,050722,11.8,E,A,V*61
20220705 080213+00:00 $WIMWV,6.9,R,2.68,N,A*10
20220705 080215+00:00 $IIMDA,29.9,I,1.013,B,13.4,C,,C,88.5,,,C,,T,,M,,N,,M*28
20220705 080215+00:00 $HCHDT,313.9,T*21
20220705 080215+00:00 $GPRMC,080210,A,4901.3200,N,12316.8096,W,6.01,313,050722,11.8,E,A,V*67
20220705 080215+00:00 $WIMWV,22.49,R,3.98,N,A*1C
20220705 080217+00:00 $IIMDA,29.9,I,1.013,B,13.4,C,,C,88.5,,,C,,T,,M,,N,,M*28
20220705 080217+00:00 $HCHDT,313.9,T*21
20220705 080217+00:00 $GPRMC,080212,A,4901.3200,N,12316.8096,W,6.01,313,050722,11.8,E,A,V*65
20220705 080217+00:00 $WIMWV,28.2,R,4.08,N,A*27
20220705 080219+00:00 $IIMDA,29.9,I,1.013,B,13.4,C,,C,88.5,,,C,,T,,M,,N,,M*28
20220705 080219+00:00 $HCHDT,313.9,T*21
20220705 080219+00:00 $GPRMC,080214,A,4901.3296,N,12316.8198,W,6.01,313,050722,11.8,E,A,V*63
20220705 080219+00:00 $WIMWV,14,R,3.79,N,A*35
20220705 080221+00:00 $IIMDA,29.9,I,1.013,B,13.4,C,,C,88.5,,,C,,T,,M,,N,,M*28
20220705 080221+00:00 $HCHDT,313.8,T*20
20220705 080221+00:00 $GPRMC,080216,A,4901.3296,N,12316.8198,W,6.01,313,050722,11.8,E,A,V*61
20220705 080221+00:00 $WIMWV,27,R,4.3,N,A*0F
20220705 080223+00:00 $IIMDA,29.9,I,1.013,B,13.4,C,,C,88.5,,,C,,T,,M,,N,,M*28
20220705 080223+00:00 $HCHDT,313.7,T*2F
20220705 080223+00:00 $GPRMC,080218,A,4901.3296,N,12316.8198,W,6.01,313,050722,11.8,E,A,V*6F
20220705 080223+00:00 $WIMWV,27.79,R,3.98,N,A*1A
20220705 080225+00:00 $IIMDA,29.9,I,1.013,B,13.4,C,,C,88.5,,,C,,T,,M,,N,,M*28
20220705 080225+00:00 $HCHDT,313.6,T*2E
20220705 080225+00:00 $GPRMC,080220,A,4901.3296,N,12316.8300,W,6.01,313,050722,11.8,E,A,V*67
20220705 080225+00:00 $WIMWV,27.4,R,3.69,N,A*2E
20220705 080227+00:00 $IIMDA,29.9,I,1.013,B,13.4,C,,C,88.5,,,C,,T,,M,,N,,M*28
20220705 080227+00:00 $HCHDT,313.7,T*2F
20220705 080227+00:00 $GPRMC,080222,A,4901.3296,N,12316.8300,W,6.01,313,050722,11.8,E,A,V*65
20220705 080227+00:00 $WIMWV,10,R,3.69,N,A*30
20220705 080229+00:00 $IIMDA,29.9,I,1.013,B,13.4,C,,C,88.5,,,C,,T,,M,,N,,M*28
20220705 080229+00:00 $HCHDT,313.6,T*2E
20220705 080229+00:00 $GPRMC,080224,A,4901.3398,N,12316.8300,W,6.01,313,050722,11.8,E,A,V*6C
20220705 080229+00:00 $WIMWV,23.7,R,3.5,N,A*13
20220705 080231+00:00 $IIMDA,29.9,I,1.013,B,13.4,C,,C,88.5,,,C,,T,,M,,N,,M*28
20220705 080231+00:00 $HCHDT,313.5,T*2D
20220705 080231+00:00 $GPRMC,080226,A,4901.3398,N,12316.8396,W,6.01,313,050722,11.8,E,A,V*61
20220705 080231+00:00 $WIMWV,30.4,R,4.59,N,A*2C
20220705 080233+00:00 $IIMDA,29.9,I,1.013,B,13.4,C,,C,88.5,,,C,,T,,M,,N,,M*28
20220705 080233+00:00 $HCHDT,313.4,T*2C
20220705 080233+00:00 $GPRMC,080228,A,4901.3398,N,12316.8396,W,6.01,312,050722,11.8,E,A,V*6E
20220705 080233+00:00 $WIMWV,6.7,R,4.2,N,A*24
20220705 080235+00:00 $IIMDA,29.9,I,1.013,B,13.4,C,,C,88.5,,,C,,T,,M,,N,,M*28
20220705 080235+00:00 $HCHDT,313.4,T*2C
20220705 080235+00:00 $GPRMC,080230,A,4901.3398,N,12316.8498,W,6.01,312,050722,11.8,E,A,V*6E
20220705 080235+00:00 $WIMWV,26,R,3.79,N,A*34
20220705 080237+00:00 $IIMDA,29.9,I,1.013,B,13.4,C,,C,88.5,,,C,,T,,M,,N,,M*28
20220705 080237+00:00 $HCHDT,313.3,T*2B
20220705 080237+00:00 $GPRMC,080232,A,4901.3500,N,12316.8498,W,6.01,312,050722,11.8,E,A,V*6B
20220705 080237+00:00 $WIMWV,29.3,R,4.3,N,A*1C
20220705 080239+00:00 $IIMDA,29.9,I,1.013,B,13.4,C,,C,88.5,,,C,,T,,M,,N,,M*28
20220705 080239+00:00 $HCHDT,313.3,T*2B
20220705 080239+00:00 $GPRMC,080234,A,4901.3500,N,12316.8498,W,6.01,312,050722,11.8,E,A,V*6D
20220705 080239+00:00 $WIMWV,28.7,R,4.08,N,A*22
20220705 080241+00:00 $IIMDA,29.9,I,1.013,B,13.4,C,,C,88.5,,,C,,T,,M,,N,,M*28
20220705 080241+00:00 $HCHDT,313.2,T*2A
20220705 080241+00:00 $GPRMC,080236,A,4901.3500,N,12316.8600,W,6.01,312,050722,11.8,E,A,V*6C
20220705 080241+00:00 $WIMWV,26.6,R,3.89,N,A*23
20220705 080243+00:00 $IIMDA,29.9,I,1.013,B,13.4,C,,C,88.5,,,C,,T,,M,,N,,M*28
20220705 080243+00:00 $HCHDT,313,T*36
20220705 080243+00:00 $GPRMC,080238,A,4901.3500,N,12316.8600,W,6.01,312,050722,11.8,E,A,V*62
20220705 080243+00:00 $WIMWV,25,R,3.38,N,A*32
20220705 080245+00:00 $IIMDA,29.9,I,1.013,B,13.4,C,,C,88.4,,,C,,T,,M,,N,,M*29
20220705 080245+00:00 $HCHDT,312.9,T*20
20220705 080245+00:00 $GPRMC,080240,A,4901.3500,N,12316.8600,W,6.01,312,050722,11.8,E,A,V*6D
20220705 080245+00:00 $WIMWV,14.99,R,3.29,N,A*1E
20220705 080247+00:00 $IIMDA,29.9,I,1.013,B,13.4,C,,C,88.5,,,C,,T,,M,,N,,M*28
20220705 080247+00:00 $HCHDT,312.8,T*21
20220705 080247+00:00 $GPRMC,080242,A,4901.3596,N,12316.8696,W,6.01,312,050722,11.8,E,A,V*6F
20220705 080247+00:00 $WIMWV,26.8,R,3.98,N,A*2D
20220705 080249+00:00 $IIMDA,29.9,I,1.013,B,13.4,C,,C,88.5,,,C,,T,,M,,N,,M*28
20220705 080249+00:00 $HCHDT,312.8,T*21
20220705 080249+00:00 $GPRMC,080244,A,4901.3596,N,12316.8696,W,6.01,312,050722,11.8,E,A,V*69
20220705 080249+00:00 $WIMWV,26.1,R,3.69,N,A*2A
20220705 080251+00:00 $IIMDA,29.9,I,1.013,B,13.4,C,,C,88.5,,,C,,T,,M,,N,,M*28
20220705 080251+00:00 $HCHDT,312.8,T*21
20220705 080251+00:00 $GPRMC,080246,A,4901.3596,N,12316.8798,W,6.01,312,050722,11.8,E,A,V*64
20220705 080251+00:00 $WIMWV,25.2,R,3.38,N,A*2E
20220705 080253+00:00 $IIMDA,29.9,I,1.013,B,13.4,C,,C,88.5,,,C,,T,,M,,N,,M*28
20220705 080253+00:00 $HCHDT,312.8,T*21
20220705 080253+00:00 $GPRMC,080248,A,4901.3596,N,12316.8798,W,6.01,312,050722,11.8,E,A,V*6A
20220705 080253+00:00 $WIMWV,23.9,R,2.8,N,A*11
20220705 080255+00:00 $IIMDA,29.9,I,1.013,B,13.4,C,,C,88.4,,,C,,T,,M,,N,,M*29
20220705 080255+00:00 $HCHDT,312.8,T*21
20220705 080255+00:00 $GPRMC,080250,A,4901.3698,N,12316.8798,W,6.1,312,050722,11.8,E,A,V*5E
20220705 080255+00:00 $WIMWV,22.1,R,3.69,N,A*2E
20220705 080257+00:00 $IIMDA,29.9,I,1.013,B,13.4,C,,C,88.4,,,C,,T,,M,,N,,M*29
20220705 080257+00:00 $HCHDT,312.7,T*2E
20220705 080257+00:00 $GPRMC,080252,A,4901.3698,N,12316.8900,W,6.1,312,050722,11.8,E,A,V*53
20220705 080257+00:00 $WIMWV,26.1,R,3.6,N,A*13
20220705 080259+00:00 $IIMDA,29.9,I,1.013,B,13.4,C,,C,88.4,,,C,,T,,M,,N,,M*29
20220705 080259+00:00 $HCHDT,312.6,T*2F
20220705 080259+00:00 $GPRMC,080254,A,4901.3698,N,12316.8900,W,6.1,312,050722,11.8,E,A,V*55
20220705 080259+00:00 $WIMWV,25.59,R,3.5,N,A*2E
20220705 080301+00:00 $IIMDA,29.9,I,1.013,B,13.4,C,,C,88.4,,,C,,T,,M,,N,,M*29
20220705 080301+00:00 $HCHDT,312.5,T*2C
20220705 080301+00:00 $GPRMC,080256,A,4901.3698,N,12316.8900,W,6.1,312,050722,11.8,E,A,V*57
20220705 080301+00:00 $WIMWV,24.69,R,3.89,N,A*18
20220705 080303+00:00 $IIMDA,29.9,I,1.013,B,13.4,C,,C,88.5,,,C,,T,,M,,N,,M*28
20220705 080303+00:00 $HCHDT,312.4,T*2D
20220705 080303+00:00 $GPRMC,080258,A,4901.3800,N,12316.8996,W,6.1,312,050722,11.8,E,A,V*59
20220705 080303+00:00 $WIMWV,25.59,R,3.6,N,A*2D
20220705 080305+00:00 $IIMDA,29.9,I,1.013,B,13.4,C,,C,88.4,,,C,,T,,M,,N,,M*29
20220705 080305+00:00 $HCHDT,312.3,T*2A
20220705 080305+00:00 $GPRMC,080300,A,4901.3800,N,12316.8996,W,6.1,312,050722,11.8,E,A,V*55
20220705 080305+00:00 $WIMWV,14.09,R,3.5,N,A*29
20220705 080307+00:00 $IIMDA,29.9,I,1.013,B,13.4,C,,C,88.4,,,C,,T,,M,,N,,M*29
20220705 080307+00:00 $HCHDT,312.3,T*2A
20220705 080307+00:00 $GPRMC,080302,A,4901.3800,N,12316.9098,W,6.1,312,050722,11.8,E,A,V*51
20220705 080307+00:00 $WIMWV,18,R,3.69,N,A*38
20220705 080309+00:00 $IIMDA,29.9,I,1.013,B,13.4,C,,C,88.4,,,C,,T,,M,,N,,M*29
20220705 080309+00:00 $HCHDT,312.3,T*2A
20220705 080309+00:00 $GPRMC,080304,A,4901.3800,N,12316.9098,W,6.1,312,050722,11.8,E,A,V*57
20220705 080309+00:00 $WIMWV,23.4,R,3.6,N,A*13
20220705 080311+00:00 $IIMDA,29.9,I,1.013,B,13.4,C,,C,88.4,,,C,,T,,M,,N,,M*29
20220705 080311+00:00 $HCHDT,312.3,T*2A
20220705 080311+00:00 $GPRMC,080306,A,4901.3800,N,12316.9098,W,6.1,311,050722,11.8,E,A,V*56
20220705 080311+00:00 $WIMWV,26.1,R,2.8,N,A*1C
20220705 080313+00:00 $IIMDA,29.9,I,1.013,B,13.4,C,,C,88.4,,,C,,T,,M,,N,,M*29
20220705 080313+00:00 $HCHDT,312.2,T*2B
20220705 080313+00:00 $GPRMC,080308,A,4901.3896,N,12316.9200,W,6.1,311,050722,11.8,E,A,V*54
20220705 080313+00:00 $WIMWV,12.5,R,3.38,N,A*2D
20220705 080315+00:00 $IIMDA,29.9,I,1.013,B,13.4,C,,C,88.4,,,C,,T,,M,,N,,M*29
20220705 080315+00:00 $HCHDT,312.1,T*28
20220705 080315+00:00 $GPRMC,080310,A,4901.3896,N,12316.9200,W,6.1,311,050722,11.8,E,A,V*5D
20220705 080315+00:00 $WIMWV,42.79,R,2.8,N,A*21
20220705 080317+00:00 $IIMDA,29.9,I,1.013,B,13.4,C,,C,88.4,,,C,,T,,M,,N,,M*29
20220705 080317+00:00 $HCHDT,312.1,T*28
20220705 080317+00:00 $GPRMC,080312,A,4901.3896,N,12316.9296,W,6.01,311,050722,11.8,E,A,V*60
20220705 080317+00:00 $WIMWV,25.3,R,3.19,N,A*2C
20220705 080319+00:00 $IIMDA,29.9,I,1.013,B,13.4,C,,C,88.4,,,C,,T,,M,,N,,M*29
20220705 080319+00:00 $HCHDT,312.1,T*28
20220705 080319+00:00 $GPRMC,080314,A,4901.3896,N,12316.9296,W,6.01,311,050722,11.8,E,A,V*66
20220705 080319+00:00 $WIMWV,26.6,R,3.69,N,A*2D
20220705 080321+00:00 $IIMDA,29.9,I,1.013,B,13.4,C,,C,88.4,,,C,,T,,M,,N,,M*29
20220705 080321+00:00 $HCHDT,312.1,T*28
20220705 080321+00:00 $GPRMC,080316,A,4901.3998,N,12316.9296,W,6.01,311,050722,11.8,E,A,V*6B
20220705 080321+00:00 $WIMWV,27.4,R,3.98,N,A*20
20220705 080323+00:00 $IIMDA,29.9,I,1.013,B,13.4,C,,C,88.4,,,C,,T,,M,,N,,M*29
20220705 080323+00:00 $HCHDT,312.1,T*28
20220705 080323+00:00 $GPRMC,080318,A,4901.3998,N,12316.9398,W,6.01,311,050722,11.8,E,A,V*6A
20220705 080323+00:00 $WIMWV,21.5,R,2.9,N,A*1E
20220705 080325+00:00 $IIMDA,29.9,I,1.013,B,13.4,C,,C,88.4,,,C,,T,,M,,N,,M*29
20220705 080325+00:00 $HCHDT,312,T*37
20220705 080325+00:00 $GPRMC,080320,A,4901.3998,N,12316.9398,W,6.01,311,050722,11.8,E,A,V*61
20220705 080325+00:00 $WIMWV,28.4,R,3.38,N,A*25
20220705 080327+00:00 $IIMDA,29.9,I,1.013,B,13.4,C,,C,88.4,,,C,,T,,M,,N,,M*29
20220705 080327+00:00 $HCHDT,312,T*37
20220705 080327+00:00 $GPRMC,080322,A,4901.3998,N,12316.9398,W,6.01,311,050722,11.8,E,A,V*63
20220705 080327+00:00 $WIMWV,26.4,R,3.29,N,A*2B
20220705 080329+00:00 $IIMDA,29.9,I,1.013,B,13.4,C,,C,88.4,,,C,,T,,M,,N,,M*29
20220705 080329+00:00 $HCHDT,312,T*37
20220705 080329+00:00 $GPRMC,080324,A,4901.3998,N,12316.9500,W,6.01,311,050722,11.8,E,A,V*62
20220705 080329+00:00 $WIMWV,26.6,R,3.29,N,A*29
20220705 080331+00:00 $IIMDA,29.9,I,1.013,B,13.4,C,,C,88.3,,,C,,T,,M,,N,,M*2E
20220705 080331+00:00 $HCHDT,312,T*37
20220705 080331+00:00 $GPRMC,080326,A,4901.4100,N,12316.9500,W,6.01,311,050722,11.8,E,A,V*6E
20220705 080331+00:00 $WIMWV,17.5,R,3.79,N,A*2D
20220705 080333+00:00 $IIMDA,29.9,I,1.013,B,13.4,C,,C,88.3,,,C,,T,,M,,N,,M*2E
20220705 080333+00:00 $HCHDT,312,T*37
20220705 080333+00:00 $GPRMC,080328,A,4901.4100,N,12316.9596,W,6.01,311,050722,11.8,E,A,V*6F
20220705 080333+00:00 $WIMWV,27.4,R,3.5,N,A*14
20220705 080335+00:00 $IIMDA,29.9,I,1.013,B,13.4,C,,C,88.3,,,C,,T,,M,,N,,M*2E
20220705 080335+00:00 $HCHDT,312,T*37
20220705 080335+00:00 $GPRMC,080330,A,4901.4100,N,12316.9596,W,6.01,311,050722,11.8,E,A,V*66
20220705 080335+00:00 $WIMWV,8.9,R,4.08,N,A*1E
20220705 080337+00:00 $IIMDA,29.9,I,1.013,B,13.4,C,,C,88.3,,,C,,T,,M,,N,,M*2E
20220705 080337+00:00 $HCHDT,311.9,T*23
20220705 080337+00:00 $GPRMC,080332,A,4901.4100,N,12316.9596,W,6.01,311,050722,11.8,E,A,V*64
20220705 080337+00:00 $WIMWV,22.69,R,3.29,N,A*14
20220705 080339+00:00 $IIMDA,29.9,I,1.013,B,13.4,C,,C,88.3,,,C,,T,,M,,N,,M*2E
20220705 080339+00:00 $HCHDT,312,T*37
20220705 080339+00:00 $GPRMC,080334,A,4901.4100,N,12316.9698,W,6.01,311,050722,11.8,E,A,V*6F
20220705 080339+00:00 $WIMWV,7.8,R,4.78,N,A*17
20220705 080341+00:00 $IIMDA,29.9,I,1.013,B,13.4,C,,C,88.4,,,C,,T,,M,,N,,M*29
20220705 080341+00:00 $HCHDT,312.1,T*28
20220705 080341+00:00 $GPRMC,080336,A,4901.4196,N,12316.9698,W,6.01,311,050722,11.8,E,A,V*62
20220705 080341+00:00 $WIMWV,23.3,R,2.99,N,A*23
20220705 080343+00:00 $IIMDA,29.9,I,1.013,B,13.4,C,,C,88.3,,,C,,T,,M,,N,,M*2E
20220705 080343+00:00 $HCHDT,312,T*37
20220705 080343+00:00 $GPRMC,080338,A,4901.4196,N,12316.9800,W,6.01,311,050722,11.8,E,A,V*63
20220705 080343+00:00 $WIMWV,14.4,R,3.69,N,A*2E
20220705 080345+00:00 $IIMDA,29.9,I,1.013,B,13.4,C,,C,88.3,,,C,,T,,M,,N,,M*2E
20220705 080345+00:00 $HCHDT,312.1,T*28
20220705 080345+00:00 $GPRMC,080340,A,4901.4196,N,12316.9800,W,6.1,311,050722,11.8,E,A,V*5C
20220705 080345+00:00 $WIMWV,15.9,R,2.9,N,A*15
20220705 080347+00:00 $IIMDA,29.9,I,1.013,B,13.4,C,,C,88.3,,,C,,T,,M,,N,,M*2E
20220705 080347+00:00 $HCHDT,312,T*37
20220705 080347+00:00 $GPRMC,080342,A,4901.4196,N,12316.9800,W,6.1,311,050722,11.8,E,A,V*5E
20220705 080347+00:00 $WIMWV,28.89,R,3.89,N,A*1A
20220705 080349+00:00 $IIMDA,29.9,I,1.013,B,13.4,C,,C,88.3,,,C,,T,,M,,N,,M*2E
20220705 080349+00:00 $HCHDT,311.9,T*23
20220705 080349+00:00 $GPRMC,080344,A,4901.4298,N,12316.9896,W,6.1,311,050722,11.8,E,A,V*5A
20220705 080349+00:00 $WIMWV,19.6,R,3.89,N,A*2F
20220705 080351+00:00 $IIMDA,29.9,I,1.013,B,13.4,C,,C,88.4,,,C,,T,,M,,N,,M*29
20220705 080351+00:00 $HCHDT,311.9,T*23
20220705 080351+00:00 $GPRMC,080346,A,4901.4298,N,12316.9896,W,6.1,311,050722,11.8,E,A,V*58
20220705 080351+00:00 $WIMWV,10.7,R,2.68,N,A*29
20220705 080353+00:00 $IIMDA,29.9,I,1.013,B,13.4,C,,C,88.3,,,C,,T,,M,,N,,M*2E
20220705 080353+00:00 $HCHDT,311.9,T*23
20220705 080353+00:00 $GPRMC,080348,A,4901.4298,N,12316.9896,W,6.1,311,050722,11.8,E,A,V*56
20220705 080353+00:00 $WIMWV,23.9,R,2.8,N,A*11
20220705 080355+00:00 $IIMDA,29.9,I,1.013,B,13.4,C,,C,88.3,,,C,,T,,M,,N,,M*2E
20220705 080355+00:00 $HCHDT,311.9,T*23
20220705 080355+00:00 $GPRMC,080350,A,4901.4298,N,12316.9998,W,6.1,311,050722,11.8,E,A,V*50
20220705 080355+00:00 $WIMWV,27.5,R,3.5,N,A*15
20220705 080357+00:00 $IIMDA,29.9,I,1.013,B,13.4,C,,C,88.2,,,C,,T,,M,,N,,M*2F
20220705 080357+00:00 $HCHDT,311.8,T*22
20220705 080357+00:00 $GPRMC,080352,A,4901.4298,N,12316.9998,W,6.1,311,050722,11.8,E,A,V*52
20220705 080357+00:00 $WIMWV,25.2,R,3.69,N,A*2A
20220705 080359+00:00 $IIMDA,29.9,I,1.013,B,13.4,C,,C,88.3,,,C,,T,,M,,N,,M*2E
20220705 080359+00:00 $HCHDT,311.8,T*22
20220705 080359+00:00 $GPRMC,080354,A,4901.4400,N,12317.0100,W,6.1,311,050722,11.8,E,A,V*52
20220705 080359+00:00 $WIMWV,31.4,R,4.49,N,A*2C
20220705 080401+00:00 $IIMDA,29.9,I,1.013,B,13.4,C,,C,88.3,,,C,,T,,M,,N,,M*2E
20220705 080401+00:00 $HCHDT,311.8,T*22
20220705 080401+00:00 $GPRMC,080356,A,4901.4400,N,12317.0100,W,6.1,311,050722,11.8,E,A,V*50
20220705 080401+00:00 $WIMWV,10.3,R,4.08,N,A*2D
20220705 080403+00:00 $IIMDA,29.9,I,1.013,B,13.4,C,,C,88.3,,,C,,T,,M,,N,,M*2E
20220705 080403+00:00 $HCHDT,311.9,T*23
20220705 080403+00:00 $GPRMC,080358,A,4901.4400,N,12317.0100,W,6.1,311,050722,11.8,E,A,V*5E
20220705 080403+00:00 $WIMWV,23.79,R,4.08,N,A*10
20220705 080405+00:00 $IIMDA,29.9,I,1.013,B,13.4,C,,C,88.3,,,C,,T,,M,,N,,M*2E
20220705 080405+00:00 $HCHDT,312,T*37
20220705 080405+00:00 $GPRMC,080400,A,4901.4400,N,12317.0196,W,6.1,311,050722,11.8,E,A,V*5B
20220705 080405+00:00 $WIMWV,28.8,R,3.79,N,A*2C
20220705 080407+00:00 $IIMDA,29.9,I,1.013,B,13.4,C,,C,88.3,,,C,,T,,M,,N,,M*2E
20220705 080407+00:00 $HCHDT,312,T*37
20220705 080407+00:00 $GPRMC,080402,A,4901.4496,N,12317.0196,W,6.1,311,050722,11.8,E,A,V*56
20220705 080407+00:00 $WIMWV,19.8,R,2.39,N,A*2B
20220705 080409+00:00 $IIMDA,29.9,I,1.013,B,13.4,C,,C,88.3,,,C,,T,,M,,N,,M*2E
20220705 080409+00:00 $HCHDT,312,T*37
20220705 080409+00:00 $GPRMC,080404,A,4901.4496,N,12317.0298,W,6.1,311,050722,11.8,E,A,V*5D
20220705 080409+00:00 $WIMWV,27,R,3.6,N,A*0D
20220705 080411+00:00 $IIMDA,29.9,I,1.013,B,13.4,C,,C,88.3,,,C,,T,,M,,N,,M*2E
20220705 080411+00:00 $HCHDT,312,T*37
20220705 080411+00:00 $GPRMC,080406,A,4901.4496,N,12317.0298,W,6.1,311,050722,11.8,E,A,V*5F
20220705 080411+00:00 $WIMWV,27.5,R,4.08,N,A*2F
20220705 080413+00:00 $IIMDA,29.9,I,1.013,B,13.4,C,,C,88.3,,,C,,T,,M,,N,,M*2E
20220705 080413+00:00 $HCHDT,312,T*37
20220705 080413+00:00 $GPRMC,080408,A,4901.4496,N,12317.0298,W,6.1,311,050722,11.8,E,A,V*51
20220705 080413+00:00 $WIMWV,1.9,R,3.98,N,A*19
20220705 080415+00:00 $IIMDA,29.9,I,1.013,B,13.4,C,,C,88.2,,,C,,T,,M,,N,,M*2F
20220705 080415+00:00 $HCHDT,312,T*37
20220705 080415+00:00 $GPRMC,080410,A,4901.4496,N,12317.0400,W,6.1,311,050722,11.8,E,A,V*5F
20220705 080415+00:00 $WIMWV,22,R,3.29,N,A*35
20220705 080417+00:00 $IIMDA,29.9,I,1.013,B,13.4,C,,C,88.3,,,C,,T,,M,,N,,M*2E
20220705 080417+00:00 $HCHDT,312.1,T*28
20220705 080417+00:00 $GPRMC,080412,A,4901.4598,N,12317.0400,W,6.1,311,050722,11.8,E,A,V*52
20220705 080417+00:00 $WIMWV,23.59,R,3.09,N,A*14
20220705 080419+00:00 $IIMDA,29.9,I,1.013,B,13.5,C,,C,88.2,,,C,,T,,M,,N,,M*2E
20220705 080419+00:00 $HCHDT,312.2,T*2B
20220705 080419+00:00 $GPRMC,080414,A,4901.4598,N,12317.0400,W,6.1,311,050722,11.8,E,A,V*54
20220705 080419+00:00 $WIMWV,27.1,R,3.89,N,A*25
20220705 080421+00:00 $IIMDA,29.9,I,1.013,B,13.5,C,,C,88.3,,,C,,T,,M,,N,,M*2F
20220705 080421+00:00 $HCHDT,312.2,T*2B
20220705 080421+00:00 $GPRMC,080416,A,4901.4598,N,12317.0496,W,6.1,311,050722,11.8,E,A,V*59
20220705 080421+00:00 $WIMWV,352.29,R,3.38,N,A*24
20220705 080423+00:00 $IIMDA,29.9,I,1.013,B,13.5,C,,C,88.2,,,C,,T,,M,,N,,M*2E
20220705 080423+00:00 $HCHDT,312.3,T*2A
20220705 080423+00:00 $GPRMC,080418,A,4901.4598,N,12317.0496,W,6.1,311,050722,11.8,E,A,V*57
20220705 080423+00:00 $WIMWV,17.6,R,3.6,N,A*16
20220705 080425+00:00 $IIMDA,29.9,I,1.013,B,13.5,C,,C,88.2,,,C,,T,,M,,N,,M*2E
20220705 080425+00:00 $HCHDT,312.3,T*2A
20220705 080425+00:00 $GPRMC,080420,A,4901.4700,N,12317.0598,W,6.1,311,050722,11.8,E,A,V*50
20220705 080425+00:00 $WIMWV,24.6,R,3.38,N,A*2B
20220705 080427+00:00 $IIMDA,29.9,I,1.013,B,13.5,C,,C,88.2,,,C,,T,,M,,N,,M*2E
20220705 080427+00:00 $HCHDT,312.4,T*2D
20220705 080427+00:00 $GPRMC,080422,A,4901.4700,N,12317.0598,W,6.1,311,050722,11.8,E,A,V*52
20220705 080427+00:00 $WIMWV,24.1,R,3.5,N,A*12
20220705 080429+00:00 $IIMDA,29.9,I,1.013,B,13.5,C,,C,88.3,,,C,,T,,M,,N,,M*2F
20220705 080429+00:00 $HCHDT,312.4,T*2D
20220705 080429+00:00 $GPRMC,080424,A,4901.4700,N,12317.0598,W,6.1,311,050722,11.8,E,A,V*54
20220705 080429+00:00 $WIMWV,19.39,R,3.5,N,A*27
20220705 080431+00:00 $IIMDA,29.9,I,1.013,B,13.5,C,,C,88.2,,,C,,T,,M,,N,,M*2E
20220705 080431+00:00 $HCHDT,312.5,T*2C
20220705 080431+00:00 $GPRMC,080426,A,4901.4700,N,12317.0700,W,6.1,311,050722,11.8,E,A,V*55
20220705 080431+00:00 $WIMWV,8.59,R,4.9,N,A*1A
20220705 080433+00:00 $IIMDA,29.9,I,1.013,B,13.5,C,,C,88.2,,,C,,T,,M,,N,,M*2E
20220705 080433+00:00 $HCHDT,312.6,T*2F
20220705 080433+00:00 $GPRMC,080428,A,4901.4700,N,12317.0700,W,6.1,311,050722,11.8,E,A,V*5B
20220705 080433+00:00 $WIMWV,24.1,R,3.5,N,A*12
20220705 080435+00:00 $IIMDA,29.9,I,1.013,B,13.5,C,,C,88.2,,,C,,T,,M,,N,,M*2E
20220705 080435+00:00 $HCHDT,312.6,T*2F
20220705 080435+00:00 $GPRMC,080430,A,4901.4796,N,12317.0796,W,6.1,311,050722,11.8,E,A,V*52
20220705 080435+00:00 $WIMWV,26.89,R,3.69,N,A*1A
20220705 080437+00:00 $IIMDA,29.9,I,1.013,B,13.5,C,,C,88.2,,,C,,T,,M,,N,,M*2E
20220705 080437+00:00 $HCHDT,312.7,T*2E
20220705 080437+00:00 $GPRMC,080432,A,4901.4796,N,12317.0796,W,6.1,311,050722,11.8,E,A,V*50
20220705 080437+00:00 $WIMWV,29,R,4.08,N,A*3A
20220705 080439+00:00 $IIMDA,29.9,I,1.013,B,13.5,C,,C,88.2,,,C,,T,,M,,N,,M*2E
20220705 080439+00:00 $HCHDT,312.7,T*2E
20220705 080439+00:00 $GPRMC,080434,A,4901.4796,N,12317.0796,W,6.1,311,050722,11.8,E,A,V*56
20220705 080439+00:00 $WIMWV,23.79,R,4.68,N,A*16
20220705 080441+00:00 $IIMDA,29.9,I,1.013,B,13.5,C,,C,88.2,,,C,,T,,M,,N,,M*2E
20220705 080441+00:00 $HCHDT,312.7,T*2E
20220705 080441+00:00 $GPRMC,080436,A,4901.4796,N,12317.0898,W,6.1,311,050722,11.8,E,A,V*55
20220705 080441+00:00 $WIMWV,29.99,R,3.98,N,A*1A
20220705 080443+00:00 $IIMDA,29.9,I,1.013,B,13.5,C,,C,88.2,,,C,,T,,M,,N,,M*2E
20220705 080443+00:00 $HCHDT,312.7,T*2E
20220705 080443+00:00 $GPRMC,080438,A,4901.4898,N,12317.0898,W,6.1,311,050722,11.8,E,A,V*5A
20220705 080443+00:00 $WIMWV,20.6,R,3.6,N,A*12
20220705 080445+00:00 $IIMDA,29.9,I,1.013,B,13.5,C,,C,88.2,,,C,,T,,M,,N,,M*2E
20220705 080445+00:00 $HCHDT,312.7,T*2E
20220705 080445+00:00 $GPRMC,080440,A,4901.4898,N,12317.0898,W,6.1,311,050722,11.8,E,A,V*55
20220705 080445+00:00 $WIMWV,28.7,R,3.98,N,A*2C
20220705 080447+00:00 $IIMDA,29.9,I,1.013,B,13.5,C,,C,88.2,,,C,,T,,M,,N,,M*2E
20220705 080447+00:00 $HCHDT,312.7,T*2E
20220705 080447+00:00 $GPRMC,080442,A,4901.4898,N,12317.1000,W,6.1,311,050722,11.8,E,A,V*5F
20220705 080447+00:00 $WIMWV,27.79,R,2.49,N,A*17
20220705 080449+00:00 $IIMDA,29.9,I,1.013,B,13.5,C,,C,88.2,,,C,,T,,M,,N,,M*2E
20220705 080449+00:00 $HCHDT,312.6,T*2F
20220705 080449+00:00 $GPRMC,080444,A,4901.4898,N,12317.1000,W,6.1,311,050722,11.8,E,A,V*59
20220705 080449+00:00 $WIMWV,27.2,R,3.89,N,A*26
20220705 080451+00:00 $IIMDA,29.9,I,1.013,B,13.5,C,,C,88.2,,,C,,T,,M,,N,,M*2E
20220705 080451+00:00 $HCHDT,312.6,T*2F
20220705 080451+00:00 $GPRMC,080446,A,4901.4898,N,12317.1096,W,6.1,311,050722,11.8,E,A,V*54
20220705 080451+00:00 $WIMWV,31.6,R,4.3,N,A*10
20220705 080453+00:00 $IIMDA,29.9,I,1.013,B,13.5,C,,C,88.2,,,C,,T,,M,,N,,M*2E
20220705 080453+00:00 $HCHDT,312.5,T*2C
20220705 080453+00:00 $GPRMC,080448,A,4901.5000,N,12317.1096,W,6.1,311,050722,11.8,E,A,V*52
20220705 080453+00:00 $WIMWV,27.99,R,3.79,N,A*1B
20220705 080455+00:00 $IIMDA,29.9,I,1.013,B,13.5,C,,C,88.3,,,C,,T,,M,,N,,M*2F
20220705 080455+00:00 $HCHDT,312.4,T*2D
20220705 080455+00:00 $GPRMC,080450,A,4901.5000,N,12317.1096,W,6.1,311,050722,11.8,E,A,V*5B
20220705 080455+00:00 $WIMWV,30.89,R,4.2,N,A*27
20220705 080457+00:00 $IIMDA,29.9,I,1.013,B,13.5,C,,C,88.2,,,C,,T,,M,,N,,M*2E
20220705 080457+00:00 $HCHDT,312.3,T*2A
20220705 080457+00:00 $GPRMC,080452,A,4901.5000,N,12317.1198,W,6.1,311,050722,11.8,E,A,V*56
20220705 080457+00:00 $WIMWV,14.6,R,3.98,N,A*22
20220705 080459+00:00 $IIMDA,29.9,I,1.013,B,13.5,C,,C,88.2,,,C,,T,,M,,N,,M*2E
20220705 080459+00:00 $HCHDT,312.2,T*2B
20220705 080459+00:00 $GPRMC,080454,A,4901.5000,N,12317.1198,W,6.1,311,050722,11.8,E,A,V*50
20220705 080459+00:00 $WIMWV,32.19,R,5.09,N,A*16
20220705 080501+00:00 $IIMDA,29.9,I,1.013,B,13.5,C,,C,88.2,,,C,,T,,M,,N,,M*2E
20220705 080501+00:00 $HCHDT,312.1,T*28
20220705 080501+00:00 $GPRMC,080456,A,4901.5096,N,12317.1300,W,6.1,311,050722,11.8,E,A,V*5E
20220705 080501+00:00 $WIMWV,23.9,R,4.2,N,A*1D
20220705 080503+00:00 $IIMDA,29.9,I,1.013,B,13.5,C,,C,88.2,,,C,,T,,M,,N,,M*2E
20220705 080503+00:00 $HCHDT,312,T*37
20220705 080503+00:00 $GPRMC,080458,A,4901.5096,N,12317.1300,W,6.1,311,050722,11.8,E,A,V*50
20220705 080503+00:00 $WIMWV,26.89,R,3.98,N,A*14
20220705 080505+00:00 $IIMDA,29.9,I,1.013,B,13.5,C,,C,88.2,,,C,,T,,M,,N,,M*2E
20220705 080505+00:00 $HCHDT,312,T*37
20220705 080505+00:00 $GPRMC,080500,A,4901.5096,N,12317.1300,W,6.1,311,050722,11.8,E,A,V*5C
20220705 080505+00:00 $WIMWV,30.7,R,4.39,N,A*29
20220705 080507+00:00 $IIMDA,29.9,I,1.013,B,13.5,C,,C,88.2,,,C,,T,,M,,N,,M*2E
20220705 080507+00:00 $HCHDT,311.9,T*23
20220705 080507+00:00 $GPRMC,080502,A,4901.5096,N,12317.1396,W,6.1,311,050722,11.8,E,A,V*51
20220705 080507+00:00 $WIMWV,30.1,R,4.49,N,A*28
20220705 080509+00:00 $IIMDA,29.9,I,1.013,B,13.5,C,,C,88.2,,,C,,T,,M,,N,,M*2E
20220705 080509+00:00 $HCHDT,311.9,T*23
20220705 080509+00:00 $GPRMC,080504,A,4901.5096,N,12317.1396,W,6.1,311,050722,11.8,E,A,V*57
20220705 080509+00:00 $WIMWV,23.9,R,3.79,N,A*26
20220705 080511+00:00 $IIMDA,29.9,I,1.013,B,13.5,C,,C,88.2,,,C,,T,,M,,N,,M*2E
20220705 080511+00:00 $HCHDT,311.8,T*22
20220705 080511+00:00 $GPRMC,080506,A,4901.5198,N,12317.1396,W,6.1,311,050722,11.8,E,A,V*5A
20220705 080511+00:00 $WIMWV,27.7,R,4.2,N,A*17
20220705 080513+00:00 $IIMDA,29.9,I,1.013,B,13.5,C,,C,88.2,,,C,,T,,M,,N,,M*2E
20220705 080513+00:00 $HCHDT,311.9,T*23
20220705 080513+00:00 $GPRMC,080508,A,4901.5198,N,12317.1498,W,6.1,311,050722,11.8,E,A,V*5D
20220705 080513+00:00 $WIMWV,24,R,3.98,N,A*39
20220705 080515+00:00 $IIMDA,29.9,I,1.013,B,13.5,C,,C,88.2,,,C,,T,,M,,N,,M*2E
20220705 080515+00:00 $HCHDT,311.8,T*22
20220705 080515+00:00 $GPRMC,080510,A,4901.5198,N,12317.1498,W,6.1,311,050722,11.8,E,A,V*54
20220705 080515+00:00 $WIMWV,31,R,5.09,N,A*33
20220705 080517+00:00 $IIMDA,29.9,I,1.013,B,13.5,C,,C,88.2,,,C,,T,,M,,N,,M*2E
20220705 080517+00:00 $HCHDT,311.9,T*23
20220705 080517+00:00 $GPRMC,080512,A,4901.5198,N,12317.1600,W,6.1,311,050722,11.8,E,A,V*55
20220705 080517+00:00 $WIMWV,34.9,R,4.49,N,A*24
20220705 080519+00:00 $IIMDA,29.9,I,1.013,B,13.5,C,,C,88.2,,,C,,T,,M,,N,,M*2E
20220705 080519+00:00 $HCHDT,311.9,T*23
20220705 080519+00:00 $GPRMC,080514,A,4901.5300,N,12317.1600,W,6.1,311,050722,11.8,E,A,V*50
20220705 080519+00:00 $WIMWV,28.2,R,4.3,N,A*1C
20220705 080521+00:00 $IIMDA,29.9,I,1.013,B,13.5,C,,C,88.1,,,C,,T,,M,,N,,M*2D
20220705 080521+00:00 $HCHDT,311.9,T*23
20220705 080521+00:00 $GPRMC,080516,A,4901.5300,N,12317.1600,W,6.1,311,050722,11.8,E,A,V*52
20220705 080521+00:00 $WIMWV,31.2,R,4.78,N,A*28
20220705 080523+00:00 $IIMDA,29.9,I,1.013,B,13.5,C,,C,88.1,,,C,,T,,M,,N,,M*2D
20220705 080523+00:00 $HCHDT,311.9,T*23
20220705 080523+00:00 $GPRMC,080518,A,4901.5300,N,12317.1696,W,6.1,311,050722,11.8,E,A,V*53
20220705 080523+00:00 $WIMWV,30.7,R,4.59,N,A*2F
20220705 080525+00:00 $IIMDA,29.9,I,1.013,B,13.5,C,,C,88.1,,,C,,T,,M,,N,,M*2D
20220705 080525+00:00 $HCHDT,311.8,T*22
20220705 080525+00:00 $GPRMC,080520,A,4901.5300,N,12317.1696,W,6.1,311,050722,11.8,E,A,V*58
20220705 080525+00:00 $WIMWV,30.8,R,4.39,N,A*26
20220705 080527+00:00 $IIMDA,29.9,I,1.013,B,13.5,C,,C,88.1,,,C,,T,,M,,N,,M*2D
20220705 080527+00:00 $HCHDT,311.9,T*23
20220705 080527+00:00 $GPRMC,080522,A,4901.5300,N,12317.1798,W,6.1,311,050722,11.8,E,A,V*55
20220705 080527+00:00 $WIMWV,28.89,R,4.59,N,A*10
20220705 080529+00:00 $IIMDA,29.9,I,1.013,B,13.5,C,,C,88.1,,,C,,T,,M,,N,,M*2D
20220705 080529+00:00 $HCHDT,311.9,T*23
20220705 080529+00:00 $GPRMC,080524,A,4901.5396,N,12317.1798,W,6.1,311,050722,11.8,E,A,V*5C
20220705 080529+00:00 $WIMWV,31.6,R,4.68,N,A*2D
20220705 080531+00:00 $IIMDA,29.9,I,1.013,B,13.5,C,,C,88.1,,,C,,T,,M,,N,,M*2D
20220705 080531+00:00 $HCHDT,311.9,T*23
20220705 080531+00:00 $GPRMC,080526,A,4901.5396,N,12317.1798,W,6.01,311,050722,11.8,E,A,V*6E
20220705 080531+00:00 $WIMWV,30.89,R,4.59,N,A*19
20220705 080533+00:00 $IIMDA,29.9,I,1.013,B,13.5,C,,C,88.1,,,C,,T,,M,,N,,M*2D
20220705 080533+00:00 $HCHDT,312,T*37
20220705 080533+00:00 $GPRMC,080528,A,4901.5396,N,12317.1900,W,6.01,310,050722,11.8,E,A,V*6E
20220705 080533+00:00 $WIMWV,27.9,R,3.6,N,A*1A
20220705 080535+00:00 $IIMDA,29.9,I,1.013,B,13.5,C,,C,88.1,,,C,,T,,M,,N,,M*2D
20220705 080535+00:00 $HCHDT,312.1,T*28
20220705 080535+00:00 $GPRMC,080530,A,4901.5396,N,12317.1900,W,6.01,310,050722,11.8,E,A,V*67
20220705 080535+00:00 $WIMWV,29.4,R,3.98,N,A*2E
20220705 080537+00:00 $IIMDA,29.9,I,1.013,B,13.5,C,,C,88.1,,,C,,T,,M,,N,,M*2D
20220705 080537+00:00 $HCHDT,312.2,T*2B
20220705 080537+00:00 $GPRMC,080532,A,4901.5498,N,12317.1996,W,6.01,310,050722,11.8,E,A,V*63
20220705 080537+00:00 $WIMWV,26.1,R,5,N,A*0D
20220705 080539+00:00 $IIMDA,29.9,I,1.013,B,13.5,C,,C,88.1,,,C,,T,,M,,N,,M*2D
20220705 080539+00:00 $HCHDT,312.3,T*2A
20220705 080539+00:00 $GPRMC,080534,A,4901.5498,N,12317.1996,W,6.01,310,050722,11.8,E,A,V*65
20220705 080539+00:00 $WIMWV,32.8,R,4.9,N,A*17
20220705 080541+00:00 $IIMDA,29.9,I,1.013,B,13.5,C,,C,88.1,,,C,,T,,M,,N,,M*2D
20220705 080541+00:00 $HCHDT,312.5,T*2C
20220705 080541+00:00 $GPRMC,080536,A,4901.5498,N,12317.1996,W,6.01,310,050722,11.8,E,A,V*67
20220705 080541+00:00 $WIMWV,31.6,R,5,N,A*0C
20220705 080543+00:00 $IIMDA,29.9,I,1.013,B,13.5,C,,C,88.1,,,C,,T,,M,,N,,M*2D
20220705 080543+00:00 $HCHDT,312.5,T*2C
20220705 080543+00:00 $GPRMC,080538,A,4901.5498,N,12317.2098,W,6.01,310,050722,11.8,E,A,V*6D
20220705 080543+00:00 $WIMWV,27.7,R,3.69,N,A*2D
20220705 080545+00:00 $IIMDA,29.9,I,1.013,B,13.5,C,,C,88,,,C,,T,,M,,N,,M*32
20220705 080545+00:00 $HCHDT,312.6,T*2F
20220705 080545+00:00 $GPRMC,080540,A,4901.5498,N,12317.2098,W,6.1,311,050722,11.8,E,A,V*53
20220705 080545+00:00 $WIMWV,26.6,R,3.69,N,A*2D
20220705 080547+00:00 $IIMDA,29.9,I,1.013,B,13.5,C,,C,88.1,,,C,,T,,M,,N,,M*2D
20220705 080547+00:00 $HCHDT,312.6,T*2F
20220705 080547+00:00 $GPRMC,080542,A,4901.5600,N,12317.2098,W,6.1,311,050722,11.8,E,A,V*52
20220705 080547+00:00 $WIMWV,31.4,R,4.2,N,A*13
20220705 080549+00:00 $IIMDA,29.9,I,1.013,B,13.5,C,,C,88.1,,,C,,T,,M,,N,,M*2D
20220705 080549+00:00 $HCHDT,312.5,T*2C
20220705 080549+00:00 $GPRMC,080544,A,4901.5600,N,12317.2200,W,6.1,311,050722,11.8,E,A,V*57
20220705 080549+00:00 $WIMWV,32.5,R,5.09,N,A*2B
20220705 080551+00:00 $IIMDA,29.9,I,1.013,B,13.5,C,,C,88,,,C,,T,,M,,N,,M*32
20220705 080551+00:00 $HCHDT,312.4,T*2D
20220705 080551+00:00 $GPRMC,080546,A,4901.5600,N,12317.2200,W,6.1,311,050722,11.8,E,A,V*55
20220705 080551+00:00 $WIMWV,23.1,R,3.6,N,A*16
20220705 080553+00:00 $IIMDA,29.9,I,1.013,B,13.5,C,,C,88,,,C,,T,,M,,N,,M*32
20220705 080553+00:00 $HCHDT,312.3,T*2A
20220705 080553+00:00 $GPRMC,080548,A,4901.5600,N,12317.2296,W,6.1,311,050722,11.8,E,A,V*54
20220705 080553+00:00 $WIMWV,28.5,R,3.89,N,A*2E
20220705 080555+00:00 $IIMDA,29.9,I,1.013,B,13.5,C,,C,88,,,C,,T,,M,,N,,M*32
20220705 080555+00:00 $HCHDT,312.3,T*2A
20220705 080555+00:00 $GPRMC,080550,A,4901.5600,N,12317.2296,W,6.1,311,050722,11.8,E,A,V*5D
20220705 080555+00:00 $WIMWV,18.8,R,3.79,N,A*2F
20220705 080557+00:00 $IIMDA,29.9,I,1.013,B,13.5,C,,C,88,,,C,,T,,M,,N,,M*32
20220705 080557+00:00 $HCHDT,312.2,T*2B
20220705 080557+00:00 $GPRMC,080552,A,4901.5696,N,12317.2296,W,6.1,311,050722,11.8,E,A,V*50
20220705 080557+00:00 $WIMWV,27.7,R,4.3,N,A*16
20220705 080559+00:00 $IIMDA,29.9,I,1.013,B,13.5,C,,C,88,,,C,,T,,M,,N,,M*32
20220705 080559+00:00 $HCHDT,312.1,T*28
20220705 080559+00:00 $GPRMC,080554,A,4901.5696,N,12317.2398,W,6.1,311,050722,11.8,E,A,V*59
20220705 080559+00:00 $WIMWV,34.6,R,6.18,N,A*2D
20220705 080601+00:00 $IIMDA,29.9,I,1.013,B,13.5,C,,C,88,,,C,,T,,M,,N,,M*32
20220705 080601+00:00 $HCHDT,312.1,T*28
20220705 080601+00:00 $GPRMC,080556,A,4901.5696,N,12317.2398,W,6.01,311,050722,11.8,E,A,V*6B
20220705 080601+00:00 $WIMWV,23.1,R,3.79,N,A*2E
20220705 080603+00:00 $IIMDA,29.9,I,1.013,B,13.5,C,,C,88,,,C,,T,,M,,N,,M*32
20220705 080603+00:00 $HCHDT,312,T*37
20220705 080603+00:00 $GPRMC,080558,A,4901.5696,N,12317.2500,W,6.01,311,050722,11.8,E,A,V*62
20220705 080603+00:00 $WIMWV,31,R,4.39,N,A*31
20220705 080605+00:00 $IIMDA,29.9,I,1.013,B,13.5,C,,C,88,,,C,,T,,M,,N,,M*32
20220705 080605+00:00 $HCHDT,311.9,T*23
20220705 080605+00:00 $GPRMC,080600,A,4901.5798,N,12317.2500,W,6.01,311,050722,11.8,E,A,V*63
20220705 080605+00:00 $WIMWV,31.2,R,4.49,N,A*2A
20220705 080607+00:00 $IIMDA,29.9,I,1.013,B,13.5,C,,C,88,,,C,,T,,M,,N,,M*32
20220705 080607+00:00 $HCHDT,311.9,T*23
20220705 080607+00:00 $GPRMC,080602,A,4901.5798,N,12317.2500,W,6.01,311,050722,11.8,E,A,V*61
20220705 080607+00:00 $WIMWV,26.1,R,4.2,N,A*10
20220705 080609+00:00 $IIMDA,29.9,I,1.013,B,13.5,C,,C,88,,,C,,T,,M,,N,,M*32
20220705 080609+00:00 $HCHDT,312,T*37
20220705 080609+00:00 $GPRMC,080604,A,4901.5798,N,12317.2596,W,6.01,311,050722,11.8,E,A,V*68
20220705 080609+00:00 $WIMWV,34.6,R,5.6,N,A*11
20220705 080611+00:00 $IIMDA,29.9,I,1.013,B,13.5,C,,C,87.9,,,C,,T,,M,,N,,M*2A
20220705 080611+00:00 $HCHDT,312.1,T*28
20220705 080611+00:00 $GPRMC,080606,A,4901.5798,N,12317.2596,W,6.1,311,050722,11.8,E,A,V*5A
20220705 080611+00:00 $WIMWV,24.3,R,4.08,N,A*2A
20220705 080613+00:00 $IIMDA,29.9,I,1.013,B,13.5,C,,C,88,,,C,,T,,M,,N,,M*32
20220705 080613+00:00 $HCHDT,312.1,T*28
20220705 080613+00:00 $GPRMC,080608,A,4901.5798,N,12317.2596,W,6.1,311,050722,11.8,E,A,V*54
20220705 080613+00:00 $WIMWV,28.8,R,4.39,N,A*2F
20220705 080615+00:00 $IIMDA,29.9,I,1.013,B,13.5,C,,C,88,,,C,,T,,M,,N,,M*32
20220705 080615+00:00 $HCHDT,312.2,T*2B
20220705 080615+00:00 $GPRMC,080610,A,4901.5900,N,12317.2698,W,6.1,311,050722,11.8,E,A,V*5F
20220705 080615+00:00 $WIMWV,31.3,R,4.49,N,A*2B
20220705 080617+00:00 $IIMDA,29.9,I,1.013,B,13.5,C,,C,88,,,C,,T,,M,,N,,M*32
20220705 080617+00:00 $HCHDT,312.2,T*2B
20220705 080617+00:00 $GPRMC,080612,A,4901.5900,N,12317.2698,W,6.1,311,050722,11.8,E,A,V*5D
20220705 080617+00:00 $WIMWV,23.7,R,2.68,N,A*29
20220705 080619+00:00 $IIMDA,29.9,I,1.013,B,13.5,C,,C,87.9,,,C,,T,,M,,N,,M*2A
20220705 080619+00:00 $HCHDT,312.2,T*2B
20220705 080619+00:00 $GPRMC,080614,A,4901.5900,N,12317.2800,W,6.1,311,050722,11.8,E,A,V*54
20220705 080619+00:00 $WIMWV,26.3,R,3.98,N,A*26
20220705 080621+00:00 $IIMDA,29.9,I,1.013,B,13.5,C,,C,87.9,,,C,,T,,M,,N,,M*2A
20220705 080621+00:00 $HCHDT,312.2,T*2B
20220705 080621+00:00 $GPRMC,080616,A,4901.5900,N,12317.2800,W,6.1,311,050722,11.8,E,A,V*56
20220705 080621+00:00 $WIMWV,29.9,R,4.59,N,A*29
20220705 080623+00:00 $IIMDA,29.9,I,1.013,B,13.5,C,,C,87.9,,,C,,T,,M,,N,,M*2A
20220705 080623+00:00 $HCHDT,312.1,T*28
20220705 080623+00:00 $GPRMC,080618,A,4901.5996,N,12317.2800,W,6.1,311,050722,11.8,E,A,V*57
20220705 080623+00:00 $WIMWV,31.9,R,4.49,N,A*21
20220705 080625+00:00 $IIMDA,29.9,I,1.013,B,13.5,C,,C,87.9,,,C,,T,,M,,N,,M*2A
20220705 080625+00:00 $HCHDT,312.2,T*2B
20220705 080625+00:00 $GPRMC,080620,A,4901.5996,N,12317.2896,W,6.1,311,050722,11.8,E,A,V*53
20220705 080625+00:00 $WIMWV,17.8,R,3.89,N,A*2F
20220705 080627+00:00 $IIMDA,29.9,I,1.013,B,13.5,C,,C,87.9,,,C,,T,,M,,N,,M*2A
20220705 080627+00:00 $HCHDT,312.1,T*28
20220705 080627+00:00 $GPRMC,080622,A,4901.5996,N,12317.2896,W,6.1,311,050722,11.8,E,A,V*51
20220705 080627+00:00 $WIMWV,32.3,R,5.19,N,A*2C
20220705 080629+00:00 $IIMDA,29.9,I,1.013,B,13.5,C,,C,87.9,,,C,,T,,M,,N,,M*2A
20220705 080629+00:00 $HCHDT,312.3,T*2A
20220705 080629+00:00 $GPRMC,080624,A,4901.5996,N,12317.2998,W,6.1,311,050722,11.8,E,A,V*58
20220705 080629+00:00 $WIMWV,32.19,R,4.49,N,A*13
20220705 080631+00:00 $IIMDA,29.9,I,1.013,B,13.5,C,,C,87.9,,,C,,T,,M,,N,,M*2A
20220705 080631+00:00 $HCHDT,312.5,T*2C
20220705 080631+00:00 $GPRMC,080626,A,4901.5996,N,12317.2998,W,6.1,311,050722,11.8,E,A,V*5A
20220705 080631+00:00 $WIMWV,30.5,R,4.59,N,A*2D
20220705 080633+00:00 $IIMDA,29.9,I,1.013,B,13.5,C,,C,87.9,,,C,,T,,M,,N,,M*2A
20220705 080633+00:00 $HCHDT,312.5,T*2C
20220705 080633+00:00 $GPRMC,080628,A,4901.6098,N,12317.2998,W,6.1,311,050722,11.8,E,A,V*50
20220705 080633+00:00 $WIMWV,29.6,R,4.2,N,A*18
20220705 080635+00:00 $IIMDA,29.9,I,1.013,B,13.5,C,,C,87.9,,,C,,T,,M,,N,,M*2A
20220705 080635+00:00 $HCHDT,312.6,T*2F
20220705 080635+00:00 $GPRMC,080630,A,4901.6098,N,12317.3100,W,6.1,311,050722,11.8,E,A,V*51
20220705 080635+00:00 $WIMWV,27.2,R,4.59,N,A*2C
20220705 080637+00:00 $IIMDA,29.9,I,1.013,B,13.5,C,,C,87.9,,,C,,T,,M,,N,,M*2A
20220705 080637+00:00 $HCHDT,312.6,T*2F
20220705 080637+00:00 $GPRMC,080632,A,4901.6098,N,12317.3100,W,6.1,311,050722,11.8,E,A,V*53
20220705 080637+00:00 $WIMWV,30.4,R,4.59,N,A*2C
20220705 080639+00:00 $IIMDA,29.9,I,1.013,B,13.5,C,,C,87.9,,,C,,T,,M,,N,,M*2A
20220705 080639+00:00 $HCHDT,312.7,T*2E
20220705 080639+00:00 $GPRMC,080634,A,4901.6098,N,12317.3100,W,6.1,311,050722,11.8,E,A,V*55
20220705 080639+00:00 $WIMWV,30.8,R,5.19,N,A*25
20220705 080641+00:00 $IIMDA,29.9,I,1.013,B,13.5,C,,C,87.9,,,C,,T,,M,,N,,M*2A
20220705 080641+00:00 $HCHDT,312.7,T*2E
20220705 080641+00:00 $GPRMC,080636,A,4901.6200,N,12317.3196,W,6.1,311,050722,11.8,E,A,V*5B
20220705 080641+00:00 $WIMWV,29.3,R,4.49,N,A*22
20220705 080643+00:00 $IIMDA,29.9,I,1.013,B,13.5,C,,C,87.9,,,C,,T,,M,,N,,M*2A
20220705 080643+00:00 $HCHDT,312.8,T*21
20220705 080643+00:00 $GPRMC,080638,A,4901.6200,N,12317.3196,W,6.1,311,050722,11.8,E,A,V*55
20220705 080643+00:00 $WIMWV,27.99,R,4.49,N,A*1F
20220705 080645+00:00 $IIMDA,29.9,I,1.013,B,13.5,C,,C,87.9,,,C,,T,,M,,N,,M*2A
20220705 080645+00:00 $HCHDT,312.8,T*21
20220705 080645+00:00 $GPRMC,080640,A,4901.6200,N,12317.3298,W,6.1,311,050722,11.8,E,A,V*57
20220705 080645+00:00 $WIMWV,32.1,R,4.9,N,A*1E
20220705 080647+00:00 $IIMDA,29.9,I,1.013,B,13.5,C,,C,87.9,,,C,,T,,M,,N,,M*2A
20220705 080647+00:00 $HCHDT,312.9,T*20
20220705 080647+00:00 $GPRMC,080642,A,4901.6200,N,12317.3298,W,6.1,311,050722,11.8,E,A,V*55
20220705 080647+00:00 $WIMWV,18.6,R,4.39,N,A*22
20220705 080649+00:00 $IIMDA,29.9,I,1.013,B,13.5,C,,C,87.9,,,C,,T,,M,,N,,M*2A
20220705 080649+00:00 $HCHDT,313.2,T*2A
20220705 080649+00:00 $GPRMC,080644,A,4901.6200,N,12317.3298,W,6.1,311,050722,11.8,E,A,V*53
20220705 080649+00:00 $WIMWV,30.5,R,4.59,N,A*2D
20220705 080651+00:00 $IIMDA,29.9,I,1.013,B,13.5,C,,C,87.9,,,C,,T,,M,,N,,M*2A
20220705 080651+00:00 $HCHDT,313.2,T*2A
20220705 080651+00:00 $GPRMC,080646,A,4901.6296,N,12317.3400,W,6.01,311,050722,11.8,E,A,V*69
20220705 080651+00:00 $WIMWV,29.3,R,4.3,N,A*1C
20220705 080653+00:00 $IIMDA,29.9,I,1.013,B,13.5,C,,C,87.9,,,C,,T,,M,,N,,M*2A
20220705 080653+00:00 $HCHDT,313.2,T*2A
20220705 080653+00:00 $GPRMC,080648,A,4901.6296,N,12317.3400,W,6.01,311,050722,11.8,E,A,V*67
20220705 080653+00:00 $WIMWV,24.2,R,4.08,N,A*2B
20220705 080655+00:00 $IIMDA,29.9,I,1.013,B,13.5,C,,C,87.8,,,C,,T,,M,,N,,M*2B
20220705 080655+00:00 $HCHDT,313.4,T*2C
20220705 080655+00:00 $GPRMC,080650,A,4901.6296,N,12317.3496,W,6.01,311,050722,11.8,E,A,V*61
20220705 080655+00:00 $WIMWV,24.4,R,3.6,N,A*14
20220705 080657+00:00 $IIMDA,29.9,I,1.013,B,13.5,C,,C,87.8,,,C,,T,,M,,N,,M*2B
20220705 080657+00:00 $HCHDT,313.5,T*2D
20220705 080657+00:00 $GPRMC,080652,A,4901.6296,N,12317.3496,W,6.01,311,050722,11.8,E,A,V*63
20220705 080657+00:00 $WIMWV,28.4,R,4.49,N,A*24
20220705 080659+00:00 $IIMDA,29.9,I,1.013,B,13.5,C,,C,87.8,,,C,,T,,M,,N,,M*2B
20220705 080659+00:00 $HCHDT,313.6,T*2E
20220705 080659+00:00 $GPRMC,080654,A,4901.6398,N,12317.3496,W,6.01,311,050722,11.8,E,A,V*6A
20220705 080659+00:00 $WIMWV,31.9,R,3.69,N,A*24
20220705 080701+00:00 $IIMDA,29.9,I,1.013,B,13.5,C,,C,87.9,,,C,,T,,M,,N,,M*2A
20220705 080701+00:00 $HCHDT,313.7,T*2F
20220705 080701+00:00 $GPRMC,080656,A,4901.6398,N,12317.3598,W,6.01,311,050722,11.8,E,A,V*67
20220705 080701+00:00 $WIMWV,25.5,R,4.59,N,A*29
20220705 080703+00:00 $IIMDA,29.9,I,1.013,B,13.5,C,,C,87.8,,,C,,T,,M,,N,,M*2B
20220705 080703+00:00 $HCHDT,313.8,T*20
20220705 080703+00:00 $GPRMC,080658,A,4901.6398,N,12317.3598,W,6.01,311,050722,11.8,E,A,V*69
20220705 080703+00:00 $WIMWV,31.3,R,4.39,N,A*2C
20220705 080705+00:00 $IIMDA,29.9,I,1.013,B,13.5,C,,C,87.8,,,C,,T,,M,,N,,M*2B
20220705 080705+00:00 $HCHDT,313.8,T*20
20220705 080705+00:00 $GPRMC,080700,A,4901.6398,N,12317.3598,W,6.1,312,050722,11.8,E,A,V*56
20220705 080705+00:00 $WIMWV,23.59,R,4.08,N,A*12
20220705 080707+00:00 $IIMDA,29.9,I,1.013,B,13.5,C,,C,87.8,,,C,,T,,M,,N,,M*2B
20220705 080707+00:00 $HCHDT,313.8,T*20
20220705 080707+00:00 $GPRMC,080702,A,4901.6398,N,12317.3700,W,6.1,312,050722,11.8,E,A,V*57
20220705 080707+00:00 $WIMWV,24.6,R,3.79,N,A*2E
20220705 080709+00:00 $IIMDA,29.9,I,1.013,B,13.5,C,,C,87.9,,,C,,T,,M,,N,,M*2A
20220705 080709+00:00 $HCHDT,313.8,T*20
20220705 080709+00:00 $GPRMC,080704,A,4901.6500,N,12317.3700,W,6.1,312,050722,11.8,E,A,V*56
20220705 080709+00:00 $WIMWV,16,R,3.5,N,A*0C
20220705 080711+00:00 $IIMDA,29.9,I,1.013,B,13.5,C,,C,87.8,,,C,,T,,M,,N,,M*2B
20220705 080711+00:00 $HCHDT,313.9,T*21
20220705 080711+00:00 $GPRMC,080706,A,4901.6500,N,12317.3796,W,6.1,312,050722,11.8,E,A,V*5B
20220705 080711+00:00 $WIMWV,31.7,R,5.19,N,A*2B
20220705 080713+00:00 $IIMDA,29.9,I,1.013,B,13.5,C,,C,87.9,,,C,,T,,M,,N,,M*2A
20220705 080713+00:00 $HCHDT,313.9,T*21
20220705 080713+00:00 $GPRMC,080708,A,4901.6500,N,12317.3796,W,6.1,312,050722,11.8,E,A,V*55
20220705 080713+00:00 $WIMWV,7.3,R,3.98,N,A*15
20220705 080715+00:00 $IIMDA,29.9,I,1.013,B,13.5,C,,C,87.8,,,C,,T,,M,,N,,M*2B
20220705 080715+00:00 $HCHDT,314,T*31
20220705 080715+00:00 $GPRMC,080710,A,4901.6500,N,12317.3796,W,6.1,312,050722,11.8,E,A,V*5C
20220705 080715+00:00 $WIMWV,27.7,R,4.59,N,A*29
20220705 080717+00:00 $IIMDA,29.9,I,1.013,B,13.5,C,,C,87.9,,,C,,T,,M,,N,,M*2A
20220705 080717+00:00 $HCHDT,314.2,T*2D
20220705 080717+00:00 $GPRMC,080712,A,4901.6596,N,12317.3898,W,6.1,312,050722,11.8,E,A,V*50
20220705 080717+00:00 $WIMWV,23.3,R,3.89,N,A*23
20220705 080719+00:00 $IIMDA,29.9,I,1.013,B,13.5,C,,C,87.9,,,C,,T,,M,,N,,M*2A
20220705 080719+00:00 $HCHDT,314.1,T*2E
20220705 080719+00:00 $GPRMC,080714,A,4901.6596,N,12317.3898,W,6.1,312,050722,11.8,E,A,V*56
20220705 080719+00:00 $WIMWV,20.29,R,3.79,N,A*17
20220705 080721+00:00 $IIMDA,29.9,I,1.013,B,13.5,C,,C,87.9,,,C,,T,,M,,N,,M*2A
20220705 080721+00:00 $HCHDT,314.2,T*2D
20220705 080721+00:00 $GPRMC,080716,A,4901.6596,N,12317.4000,W,6.1,312,050722,11.8,E,A,V*5A
20220705 080721+00:00 $WIMWV,0.19,R,3.98,N,A*29
20220705 080723+00:00 $IIMDA,29.9,I,1.013,B,13.5,C,,C,87.9,,,C,,T,,M,,N,,M*2A
20220705 080723+00:00 $HCHDT,314.2,T*2D
20220705 080723+00:00 $GPRMC,080718,A,4901.6596,N,12317.4000,W,6.1,312,050722,11.8,E,A,V*54
20220705 080723+00:00 $WIMWV,26.1,R,3.89,N,A*24
20220705 080725+00:00 $IIMDA,29.9,I,1.013,B,13.5,C,,C,87.9,,,C,,T,,M,,N,,M*2A
20220705 080725+00:00 $HCHDT,314.2,T*2D
20220705 080725+00:00 $GPRMC,080720,A,4901.6596,N,12317.4000,W,6.1,312,050722,11.8,E,A,V*5F
20220705 080725+00:00 $WIMWV,28.89,R,4.39,N,A*16
20220705 080727+00:00 $IIMDA,29.9,I,1.013,B,13.5,C,,C,87.9,,,C,,T,,M,,N,,M*2A
20220705 080727+00:00 $HCHDT,314.2,T*2D
20220705 080727+00:00 $GPRMC,080722,A,4901.6698,N,12317.4096,W,6.1,312,050722,11.8,E,A,V*5F
20220705 080727+00:00 $WIMWV,25.4,R,3.69,N,A*2C
20220705 080729+00:00 $IIMDA,29.9,I,1.013,B,13.5,C,,C,87.9,,,C,,T,,M,,N,,M*2A
20220705 080729+00:00 $HCHDT,314.1,T*2E
20220705 080729+00:00 $GPRMC,080724,A,4901.6698,N,12317.4096,W,6.1,312,050722,11.8,E,A,V*59
20220705 080729+00:00 $WIMWV,18.5,R,4.3,N,A*18
20220705 080731+00:00 $IIMDA,29.9,I,1.013,B,13.5,C,,C,87.9,,,C,,T,,M,,N,,M*2A
20220705 080731+00:00 $HCHDT,314.2,T*2D
20220705 080731+00:00 $GPRMC,080726,A,4901.6698,N,12317.4096,W,6.1,312,050722,11.8,E,A,V*5B
20220705 080731+00:00 $WIMWV,20.4,R,4.2,N,A*13
20220705 080733+00:00 $IIMDA,29.9,I,1.013,B,13.5,C,,C,87.9,,,C,,T,,M,,N,,M*2A
20220705 080733+00:00 $HCHDT,314.1,T*2E
20220705 080733+00:00 $GPRMC,080728,A,4901.6698,N,12317.4198,W,6.1,312,050722,11.8,E,A,V*5A
20220705 080733+00:00 $WIMWV,22.4,R,4.08,N,A*2B
20220705 080735+00:00 $IIMDA,29.9,I,1.013,B,13.5,C,,C,87.9,,,C,,T,,M,,N,,M*2A
20220705 080735+00:00 $HCHDT,314.2,T*2D
20220705 080735+00:00 $GPRMC,080730,A,4901.6800,N,12317.4198,W,6.1,312,050722,11.8,E,A,V*5C
20220705 080735+00:00 $WIMWV,9.6,R,4.49,N,A*15
20220705 080737+00:00 $IIMDA,29.9,I,1.013,B,13.5,C,,C,87.8,,,C,,T,,M,,N,,M*2B
20220705 080737+00:00 $HCHDT,314.2,T*2D
20220705 080737+00:00 $GPRMC,080732,A,4901.6800,N,12317.4300,W,6.1,312,050722,11.8,E,A,V*5D
20220705 080737+00:00 $WIMWV,22.49,R,3.5,N,A*28
20220705 080739+00:00 $IIMDA,29.9,I,1.013,B,13.5,C,,C,87.9,,,C,,T,,M,,N,,M*2A
20220705 080739+00:00 $HCHDT,314.1,T*2E
20220705 080739+00:00 $GPRMC,080734,A,4901.6800,N,12317.4300,W,6.1,312,050722,11.8,E,A,V*5B
20220705 080739+00:00 $WIMWV,24.8,R,4.3,N,A*1A
20220705 080741+00:00 $IIMDA,29.9,I,1.013,B,13.5,C,,C,87.8,,,C,,T,,M,,N,,M*2B
20220705 080741+00:00 $HCHDT,314.1,T*2E
20220705 080741+00:00 $GPRMC,080736,A,4901.6800,N,12317.4300,W,6.1,312,050722,11.8,E,A,V*59
20220705 080741+00:00 $WIMWV,21.8,R,4.78,N,A*23
20220705 080743+00:00 $IIMDA,29.9,I,1.013,B,13.5,C,,C,87.8,,,C,,T,,M,,N,,M*2B
20220705 080743+00:00 $HCHDT,314,T*31
20220705 080743+00:00 $GPRMC,080738,A,4901.6800,N,12317.4396,W,6.01,312,050722,11.8,E,A,V*68
20220705 080743+00:00 $WIMWV,17.3,R,4.49,N,A*2F
20220705 080745+00:00 $IIMDA,29.9,I,1.013,B,13.5,C,,C,87.8,,,C,,T,,M,,N,,M*2B
20220705 080745+00:00 $HCHDT,314,T*31
