20220704 150000+00:00 $IIMDA,29.9,I,1.012,B,11.7,C,,C,93.1,,,C,,T,,M,,N,,M*26
20220704 150000+00:00 $HCHDT,113.3,T*29
20220704 150000+00:00 $GPRMC,145954,A,4842.3900,N,12520.7498,W,9.1,113,040722,12.1,E,A,V*59
20220704 150000+00:00 $WIMWV,65.4,R,5.38,N,A*2A
20220704 150002+00:00 $IIMDA,29.9,I,1.012,B,11.7,C,,C,93.1,,,C,,T,,M,,N,,M*26
20220704 150002+00:00 $HCHDT,113,T*34
20220704 150002+00:00 $GPRMC,145956,A,4842.3798,N,12520.7396,W,9.1,113,040722,12.1,E,A,V*5D
20220704 150002+00:00 $WIMWV,51.3,R,5.38,N,A*2A
20220704 150004+00:00 $IIMDA,29.9,I,1.012,B,11.7,C,,C,93,,,C,,T,,M,,N,,M*39
20220704 150004+00:00 $HCHDT,113.3,T*29
20220704 150004+00:00 $GPRMC,145958,A,4842.3798,N,12520.7300,W,9.1,113,040722,12.1,E,A,V*5C
20220704 150004+00:00 $WIMWV,64.3,R,6.08,N,A*2C
20220704 150006+00:00 $IIMDA,29.9,I,1.012,B,11.7,C,,C,93.1,,,C,,T,,M,,N,,M*26
20220704 150006+00:00 $HCHDT,113.6,T*2C
20220704 150006+00:00 $GPRMC,150000,A,4842.3798,N,12520.7300,W,9.1,113,040722,12.1,E,A,V*5C
20220704 150006+00:00 $WIMWV,71.8,R,5.7,N,A*1F
20220704 150008+00:00 $IIMDA,29.9,I,1.012,B,11.7,C,,C,93.1,,,C,,T,,M,,N,,M*26
20220704 150008+00:00 $HCHDT,114,T*33
20220704 150008+00:00 $GPRMC,150002,A,4842.3798,N,12520.7198,W,9.1,113,040722,12.1,E,A,V*5D
20220704 150008+00:00 $WIMWV,68,R,5.38,N,A*3D
20220704 150010+00:00 $IIMDA,29.9,I,1.012,B,11.7,C,,C,93,,,C,,T,,M,,N,,M*39
20220704 150010+00:00 $HCHDT,114.2,T*2F
20220704 150010+00:00 $GPRMC,150004,A,4842.3798,N,12520.7096,W,9.1,114,040722,12.1,E,A,V*53
20220704 150010+00:00 $WIMWV,61.7,R,5.48,N,A*2A
20220704 150012+00:00 $IIMDA,29.9,I,1.012,B,11.7,C,,C,93.1,,,C,,T,,M,,N,,M*26
20220704 150012+00:00 $HCHDT,113.5,T*2F
20220704 150012+00:00 $GPRMC,150006,A,4842.3696,N,12520.7096,W,9.1,114,040722,12.1,E,A,V*5E
20220704 150012+00:00 $WIMWV,71.6,R,5.19,N,A*2E
20220704 150014+00:00 $IIMDA,29.9,I,1.012,B,11.7,C,,C,93,,,C,,T,,M,,N,,M*39
20220704 150014+00:00 $HCHDT,112.9,T*22
20220704 150014+00:00 $GPRMC,150008,A,4842.3696,N,12520.7000,W,9.1,114,040722,12.1,E,A,V*5F
20220704 150014+00:00 $WIMWV,69.6,R,5.7,N,A*18
20220704 150016+00:00 $IIMDA,29.9,I,1.012,B,11.7,C,,C,93.1,,,C,,T,,M,,N,,M*26
20220704 150016+00:00 $HCHDT,112.8,T*23
20220704 150016+00:00 $GPRMC,150010,A,4842.3696,N,12520.6898,W,9.1,114,040722,12.1,E,A,V*5E
20220704 150016+00:00 $WIMWV,74.99,R,4.9,N,A*2D
20220704 150018+00:00 $IIMDA,29.9,I,1.012,B,11.7,C,,C,93.1,,,C,,T,,M,,N,,M*26
20220704 150018+00:00 $HCHDT,112.9,T*22
20220704 150018+00:00 $GPRMC,150012,A,4842.3696,N,12520.6898,W,9.1,114,040722,12.1,E,A,V*5C
20220704 150018+00:00 $WIMWV,70.3,R,4.3,N,A*10
20220704 150020+00:00 $IIMDA,29.9,I,1.012,B,11.7,C,,C,93.1,,,C,,T,,M,,N,,M*26
20220704 150020+00:00 $HCHDT,112.9,T*22
20220704 150020+00:00 $GPRMC,150014,A,4842.3696,N,12520.6796,W,9.1,114,040722,12.1,E,A,V*5B
20220704 150020+00:00 $WIMWV,68.1,R,5,N,A*07
20220704 150022+00:00 $IIMDA,29.9,I,1.012,B,11.7,C,,C,93.1,,,C,,T,,M,,N,,M*26
20220704 150022+00:00 $HCHDT,112.6,T*2D
20220704 150022+00:00 $GPRMC,150016,A,4842.3600,N,12520.6700,W,9.1,114,040722,12.1,E,A,V*59
20220704 150022+00:00 $WIMWV,66.8,R,5.79,N,A*20
20220704 150024+00:00 $IIMDA,29.9,I,1.012,B,11.7,C,,C,93.1,,,C,,T,,M,,N,,M*26
20220704 150024+00:00 $HCHDT,112.2,T*29
20220704 150024+00:00 $GPRMC,150018,A,4842.3600,N,12520.6598,W,9.1,114,040722,12.1,E,A,V*54
20220704 150024+00:00 $WIMWV,73.3,R,5.09,N,A*28
20220704 150026+00:00 $IIMDA,29.9,I,1.012,B,11.7,C,,C,93.1,,,C,,T,,M,,N,,M*26
20220704 150026+00:00 $HCHDT,112.2,T*29
20220704 150026+00:00 $GPRMC,150020,A,4842.3600,N,12520.6598,W,9.1,113,040722,12.1,E,A,V*58
20220704 150026+00:00 $WIMWV,69.9,R,4.59,N,A*2D
20220704 150028+00:00 $IIMDA,29.9,I,1.012,B,11.7,C,,C,93.1,,,C,,T,,M,,N,,M*26
20220704 150028+00:00 $HCHDT,112.5,T*2E
20220704 150028+00:00 $GPRMC,150022,A,4842.3600,N,12520.6496,W,9.1,113,040722,12.1,E,A,V*55
20220704 150028+00:00 $WIMWV,73.49,R,5.09,N,A*16
20220704 150030+00:00 $IIMDA,29.9,I,1.012,B,11.7,C,,C,93.1,,,C,,T,,M,,N,,M*26
20220704 150030+00:00 $HCHDT,112.8,T*23
20220704 150030+00:00 $GPRMC,150024,A,4842.3600,N,12520.6400,W,9.1,113,040722,12.1,E,A,V*5C
20220704 150030+00:00 $WIMWV,65.9,R,4.78,N,A*22
20220704 150032+00:00 $IIMDA,29.9,I,1.012,B,11.7,C,,C,93,,,C,,T,,M,,N,,M*39
20220704 150032+00:00 $HCHDT,112.8,T*23
20220704 150032+00:00 $GPRMC,150026,A,4842.3498,N,12520.6400,W,9.19,113,040722,12.1,E,A,V*64
20220704 150032+00:00 $WIMWV,56.6,R,5.6,N,A*15
20220704 150034+00:00 $IIMDA,29.9,I,1.012,B,11.7,C,,C,93.1,,,C,,T,,M,,N,,M*26
20220704 150034+00:00 $HCHDT,112.3,T*28
20220704 150034+00:00 $GPRMC,150028,A,4842.3498,N,12520.6298,W,9.1,113,040722,12.1,E,A,V*54
20220704 150034+00:00 $WIMWV,67.29,R,5,N,A*32
20220704 150036+00:00 $IIMDA,29.9,I,1.012,B,11.7,C,,C,93.1,,,C,,T,,M,,N,,M*26
20220704 150036+00:00 $HCHDT,112.1,T*2A
20220704 150036+00:00 $GPRMC,150030,A,4842.3498,N,12520.6196,W,9.1,113,040722,12.1,E,A,V*50
20220704 150036+00:00 $WIMWV,71.69,R,5.38,N,A*14
20220704 150038+00:00 $IIMDA,29.9,I,1.012,B,11.7,C,,C,93.1,,,C,,T,,M,,N,,M*26
20220704 150038+00:00 $HCHDT,112.7,T*2C
20220704 150038+00:00 $GPRMC,150032,A,4842.3498,N,12520.6196,W,9.1,113,040722,12.1,E,A,V*52
20220704 150038+00:00 $WIMWV,68.1,R,6.3,N,A*19
20220704 150040+00:00 $IIMDA,29.9,I,1.012,B,11.7,C,,C,93.1,,,C,,T,,M,,N,,M*26
20220704 150040+00:00 $HCHDT,113.2,T*28
20220704 150040+00:00 $GPRMC,150034,A,4842.3498,N,12520.6100,W,9.1,113,040722,12.1,E,A,V*5B
20220704 150040+00:00 $WIMWV,50.7,R,5.09,N,A*2D
20220704 150042+00:00 $IIMDA,29.9,I,1.012,B,11.7,C,,C,93.1,,,C,,T,,M,,N,,M*26
20220704 150042+00:00 $HCHDT,113.4,T*2E
20220704 150042+00:00 $GPRMC,150036,A,4842.3396,N,12520.5998,W,9.1,113,040722,12.1,E,A,V*5A
20220704 150042+00:00 $WIMWV,62.1,R,5.48,N,A*2F
20220704 150044+00:00 $IIMDA,29.9,I,1.012,B,11.7,C,,C,93.1,,,C,,T,,M,,N,,M*26
20220704 150044+00:00 $HCHDT,112.9,T*22
20220704 150044+00:00 $GPRMC,150038,A,4842.3396,N,12520.5896,W,9.1,113,040722,12.1,E,A,V*5B
20220704 150044+00:00 $WIMWV,64.7,R,5.7,N,A*14
20220704 150046+00:00 $IIMDA,29.9,I,1.012,B,11.7,C,,C,93.1,,,C,,T,,M,,N,,M*26
20220704 150046+00:00 $HCHDT,112.2,T*29
20220704 150046+00:00 $GPRMC,150040,A,4842.3396,N,12520.5896,W,9.1,113,040722,12.1,E,A,V*54
20220704 150046+00:00 $WIMWV,71.6,R,4.59,N,A*2B
20220704 150048+00:00 $IIMDA,29.9,I,1.012,B,11.7,C,,C,93.1,,,C,,T,,M,,N,,M*26
20220704 150048+00:00 $HCHDT,111.5,T*2D
20220704 150048+00:00 $GPRMC,150042,A,4842.3396,N,12520.5800,W,9.1,113,040722,12.1,E,A,V*59
20220704 150048+00:00 $WIMWV,64.3,R,3.09,N,A*28
20220704 150050+00:00 $IIMDA,29.9,I,1.012,B,11.7,C,,C,93.1,,,C,,T,,M,,N,,M*26
20220704 150050+00:00 $HCHDT,112,T*35
20220704 150050+00:00 $GPRMC,150044,A,4842.3396,N,12520.5698,W,9.1,113,040722,12.1,E,A,V*50
20220704 150050+00:00 $WIMWV,74.59,R,4.08,N,A*10
20220704 150052+00:00 $IIMDA,29.9,I,1.012,B,11.7,C,,C,93.1,,,C,,T,,M,,N,,M*26
20220704 150052+00:00 $HCHDT,113,T*34
20220704 150052+00:00 $GPRMC,150046,A,4842.3300,N,12520.5698,W,9.1,112,040722,12.1,E,A,V*5C
20220704 150052+00:00 $WIMWV,61.09,R,5,N,A*36
20220704 150054+00:00 $IIMDA,29.9,I,1.012,B,11.7,C,,C,93.2,,,C,,T,,M,,N,,M*25
20220704 150054+00:00 $HCHDT,113.2,T*28
20220704 150054+00:00 $GPRMC,150048,A,4842.3300,N,12520.5596,W,9.1,112,040722,12.1,E,A,V*5F
20220704 150054+00:00 $WIMWV,57.2,R,5,N,A*08
20220704 150056+00:00 $IIMDA,29.9,I,1.012,B,11.7,C,,C,93.1,,,C,,T,,M,,N,,M*26
20220704 150056+00:00 $HCHDT,112.8,T*23
20220704 150056+00:00 $GPRMC,150050,A,4842.3300,N,12520.5500,W,9.1,113,040722,12.1,E,A,V*58
20220704 150056+00:00 $WIMWV,46.2,R,5.09,N,A*2F
20220704 150058+00:00 $IIMDA,29.9,I,1.012,B,11.7,C,,C,93.2,,,C,,T,,M,,N,,M*25
20220704 150058+00:00 $HCHDT,112.5,T*2E
20220704 150058+00:00 $GPRMC,150052,A,4842.3300,N,12520.5398,W,9.1,113,040722,12.1,E,A,V*5D
20220704 150058+00:00 $WIMWV,43.8,R,5.79,N,A*27
20220704 150100+00:00 $IIMDA,29.9,I,1.012,B,11.7,C,,C,93.2,,,C,,T,,M,,N,,M*25
20220704 150100+00:00 $HCHDT,112.4,T*2F
20220704 150100+00:00 $GPRMC,150054,A,4842.3300,N,12520.5398,W,9.1,113,040722,12.1,E,A,V*5B
20220704 150100+00:00 $WIMWV,44.4,R,5.6,N,A*14
20220704 150102+00:00 $IIMDA,29.9,I,1.012,B,11.7,C,,C,93.2,,,C,,T,,M,,N,,M*25
20220704 150102+00:00 $HCHDT,112.7,T*2C
20220704 150102+00:00 $GPRMC,150056,A,4842.3198,N,12520.5296,W,9.1,113,040722,12.1,E,A,V*55
20220704 150102+00:00 $WIMWV,52.8,R,6.18,N,A*23
20220704 150104+00:00 $IIMDA,29.9,I,1.012,B,11.7,C,,C,93.2,,,C,,T,,M,,N,,M*25
20220704 150104+00:00 $HCHDT,113.4,T*2E
20220704 150104+00:00 $GPRMC,150058,A,4842.3198,N,12520.5200,W,9.1,113,040722,12.1,E,A,V*54
20220704 150104+00:00 $WIMWV,44.09,R,5.38,N,A*14
20220704 150106+00:00 $IIMDA,29.9,I,1.012,B,11.7,C,,C,93.2,,,C,,T,,M,,N,,M*25
20220704 150106+00:00 $HCHDT,113.5,T*2F
20220704 150106+00:00 $GPRMC,150100,A,4842.3198,N,12520.5200,W,9.1,113,040722,12.1,E,A,V*58
20220704 150106+00:00 $WIMWV,51.8,R,5.19,N,A*22
20220704 150108+00:00 $IIMDA,29.9,I,1.012,B,11.7,C,,C,93.2,,,C,,T,,M,,N,,M*25
20220704 150108+00:00 $HCHDT,112.7,T*2C
20220704 150108+00:00 $GPRMC,150102,A,4842.3198,N,12520.5098,W,9.1,113,040722,12.1,E,A,V*59
20220704 150108+00:00 $WIMWV,71,R,5.7,N,A*09
20220704 150110+00:00 $IIMDA,29.9,I,1.012,B,11.7,C,,C,93.2,,,C,,T,,M,,N,,M*25
20220704 150110+00:00 $HCHDT,112,T*35
20220704 150110+00:00 $GPRMC,150104,A,4842.3198,N,12520.4996,W,9.1,113,040722,12.1,E,A,V*59
20220704 150110+00:00 $WIMWV,62.3,R,5.48,N,A*2D
20220704 150112+00:00 $IIMDA,29.9,I,1.012,B,11.7,C,,C,93.2,,,C,,T,,M,,N,,M*25
20220704 150112+00:00 $HCHDT,111.6,T*2E
20220704 150112+00:00 $GPRMC,150106,A,4842.3096,N,12520.4996,W,9.1,113,040722,12.1,E,A,V*54
20220704 150112+00:00 $WIMWV,64.5,R,5.48,N,A*2D
20220704 150114+00:00 $IIMDA,29.9,I,1.012,B,11.7,C,,C,93.2,,,C,,T,,M,,N,,M*25
20220704 150114+00:00 $HCHDT,112.8,T*23
20220704 150114+00:00 $GPRMC,150108,A,4842.3096,N,12520.4900,W,9.1,113,040722,12.1,E,A,V*55
20220704 150114+00:00 $WIMWV,56.3,R,5.99,N,A*26
20220704 150116+00:00 $IIMDA,29.9,I,1.012,B,11.7,C,,C,93.2,,,C,,T,,M,,N,,M*25
20220704 150116+00:00 $HCHDT,113.6,T*2C
20220704 150116+00:00 $GPRMC,150110,A,4842.3096,N,12520.4798,W,9,113,040722,12.1,E,A,V*4C
20220704 150116+00:00 $WIMWV,58.1,R,5.6,N,A*1C
20220704 150118+00:00 $IIMDA,29.9,I,1.012,B,11.7,C,,C,93.2,,,C,,T,,M,,N,,M*25
20220704 150118+00:00 $HCHDT,112.8,T*23
20220704 150118+00:00 $GPRMC,150112,A,4842.3096,N,12520.4696,W,9,113,040722,12.1,E,A,V*41
20220704 150118+00:00 $WIMWV,71,R,5.99,N,A*3E
20220704 150120+00:00 $IIMDA,29.9,I,1.012,B,11.7,C,,C,93.2,,,C,,T,,M,,N,,M*25
20220704 150120+00:00 $HCHDT,112.3,T*28
20220704 150120+00:00 $GPRMC,150114,A,4842.3096,N,12520.4696,W,9,113,040722,12.1,E,A,V*47
20220704 150120+00:00 $WIMWV,78.09,R,4.39,N,A*1B
20220704 150122+00:00 $IIMDA,29.9,I,1.012,B,11.7,C,,C,93.2,,,C,,T,,M,,N,,M*25
20220704 150122+00:00 $HCHDT,112.6,T*2D
20220704 150122+00:00 $GPRMC,150116,A,4842.3000,N,12520.4600,W,9.1,113,040722,12.1,E,A,V*5A
20220704 150122+00:00 $WIMWV,69.49,R,5.09,N,A*1D
20220704 150124+00:00 $IIMDA,29.9,I,1.012,B,11.7,C,,C,93.2,,,C,,T,,M,,N,,M*25
20220704 150124+00:00 $HCHDT,112.8,T*23
20220704 150124+00:00 $GPRMC,150118,A,4842.3000,N,12520.4498,W,9.1,112,040722,12.1,E,A,V*56
20220704 150124+00:00 $WIMWV,69.4,R,5.19,N,A*25
20220704 150126+00:00 $IIMDA,29.9,I,1.012,B,11.7,C,,C,93.2,,,C,,T,,M,,N,,M*25
20220704 150126+00:00 $HCHDT,112.9,T*22
20220704 150126+00:00 $GPRMC,150120,A,4842.3000,N,12520.4498,W,9.1,112,040722,12.1,E,A,V*5D
20220704 150126+00:00 $WIMWV,72.3,R,5.38,N,A*2B
20220704 150128+00:00 $IIMDA,29.9,I,1.012,B,11.7,C,,C,93.2,,,C,,T,,M,,N,,M*25
20220704 150128+00:00 $HCHDT,113,T*34
20220704 150128+00:00 $GPRMC,150122,A,4842.3000,N,12520.4396,W,9.1,113,040722,12.1,E,A,V*57
20220704 150128+00:00 $WIMWV,65,R,5.89,N,A*3A
20220704 150130+00:00 $IIMDA,29.9,I,1.012,B,11.7,C,,C,93.2,,,C,,T,,M,,N,,M*25
20220704 150130+00:00 $HCHDT,113.3,T*29
20220704 150130+00:00 $GPRMC,150124,A,4842.3000,N,12520.4300,W,9,113,040722,12.1,E,A,V*41
20220704 150130+00:00 $WIMWV,67.6,R,5.19,N,A*29
20220704 150132+00:00 $IIMDA,29.9,I,1.012,B,11.7,C,,C,93.3,,,C,,T,,M,,N,,M*24
20220704 150132+00:00 $HCHDT,113,T*34
20220704 150132+00:00 $GPRMC,150126,A,4842.2898,N,12520.4300,W,9,113,040722,12.1,E,A,V*4B
20220704 150132+00:00 $WIMWV,55,R,5.79,N,A*36
20220704 150134+00:00 $IIMDA,29.9,I,1.012,B,11.7,C,,C,93.2,,,C,,T,,M,,N,,M*25
20220704 150134+00:00 $HCHDT,113.2,T*28
20220704 150134+00:00 $GPRMC,150128,A,4842.2898,N,12520.4198,W,9,113,040722,12.1,E,A,V*46
20220704 150134+00:00 $WIMWV,68,R,6.08,N,A*3D
20220704 150136+00:00 $IIMDA,29.9,I,1.012,B,11.6,C,,C,93.3,,,C,,T,,M,,N,,M*25
20220704 150136+00:00 $HCHDT,113.3,T*29
20220704 150136+00:00 $GPRMC,150130,A,4842.2898,N,12520.4096,W,9,113,040722,12.1,E,A,V*40
20220704 150136+00:00 $WIMWV,61.7,R,5.19,N,A*2E
20220704 150138+00:00 $IIMDA,29.9,I,1.012,B,11.6,C,,C,93.3,,,C,,T,,M,,N,,M*25
20220704 150138+00:00 $HCHDT,113.5,T*2F
20220704 150138+00:00 $GPRMC,150132,A,4842.2898,N,12520.4000,W,9,113,040722,12.1,E,A,V*4D
20220704 150138+00:00 $WIMWV,60.19,R,5.19,N,A*10
20220704 150140+00:00 $IIMDA,29.9,I,1.012,B,11.6,C,,C,93.2,,,C,,T,,M,,N,,M*24
20220704 150140+00:00 $HCHDT,113.9,T*23
20220704 150140+00:00 $GPRMC,150134,A,4842.2898,N,12520.4000,W,9.1,113,040722,12.1,E,A,V*54
20220704 150140+00:00 $WIMWV,47.89,R,4.9,N,A*2C
20220704 150142+00:00 $IIMDA,29.9,I,1.012,B,11.6,C,,C,93.2,,,C,,T,,M,,N,,M*24
20220704 150142+00:00 $HCHDT,113.2,T*28
20220704 150142+00:00 $GPRMC,150136,A,4842.2796,N,12520.3898,W,9.1,113,040722,12.1,E,A,V*59
20220704 150142+00:00 $WIMWV,38.59,R,5.6,N,A*27
20220704 150144+00:00 $IIMDA,29.9,I,1.012,B,11.6,C,,C,93.3,,,C,,T,,M,,N,,M*25
20220704 150144+00:00 $HCHDT,112.4,T*2F
20220704 150144+00:00 $GPRMC,150138,A,4842.2796,N,12520.3796,W,9.1,113,040722,12.1,E,A,V*56
20220704 150144+00:00 $WIMWV,54.9,R,5.99,N,A*2E
20220704 150146+00:00 $IIMDA,29.9,I,1.012,B,11.6,C,,C,93.3,,,C,,T,,M,,N,,M*25
20220704 150146+00:00 $HCHDT,112.1,T*2A
20220704 150146+00:00 $GPRMC,150140,A,4842.2796,N,12520.3796,W,9.1,114,040722,12.1,E,A,V*5E
20220704 150146+00:00 $WIMWV,67,R,5.79,N,A*37
20220704 150148+00:00 $IIMDA,29.9,I,1.012,B,11.6,C,,C,93.3,,,C,,T,,M,,N,,M*25
20220704 150148+00:00 $HCHDT,112.6,T*2D
20220704 150148+00:00 $GPRMC,150142,A,4842.2796,N,12520.3700,W,9.1,113,040722,12.1,E,A,V*54
20220704 150148+00:00 $WIMWV,70.1,R,5.19,N,A*28
20220704 150150+00:00 $IIMDA,29.9,I,1.012,B,11.6,C,,C,93.3,,,C,,T,,M,,N,,M*25
20220704 150150+00:00 $HCHDT,113.1,T*2B
20220704 150150+00:00 $GPRMC,150144,A,4842.2796,N,12520.3598,W,9,113,040722,12.1,E,A,V*4E
20220704 150150+00:00 $WIMWV,68.9,R,4.78,N,A*2F
20220704 150152+00:00 $IIMDA,29.9,I,1.012,B,11.6,C,,C,93.3,,,C,,T,,M,,N,,M*25
20220704 150152+00:00 $HCHDT,112.8,T*23
20220704 150152+00:00 $GPRMC,150146,A,4842.2700,N,12520.3598,W,9,113,040722,12.1,E,A,V*43
20220704 150152+00:00 $WIMWV,68.7,R,4.59,N,A*22
20220704 150154+00:00 $IIMDA,29.9,I,1.012,B,11.6,C,,C,93.3,,,C,,T,,M,,N,,M*25
20220704 150154+00:00 $HCHDT,112.1,T*2A
20220704 150154+00:00 $GPRMC,150148,A,4842.2700,N,12520.3496,W,9,113,040722,12.1,E,A,V*42
20220704 150154+00:00 $WIMWV,64.19,R,4.68,N,A*13
20220704 150156+00:00 $IIMDA,29.9,I,1.012,B,11.6,C,,C,93.3,,,C,,T,,M,,N,,M*25
20220704 150156+00:00 $HCHDT,111.8,T*20
20220704 150156+00:00 $GPRMC,150150,A,4842.2700,N,12520.3400,W,9,113,040722,12.1,E,A,V*44
20220704 150156+00:00 $WIMWV,54.4,R,5.38,N,A*28
20220704 150158+00:00 $IIMDA,29.9,I,1.012,B,11.6,C,,C,93.3,,,C,,T,,M,,N,,M*25
20220704 150158+00:00 $HCHDT,111.9,T*21
20220704 150158+00:00 $GPRMC,150152,A,4842.2700,N,12520.3298,W,9.1,113,040722,12.1,E,A,V*5E
20220704 150158+00:00 $WIMWV,55.2,R,5.7,N,A*13
20220704 150200+00:00 $IIMDA,29.9,I,1.012,B,11.6,C,,C,93.3,,,C,,T,,M,,N,,M*25
20220704 150200+00:00 $HCHDT,112.4,T*2F
20220704 150200+00:00 $GPRMC,150154,A,4842.2700,N,12520.3298,W,9.1,112,040722,12.1,E,A,V*59
20220704 150200+00:00 $WIMWV,53,R,5.79,N,A*30
20220704 150202+00:00 $IIMDA,29.9,I,1.012,B,11.6,C,,C,93.3,,,C,,T,,M,,N,,M*25
20220704 150202+00:00 $HCHDT,112.8,T*23
20220704 150202+00:00 $GPRMC,150156,A,4842.2700,N,12520.3196,W,9.1,113,040722,12.1,E,A,V*57
20220704 150202+00:00 $WIMWV,51.8,R,5.09,N,A*23
20220704 150204+00:00 $IIMDA,29.9,I,1.012,B,11.6,C,,C,93.3,,,C,,T,,M,,N,,M*25
20220704 150204+00:00 $HCHDT,112.6,T*2D
20220704 150204+00:00 $GPRMC,150158,A,4842.2598,N,12520.3100,W,9,113,040722,12.1,E,A,V*4A
20220704 150204+00:00 $WIMWV,42.79,R,4.59,N,A*13
20220704 150206+00:00 $IIMDA,29.9,I,1.012,B,11.6,C,,C,93.4,,,C,,T,,M,,N,,M*22
20220704 150206+00:00 $HCHDT,112.5,T*2E
20220704 150206+00:00 $GPRMC,150200,A,4842.2598,N,12520.3100,W,9,113,040722,12.1,E,A,V*44
20220704 150206+00:00 $WIMWV,54.29,R,6.3,N,A*2C
20220704 150208+00:00 $IIMDA,29.9,I,1.012,B,11.6,C,,C,93.3,,,C,,T,,M,,N,,M*25
20220704 150208+00:00 $HCHDT,112.6,T*2D
20220704 150208+00:00 $GPRMC,150202,A,4842.2598,N,12520.2998,W,9,113,040722,12.1,E,A,V*4E
20220704 150208+00:00 $WIMWV,55,R,5.99,N,A*38
20220704 150210+00:00 $IIMDA,29.9,I,1.012,B,11.6,C,,C,93.4,,,C,,T,,M,,N,,M*22
20220704 150210+00:00 $HCHDT,112.4,T*2F
20220704 150210+00:00 $GPRMC,150204,A,4842.2598,N,12520.2896,W,9,113,040722,12.1,E,A,V*47
20220704 150210+00:00 $WIMWV,69.69,R,5.19,N,A*1E
20220704 150212+00:00 $IIMDA,29.9,I,1.012,B,11.6,C,,C,93.4,,,C,,T,,M,,N,,M*22
20220704 150212+00:00 $HCHDT,112.6,T*2D
20220704 150212+00:00 $GPRMC,150206,A,4842.2598,N,12520.2896,W,9.1,113,040722,12.1,E,A,V*5A
20220704 150212+00:00 $WIMWV,72.1,R,4.9,N,A*1A
20220704 150214+00:00 $IIMDA,29.9,I,1.012,B,11.6,C,,C,93.4,,,C,,T,,M,,N,,M*22
20220704 150214+00:00 $HCHDT,112.8,T*23
20220704 150214+00:00 $GPRMC,150208,A,4842.2496,N,12520.2800,W,9.1,113,040722,12.1,E,A,V*54
20220704 150214+00:00 $WIMWV,70.9,R,5.19,N,A*20
20220704 150216+00:00 $IIMDA,29.9,I,1.012,B,11.6,C,,C,93.4,,,C,,T,,M,,N,,M*22
20220704 150216+00:00 $HCHDT,112.2,T*29
20220704 150216+00:00 $GPRMC,150210,A,4842.2496,N,12520.2698,W,9.1,113,040722,12.1,E,A,V*52
20220704 150216+00:00 $WIMWV,55.9,R,4.49,N,A*23
20220704 150218+00:00 $IIMDA,29.9,I,1.012,B,11.6,C,,C,93.4,,,C,,T,,M,,N,,M*22
20220704 150218+00:00 $HCHDT,112,T*35
20220704 150218+00:00 $GPRMC,150212,A,4842.2496,N,12520.2596,W,9.1,113,040722,12.1,E,A,V*5D
20220704 150218+00:00 $WIMWV,50.7,R,4.9,N,A*1C
20220704 150220+00:00 $IIMDA,29.9,I,1.012,B,11.6,C,,C,93.4,,,C,,T,,M,,N,,M*22
20220704 150220+00:00 $HCHDT,112.7,T*2C
20220704 150220+00:00 $GPRMC,150214,A,4842.2496,N,12520.2596,W,9.1,113,040722,12.1,E,A,V*5B
20220704 150220+00:00 $WIMWV,67.7,R,5.19,N,A*28
20220704 150222+00:00 $IIMDA,29.9,I,1.012,B,11.6,C,,C,93.4,,,C,,T,,M,,N,,M*22
20220704 150222+00:00 $HCHDT,113.3,T*29
20220704 150222+00:00 $GPRMC,150216,A,4842.2496,N,12520.2500,W,9.1,113,040722,12.1,E,A,V*56
20220704 150222+00:00 $WIMWV,80.29,R,2.39,N,A*18
20220704 150224+00:00 $IIMDA,29.9,I,1.012,B,11.6,C,,C,93.4,,,C,,T,,M,,N,,M*22
20220704 150224+00:00 $HCHDT,113.8,T*22
20220704 150224+00:00 $GPRMC,150218,A,4842.2400,N,12520.2398,W,9.1,113,040722,12.1,E,A,V*50
20220704 150224+00:00 $WIMWV,68,R,4.08,N,A*3F
20220704 150226+00:00 $IIMDA,29.9,I,1.012,B,11.6,C,,C,93.4,,,C,,T,,M,,N,,M*22
20220704 150226+00:00 $HCHDT,113.4,T*2E
20220704 150226+00:00 $GPRMC,150220,A,4842.2400,N,12520.2398,W,9,113,040722,12.1,E,A,V*44
20220704 150226+00:00 $WIMWV,39.9,R,3.6,N,A*15
20220704 150228+00:00 $IIMDA,29.9,I,1.012,B,11.6,C,,C,93.4,,,C,,T,,M,,N,,M*22
20220704 150228+00:00 $HCHDT,112.7,T*2C
20220704 150228+00:00 $GPRMC,150222,A,4842.2400,N,12520.2296,W,9,113,040722,12.1,E,A,V*49
20220704 150228+00:00 $WIMWV,42.99,R,5.09,N,A*19
20220704 150230+00:00 $IIMDA,29.9,I,1.012,B,11.6,C,,C,93.4,,,C,,T,,M,,N,,M*22
20220704 150230+00:00 $HCHDT,112.6,T*2D
20220704 150230+00:00 $GPRMC,150224,A,4842.2400,N,12520.2200,W,9.1,113,040722,12.1,E,A,V*5F
20220704 150230+00:00 $WIMWV,41.6,R,5.09,N,A*2C
20220704 150232+00:00 $IIMDA,29.9,I,1.012,B,11.6,C,,C,93.4,,,C,,T,,M,,N,,M*22
20220704 150232+00:00 $HCHDT,112.9,T*22
20220704 150232+00:00 $GPRMC,150226,A,4842.2400,N,12520.2200,W,9.1,113,040722,12.1,E,A,V*5D
20220704 150232+00:00 $WIMWV,68.39,R,5.79,N,A*1C
20220704 150234+00:00 $IIMDA,29.9,I,1.012,B,11.6,C,,C,93.4,,,C,,T,,M,,N,,M*22
20220704 150234+00:00 $HCHDT,113.2,T*28
20220704 150234+00:00 $GPRMC,150228,A,4842.2298,N,12520.2098,W,9.1,113,040722,12.1,E,A,V*57
20220704 150234+00:00 $WIMWV,63.99,R,5.79,N,A*1D
20220704 150236+00:00 $IIMDA,29.9,I,1.012,B,11.6,C,,C,93.4,,,C,,T,,M,,N,,M*22
20220704 150236+00:00 $HCHDT,113,T*34
20220704 150236+00:00 $GPRMC,150230,A,4842.2298,N,12520.1996,W,9.1,114,040722,12.1,E,A,V*5D
20220704 150236+00:00 $WIMWV,72.9,R,5.48,N,A*26
20220704 150238+00:00 $IIMDA,29.9,I,1.012,B,11.6,C,,C,93.4,,,C,,T,,M,,N,,M*22
20220704 150238+00:00 $HCHDT,112.6,T*2D
20220704 150238+00:00 $GPRMC,150232,A,4842.2298,N,12520.1996,W,9,114,040722,12.1,E,A,V*40
20220704 150238+00:00 $WIMWV,73.6,R,5.48,N,A*28
20220704 150240+00:00 $IIMDA,29.9,I,1.012,B,11.6,C,,C,93.4,,,C,,T,,M,,N,,M*22
20220704 150240+00:00 $HCHDT,112.5,T*2E
20220704 150240+00:00 $GPRMC,150234,A,4842.2298,N,12520.1900,W,9,114,040722,12.1,E,A,V*49
20220704 150240+00:00 $WIMWV,69,R,5.89,N,A*36
20220704 150242+00:00 $IIMDA,29.9,I,1.012,B,11.6,C,,C,93.5,,,C,,T,,M,,N,,M*23
20220704 150242+00:00 $HCHDT,112.3,T*28
20220704 150242+00:00 $GPRMC,150236,A,4842.2298,N,12520.1798,W,9,114,040722,12.1,E,A,V*44
20220704 150242+00:00 $WIMWV,68.7,R,5.09,N,A*26
20220704 150244+00:00 $IIMDA,29.9,I,1.012,B,11.6,C,,C,93.5,,,C,,T,,M,,N,,M*23
20220704 150244+00:00 $HCHDT,112,T*35
20220704 150244+00:00 $GPRMC,150238,A,4842.2196,N,12520.1696,W,9,114,040722,12.1,E,A,V*48
20220704 150244+00:00 $WIMWV,75.69,R,5.48,N,A*17
20220704 150246+00:00 $IIMDA,29.9,I,1.012,B,11.6,C,,C,93.5,,,C,,T,,M,,N,,M*23
20220704 150246+00:00 $HCHDT,112.4,T*2F
20220704 150246+00:00 $GPRMC,150240,A,4842.2196,N,12520.1696,W,9,114,040722,12.1,E,A,V*47
20220704 150246+00:00 $WIMWV,89.2,R,4.9,N,A*1D
20220704 150248+00:00 $IIMDA,29.9,I,1.012,B,11.6,C,,C,93.5,,,C,,T,,M,,N,,M*23
20220704 150248+00:00 $HCHDT,112.4,T*2F
20220704 150248+00:00 $GPRMC,150242,A,4842.2196,N,12520.1600,W,9,113,040722,12.1,E,A,V*4D
20220704 150248+00:00 $WIMWV,71.1,R,4.39,N,A*2A
20220704 150250+00:00 $IIMDA,29.9,I,1.012,B,11.6,C,,C,93.5,,,C,,T,,M,,N,,M*23
20220704 150250+00:00 $HCHDT,112,T*35
20220704 150250+00:00 $GPRMC,150244,A,4842.2196,N,12520.1498,W,9,113,040722,12.1,E,A,V*48
20220704 150250+00:00 $WIMWV,71.89,R,3.6,N,A*21
20220704 150252+00:00 $IIMDA,29.9,I,1.012,B,11.6,C,,C,93.4,,,C,,T,,M,,N,,M*22
20220704 150252+00:00 $HCHDT,111.7,T*2F
20220704 150252+00:00 $GPRMC,150246,A,4842.2196,N,12520.1498,W,9,113,040722,12.1,E,A,V*4A
20220704 150252+00:00 $WIMWV,72.9,R,3.38,N,A*27
20220704 150254+00:00 $IIMDA,29.9,I,1.012,B,11.6,C,,C,93.5,,,C,,T,,M,,N,,M*23
20220704 150254+00:00 $HCHDT,112.4,T*2F
20220704 150254+00:00 $GPRMC,150248,A,4842.2100,N,12520.1396,W,9,113,040722,12.1,E,A,V*42
20220704 150254+00:00 $WIMWV,95.2,R,3.38,N,A*25
20220704 150256+00:00 $IIMDA,29.9,I,1.012,B,11.6,C,,C,93.5,,,C,,T,,M,,N,,M*23
20220704 150256+00:00 $HCHDT,113.1,T*2B
20220704 150256+00:00 $GPRMC,150250,A,4842.2100,N,12520.1300,W,9,113,040722,12.1,E,A,V*44
20220704 150256+00:00 $WIMWV,67.49,R,3.89,N,A*1D
20220704 150258+00:00 $IIMDA,29.9,I,1.012,B,11.6,C,,C,93.4,,,C,,T,,M,,N,,M*22
20220704 150258+00:00 $HCHDT,112.6,T*2D
20220704 150258+00:00 $GPRMC,150252,A,4842.2100,N,12520.1300,W,9,113,040722,12.1,E,A,V*46
20220704 150258+00:00 $WIMWV,68.3,R,4.68,N,A*24
20220704 150300+00:00 $IIMDA,29.9,I,1.012,B,11.6,C,,C,93.5,,,C,,T,,M,,N,,M*23
20220704 150300+00:00 $HCHDT,112.2,T*29
20220704 150300+00:00 $GPRMC,150254,A,4842.2100,N,12520.1198,W,9,113,040722,12.1,E,A,V*43
20220704 150300+00:00 $WIMWV,81.39,R,4.3,N,A*27
20220704 150302+00:00 $IIMDA,29.9,I,1.012,B,11.6,C,,C,93.5,,,C,,T,,M,,N,,M*23
20220704 150302+00:00 $HCHDT,112.3,T*28
20220704 150302+00:00 $GPRMC,150256,A,4842.2100,N,12520.1096,W,9.1,113,040722,12.1,E,A,V*51
20220704 150302+00:00 $WIMWV,71.49,R,3.79,N,A*15
20220704 150304+00:00 $IIMDA,29.9,I,1.012,B,11.6,C,,C,93.5,,,C,,T,,M,,N,,M*23
20220704 150304+00:00 $HCHDT,112.4,T*2F
20220704 150304+00:00 $GPRMC,150258,A,4842.1998,N,12520.1000,W,9.1,113,040722,12.1,E,A,V*5A
20220704 150304+00:00 $WIMWV,70.3,R,1.5,N,A*13
20220704 150306+00:00 $IIMDA,29.9,I,1.012,B,11.6,C,,C,93.5,,,C,,T,,M,,N,,M*23
20220704 150306+00:00 $HCHDT,112.4,T*2F
20220704 150306+00:00 $GPRMC,150300,A,4842.1998,N,12520.1000,W,9.1,113,040722,12.1,E,A,V*56
20220704 150306+00:00 $WIMWV,62.4,R,2.8,N,A*19
20220704 150308+00:00 $IIMDA,29.9,I,1.012,B,11.6,C,,C,93.5,,,C,,T,,M,,N,,M*23
20220704 150308+00:00 $HCHDT,112.7,T*2C
20220704 150308+00:00 $GPRMC,150302,A,4842.1998,N,12520.0898,W,9,113,040722,12.1,E,A,V*43
20220704 150308+00:00 $WIMWV,63.5,R,3.19,N,A*28
20220704 150310+00:00 $IIMDA,29.9,I,1.012,B,11.6,C,,C,93.5,,,C,,T,,M,,N,,M*23
20220704 150310+00:00 $HCHDT,113.1,T*2B
20220704 150310+00:00 $GPRMC,150304,A,4842.1998,N,12520.0796,W,9,113,040722,12.1,E,A,V*44
20220704 150310+00:00 $WIMWV,61.2,R,5,N,A*0D
20220704 150312+00:00 $IIMDA,29.9,I,1.012,B,11.6,C,,C,93.5,,,C,,T,,M,,N,,M*23
20220704 150312+00:00 $HCHDT,113.2,T*28
20220704 150312+00:00 $GPRMC,150306,A,4842.1998,N,12520.0796,W,9,113,040722,12.1,E,A,V*46
20220704 150312+00:00 $WIMWV,65.49,R,5.09,N,A*11
20220704 150314+00:00 $IIMDA,29.9,I,1.012,B,11.6,C,,C,93.5,,,C,,T,,M,,N,,M*23
20220704 150314+00:00 $HCHDT,112.6,T*2D
20220704 150314+00:00 $GPRMC,150308,A,4842.1896,N,12520.0700,W,9,113,040722,12.1,E,A,V*48
20220704 150314+00:00 $WIMWV,79.6,R,5.48,N,A*22
20220704 150316+00:00 $IIMDA,29.9,I,1.012,B,11.6,C,,C,93.5,,,C,,T,,M,,N,,M*23
20220704 150316+00:00 $HCHDT,112.4,T*2F
20220704 150316+00:00 $GPRMC,150310,A,4842.1896,N,12520.0598,W,9,114,040722,12.1,E,A,V*45
20220704 150316+00:00 $WIMWV,76.7,R,4.3,N,A*12
20220704 150318+00:00 $IIMDA,29.9,I,1.012,B,11.6,C,,C,93.5,,,C,,T,,M,,N,,M*23
20220704 150318+00:00 $HCHDT,112.7,T*2C
20220704 150318+00:00 $GPRMC,150312,A,4842.1896,N,12520.0598,W,9.1,114,040722,12.1,E,A,V*58
20220704 150318+00:00 $WIMWV,71.29,R,4.08,N,A*12
20220704 150320+00:00 $IIMDA,29.9,I,1.012,B,11.6,C,,C,93.5,,,C,,T,,M,,N,,M*23
20220704 150320+00:00 $HCHDT,113.4,T*2E
20220704 150320+00:00 $GPRMC,150314,A,4842.1896,N,12520.0496,W,9,114,040722,12.1,E,A,V*4E
20220704 150320+00:00 $WIMWV,61.2,R,1.89,N,A*26
20220704 150322+00:00 $IIMDA,29.9,I,1.012,B,11.6,C,,C,93.5,,,C,,T,,M,,N,,M*23
20220704 150322+00:00 $HCHDT,114.1,T*2C
20220704 150322+00:00 $GPRMC,150316,A,4842.1896,N,12520.0400,W,9,114,040722,12.1,E,A,V*43
20220704 150322+00:00 $WIMWV,86.6,R,3.98,N,A*29
20220704 150324+00:00 $IIMDA,29.9,I,1.012,B,11.6,C,,C,93.5,,,C,,T,,M,,N,,M*23
20220704 150324+00:00 $HCHDT,114.3,T*2E
20220704 150324+00:00 $GPRMC,150318,A,4842.1800,N,12520.0400,W,9,114,040722,12.1,E,A,V*42
20220704 150324+00:00 $WIMWV,83.9,R,2.8,N,A*1B
20220704 150326+00:00 $IIMDA,29.9,I,1.012,B,11.6,C,,C,93.5,,,C,,T,,M,,N,,M*23
20220704 150326+00:00 $HCHDT,113.6,T*2C
20220704 150326+00:00 $GPRMC,150320,A,4842.1800,N,12520.0298,W,9,114,040722,12.1,E,A,V*4E
20220704 150326+00:00 $WIMWV,72.9,R,2.39,N,A*27
20220704 150328+00:00 $IIMDA,29.9,I,1.012,B,11.6,C,,C,93.5,,,C,,T,,M,,N,,M*23
20220704 150328+00:00 $HCHDT,112.2,T*29
20220704 150328+00:00 $GPRMC,150322,A,4842.1800,N,12520.0196,W,9,114,040722,12.1,E,A,V*41
20220704 150328+00:00 $WIMWV,68.7,R,3.98,N,A*28
20220704 150330+00:00 $IIMDA,29.9,I,1.012,B,11.6,C,,C,93.5,,,C,,T,,M,,N,,M*23
20220704 150330+00:00 $HCHDT,112.2,T*29
20220704 150330+00:00 $GPRMC,150324,A,4842.1800,N,12520.0100,W,9.1,114,040722,12.1,E,A,V*57
20220704 150330+00:00 $WIMWV,80.09,R,3.79,N,A*1F
20220704 150332+00:00 $IIMDA,29.9,I,1.012,B,11.6,C,,C,93.5,,,C,,T,,M,,N,,M*23
20220704 150332+00:00 $HCHDT,113.2,T*28
20220704 150332+00:00 $GPRMC,150326,A,4842.1800,N,12520.0100,W,9.1,114,040722,12.1,E,A,V*55
20220704 150332+00:00 $WIMWV,76.09,R,4.2,N,A*2D
20220704 150334+00:00 $IIMDA,29.9,I,1.012,B,11.6,C,,C,93.5,,,C,,T,,M,,N,,M*23
20220704 150334+00:00 $HCHDT,113.4,T*2E
20220704 150334+00:00 $GPRMC,150328,A,4842.1698,N,12519.9998,W,9,114,040722,12.1,E,A,V*41
20220704 150334+00:00 $WIMWV,74.5,R,3.09,N,A*2F
20220704 150336+00:00 $IIMDA,29.9,I,1.012,B,11.6,C,,C,93.5,,,C,,T,,M,,N,,M*23
20220704 150336+00:00 $HCHDT,113,T*34
20220704 150336+00:00 $GPRMC,150330,A,4842.1698,N,12519.9896,W,9,114,040722,12.1,E,A,V*47
20220704 150336+00:00 $WIMWV,71.8,R,4.3,N,A*1A
20220704 150338+00:00 $IIMDA,29.9,I,1.012,B,11.6,C,,C,93.6,,,C,,T,,M,,N,,M*20
20220704 150338+00:00 $HCHDT,112.1,T*2A
20220704 150338+00:00 $GPRMC,150332,A,4842.1698,N,12519.9896,W,9,114,040722,12.1,E,A,V*45
20220704 150338+00:00 $WIMWV,65,R,4.49,N,A*37
20220704 150340+00:00 $IIMDA,29.9,I,1.012,B,11.6,C,,C,93.6,,,C,,T,,M,,N,,M*20
20220704 150340+00:00 $HCHDT,112,T*35
20220704 150340+00:00 $GPRMC,150334,A,4842.1698,N,12519.9800,W,9,114,040722,12.1,E,A,V*4C
20220704 150340+00:00 $WIMWV,71.2,R,3.98,N,A*25
20220704 150342+00:00 $IIMDA,29.9,I,1.012,B,11.6,C,,C,93.6,,,C,,T,,M,,N,,M*20
20220704 150342+00:00 $HCHDT,112.5,T*2E
20220704 150342+00:00 $GPRMC,150336,A,4842.1698,N,12519.9698,W,9,114,040722,12.1,E,A,V*41
20220704 150342+00:00 $WIMWV,63,R,5.29,N,A*36
20220704 150344+00:00 $IIMDA,29.9,I,1.012,B,11.6,C,,C,93.6,,,C,,T,,M,,N,,M*20
20220704 150344+00:00 $HCHDT,112.6,T*2D
20220704 150344+00:00 $GPRMC,150338,A,4842.1596,N,12519.9698,W,9,114,040722,12.1,E,A,V*42
20220704 150344+00:00 $WIMWV,59.09,R,6.18,N,A*19
20220704 150346+00:00 $IIMDA,29.9,I,1.012,B,11.6,C,,C,93.5,,,C,,T,,M,,N,,M*23
20220704 150346+00:00 $HCHDT,112.2,T*29
20220704 150346+00:00 $GPRMC,150340,A,4842.1596,N,12519.9596,W,9,114,040722,12.1,E,A,V*40
20220704 150346+00:00 $WIMWV,68.59,R,6.08,N,A*1F
20220704 150348+00:00 $IIMDA,29.9,I,1.012,B,11.6,C,,C,93.6,,,C,,T,,M,,N,,M*20
20220704 150348+00:00 $HCHDT,112.2,T*29
20220704 150348+00:00 $GPRMC,150342,A,4842.1596,N,12519.9500,W,9,114,040722,12.1,E,A,V*4D
20220704 150348+00:00 $WIMWV,66.7,R,5.7,N,A*16
20220704 150350+00:00 $IIMDA,29.9,I,1.012,B,11.6,C,,C,93.6,,,C,,T,,M,,N,,M*20
20220704 150350+00:00 $HCHDT,112.4,T*2F
20220704 150350+00:00 $GPRMC,150344,A,4842.1596,N,12519.9398,W,9,114,040722,12.1,E,A,V*4C
20220704 150350+00:00 $WIMWV,66.39,R,5.09,N,A*15
20220704 150352+00:00 $IIMDA,29.9,I,1.012,B,11.6,C,,C,93.6,,,C,,T,,M,,N,,M*20
20220704 150352+00:00 $HCHDT,112.5,T*2E
20220704 150352+00:00 $GPRMC,150346,A,4842.1596,N,12519.9398,W,9,114,040722,12.1,E,A,V*4E
20220704 150352+00:00 $WIMWV,67.09,R,4.08,N,A*17
20220704 150354+00:00 $IIMDA,29.9,I,1.012,B,11.6,C,,C,93.6,,,C,,T,,M,,N,,M*20
20220704 150354+00:00 $HCHDT,112.3,T*28
20220704 150354+00:00 $GPRMC,150348,A,4842.1500,N,12519.9296,W,9,114,040722,12.1,E,A,V*40
20220704 150354+00:00 $WIMWV,70,R,4.59,N,A*32
20220704 150356+00:00 $IIMDA,29.9,I,1.012,B,11.6,C,,C,93.6,,,C,,T,,M,,N,,M*20
20220704 150356+00:00 $HCHDT,111.9,T*21
20220704 150356+00:00 $GPRMC,150350,A,4842.1500,N,12519.9200,W,9.1,114,040722,12.1,E,A,V*59
20220704 150356+00:00 $WIMWV,71.89,R,5,N,A*3F
20220704 150358+00:00 $IIMDA,29.9,I,1.012,B,11.6,C,,C,93.6,,,C,,T,,M,,N,,M*20
20220704 150358+00:00 $HCHDT,112.4,T*2F
20220704 150358+00:00 $GPRMC,150352,A,4842.1500,N,12519.9200,W,9.1,113,040722,12.1,E,A,V*5C
20220704 150358+00:00 $WIMWV,70,R,4.78,N,A*31
20220704 150400+00:00 $IIMDA,29.9,I,1.012,B,11.6,C,,C,93.6,,,C,,T,,M,,N,,M*20
20220704 150400+00:00 $HCHDT,112.9,T*22
20220704 150400+00:00 $GPRMC,150354,A,4842.1500,N,12519.9098,W,9.1,113,040722,12.1,E,A,V*59
20220704 150400+00:00 $WIMWV,71.89,R,5.09,N,A*18
20220704 150402+00:00 $IIMDA,29.9,I,1.012,B,11.6,C,,C,93.6,,,C,,T,,M,,N,,M*20
20220704 150402+00:00 $HCHDT,112.5,T*2E
20220704 150402+00:00 $GPRMC,150356,A,4842.1500,N,12519.8996,W,9.1,113,040722,12.1,E,A,V*5D
20220704 150402+00:00 $WIMWV,40.9,R,5.19,N,A*23
20220704 150404+00:00 $IIMDA,29.9,I,1.012,B,11.6,C,,C,93.6,,,C,,T,,M,,N,,M*20
20220704 150404+00:00 $HCHDT,112.6,T*2D
20220704 150404+00:00 $GPRMC,150358,A,4842.1398,N,12519.8996,W,9.1,114,040722,12.1,E,A,V*53
20220704 150404+00:00 $WIMWV,43.3,R,5.6,N,A*14
20220704 150406+00:00 $IIMDA,29.9,I,1.012,B,11.6,C,,C,93.6,,,C,,T,,M,,N,,M*20
20220704 150406+00:00 $HCHDT,113.1,T*2B
20220704 150406+00:00 $GPRMC,150400,A,4842.1398,N,12519.8900,W,9.1,114,040722,12.1,E,A,V*56
20220704 150406+00:00 $WIMWV,45.5,R,6.3,N,A*12
20220704 150408+00:00 $IIMDA,29.9,I,1.012,B,11.6,C,,C,93.6,,,C,,T,,M,,N,,M*20
20220704 150408+00:00 $HCHDT,113.5,T*2F
20220704 150408+00:00 $GPRMC,150402,A,4842.1398,N,12519.8798,W,9.1,114,040722,12.1,E,A,V*5B
20220704 150408+00:00 $WIMWV,46.7,R,5.89,N,A*22
20220704 150410+00:00 $IIMDA,29.9,I,1.012,B,11.6,C,,C,93.6,,,C,,T,,M,,N,,M*20
20220704 150410+00:00 $HCHDT,112.8,T*23
20220704 150410+00:00 $GPRMC,150404,A,4842.1398,N,12519.8798,W,9.1,114,040722,12.1,E,A,V*5D
20220704 150410+00:00 $WIMWV,49.3,R,5.99,N,A*28
20220704 150412+00:00 $IIMDA,29.9,I,1.012,B,11.6,C,,C,93.6,,,C,,T,,M,,N,,M*20
20220704 150412+00:00 $HCHDT,112.6,T*2D
20220704 150412+00:00 $GPRMC,150406,A,4842.1296,N,12519.8696,W,9.1,114,040722,12.1,E,A,V*5F
20220704 150412+00:00 $WIMWV,59.2,R,6.49,N,A*26
20220704 150414+00:00 $IIMDA,29.9,I,1.012,B,11.6,C,,C,93.7,,,C,,T,,M,,N,,M*21
20220704 150414+00:00 $HCHDT,112.6,T*2D
20220704 150414+00:00 $GPRMC,150408,A,4842.1296,N,12519.8600,W,9.1,114,040722,12.1,E,A,V*5E
20220704 150414+00:00 $WIMWV,44.9,R,5.6,N,A*19
20220704 150416+00:00 $IIMDA,29.9,I,1.012,B,11.6,C,,C,93.6,,,C,,T,,M,,N,,M*20
20220704 150416+00:00 $HCHDT,112.7,T*2C
20220704 150416+00:00 $GPRMC,150410,A,4842.1296,N,12519.8498,W,9.1,114,040722,12.1,E,A,V*54
20220704 150416+00:00 $WIMWV,55.7,R,6.88,N,A*22
20220704 150418+00:00 $IIMDA,29.9,I,1.012,B,11.6,C,,C,93.7,,,C,,T,,M,,N,,M*21
20220704 150418+00:00 $HCHDT,112.5,T*2E
20220704 150418+00:00 $GPRMC,150412,A,4842.1296,N,12519.8498,W,9.1,114,040722,12.1,E,A,V*56
20220704 150418+00:00 $WIMWV,44.7,R,5.7,N,A*16
20220704 150420+00:00 $IIMDA,29.9,I,1.012,B,11.6,C,,C,93.6,,,C,,T,,M,,N,,M*20
20220704 150420+00:00 $HCHDT,112,T*35
20220704 150420+00:00 $GPRMC,150414,A,4842.1296,N,12519.8396,W,9.1,114,040722,12.1,E,A,V*59
20220704 150420+00:00 $WIMWV,42.3,R,5.29,N,A*28
20220704 150422+00:00 $IIMDA,29.9,I,1.012,B,11.6,C,,C,93.7,,,C,,T,,M,,N,,M*21
20220704 150422+00:00 $HCHDT,111.9,T*21
20220704 150422+00:00 $GPRMC,150416,A,4842.1200,N,12519.8300,W,9.1,114,040722,12.1,E,A,V*5B
20220704 150422+00:00 $WIMWV,63.99,R,6.08,N,A*18
20220704 150424+00:00 $IIMDA,29.9,I,1.012,B,11.6,C,,C,93.6,,,C,,T,,M,,N,,M*20
20220704 150424+00:00 $HCHDT,112.3,T*28
20220704 150424+00:00 $GPRMC,150418,A,4842.1200,N,12519.8300,W,9,114,040722,12.1,E,A,V*4A
20220704 150424+00:00 $WIMWV,65.6,R,5.6,N,A*15
20220704 150426+00:00 $IIMDA,29.9,I,1.012,B,11.6,C,,C,93.6,,,C,,T,,M,,N,,M*20
20220704 150426+00:00 $HCHDT,112.5,T*2E
20220704 150426+00:00 $GPRMC,150420,A,4842.1200,N,12519.8198,W,9,114,040722,12.1,E,A,V*42
20220704 150426+00:00 $WIMWV,57.5,R,6.4,N,A*16
20220704 150428+00:00 $IIMDA,29.9,I,1.012,B,11.6,C,,C,93.7,,,C,,T,,M,,N,,M*21
20220704 150428+00:00 $HCHDT,112.3,T*28
20220704 150428+00:00 $GPRMC,150422,A,4842.1200,N,12519.8096,W,9.1,114,040722,12.1,E,A,V*50
20220704 150428+00:00 $WIMWV,65.99,R,6.08,N,A*1E
20220704 150430+00:00 $IIMDA,29.9,I,1.012,B,11.6,C,,C,93.7,,,C,,T,,M,,N,,M*21
20220704 150430+00:00 $HCHDT,112.5,T*2E
20220704 150430+00:00 $GPRMC,150424,A,4842.1200,N,12519.8096,W,9.1,114,040722,12.1,E,A,V*56
20220704 150430+00:00 $WIMWV,63,R,5.79,N,A*33
20220704 150432+00:00 $IIMDA,29.9,I,1.012,B,11.5,C,,C,93.7,,,C,,T,,M,,N,,M*22
20220704 150432+00:00 $HCHDT,112.8,T*23
20220704 150432+00:00 $GPRMC,150426,A,4842.1098,N,12519.8000,W,9.1,114,040722,12.1,E,A,V*58
20220704 150432+00:00 $WIMWV,58.89,R,5.79,N,A*14
20220704 150434+00:00 $IIMDA,29.9,I,1.012,B,11.5,C,,C,93.7,,,C,,T,,M,,N,,M*22
20220704 150434+00:00 $HCHDT,112.1,T*2A
20220704 150434+00:00 $GPRMC,150428,A,4842.1098,N,12519.7898,W,9.1,114,040722,12.1,E,A,V*50
20220704 150434+00:00 $WIMWV,61.09,R,5.89,N,A*19
20220704 150436+00:00 $IIMDA,29.9,I,1.012,B,11.5,C,,C,93.7,,,C,,T,,M,,N,,M*22
20220704 150436+00:00 $HCHDT,112.3,T*28
20220704 150436+00:00 $GPRMC,150430,A,4842.1098,N,12519.7796,W,9.1,113,040722,12.1,E,A,V*5F
20220704 150436+00:00 $WIMWV,45.19,R,5.89,N,A*1E
20220704 150438+00:00 $IIMDA,29.9,I,1.012,B,11.5,C,,C,93.7,,,C,,T,,M,,N,,M*22
20220704 150438+00:00 $HCHDT,112.7,T*2C
20220704 150438+00:00 $GPRMC,150432,A,4842.1098,N,12519.7796,W,9.1,113,040722,12.1,E,A,V*5D
20220704 150438+00:00 $WIMWV,38.39,R,5.09,N,A*1E
20220704 150440+00:00 $IIMDA,29.9,I,1.012,B,11.5,C,,C,93.7,,,C,,T,,M,,N,,M*22
20220704 150440+00:00 $HCHDT,112.7,T*2C
20220704 150440+00:00 $GPRMC,150434,A,4842.1098,N,12519.7700,W,9,113,040722,12.1,E,A,V*4B
20220704 150440+00:00 $WIMWV,43.5,R,7.29,N,A*2D
20220704 150442+00:00 $IIMDA,29.9,I,1.012,B,11.5,C,,C,93.7,,,C,,T,,M,,N,,M*22
20220704 150442+00:00 $HCHDT,112.8,T*23
20220704 150442+00:00 $GPRMC,150436,A,4842.0996,N,12519.7598,W,9,113,040722,12.1,E,A,V*4C
20220704 150442+00:00 $WIMWV,42.1,R,7.19,N,A*2B
20220704 150444+00:00 $IIMDA,29.9,I,1.012,B,11.5,C,,C,93.7,,,C,,T,,M,,N,,M*22
20220704 150444+00:00 $HCHDT,112.7,T*2C
20220704 150444+00:00 $GPRMC,150438,A,4842.0996,N,12519.7598,W,9,113,040722,12.1,E,A,V*42
20220704 150444+00:00 $WIMWV,41.6,R,8.09,N,A*21
20220704 150446+00:00 $IIMDA,29.9,I,1.012,B,11.5,C,,C,93.7,,,C,,T,,M,,N,,M*22
20220704 150446+00:00 $HCHDT,112.9,T*22
20220704 150446+00:00 $GPRMC,150440,A,4842.0996,N,12519.7496,W,9,114,040722,12.1,E,A,V*45
20220704 150446+00:00 $WIMWV,41.4,R,6.59,N,A*28
20220704 150448+00:00 $IIMDA,29.9,I,1.012,B,11.5,C,,C,93.7,,,C,,T,,M,,N,,M*22
20220704 150448+00:00 $HCHDT,113.3,T*29
20220704 150448+00:00 $GPRMC,150442,A,4842.0996,N,12519.7400,W,9.1,114,040722,12.1,E,A,V*57
20220704 150448+00:00 $WIMWV,39.6,R,5.99,N,A*2A
20220704 150450+00:00 $IIMDA,29.9,I,1.012,B,11.5,C,,C,93.7,,,C,,T,,M,,N,,M*22
20220704 150450+00:00 $HCHDT,113.1,T*2B
20220704 150450+00:00 $GPRMC,150444,A,4842.0996,N,12519.7400,W,9.1,114,040722,12.1,E,A,V*51
20220704 150450+00:00 $WIMWV,54.4,R,5.79,N,A*2D
20220704 150452+00:00 $IIMDA,29.9,I,1.012,B,11.5,C,,C,93.8,,,C,,T,,M,,N,,M*2D
20220704 150452+00:00 $HCHDT,112.4,T*2F
20220704 150452+00:00 $GPRMC,150446,A,4842.0900,N,12519.7298,W,9.1,114,040722,12.1,E,A,V*5B
20220704 150452+00:00 $WIMWV,47.4,R,4.78,N,A*2F
20220704 150454+00:00 $IIMDA,29.9,I,1.012,B,11.5,C,,C,93.7,,,C,,T,,M,,N,,M*22
20220704 150454+00:00 $HCHDT,112.2,T*29
20220704 150454+00:00 $GPRMC,150448,A,4842.0900,N,12519.7196,W,9.1,114,040722,12.1,E,A,V*58
20220704 150454+00:00 $WIMWV,39.6,R,5.38,N,A*21
20220704 150456+00:00 $IIMDA,29.9,I,1.012,B,11.5,C,,C,93.7,,,C,,T,,M,,N,,M*22
20220704 150456+00:00 $HCHDT,112.2,T*29
20220704 150456+00:00 $GPRMC,150450,A,4842.0900,N,12519.7196,W,9.1,114,040722,12.1,E,A,V*51
20220704 150456+00:00 $WIMWV,42.79,R,7.1,N,A*2D
20220704 150458+00:00 $IIMDA,29.9,I,1.012,B,11.5,C,,C,93.7,,,C,,T,,M,,N,,M*22
20220704 150458+00:00 $HCHDT,112.1,T*2A
20220704 150458+00:00 $GPRMC,150452,A,4842.0900,N,12519.7100,W,9,114,040722,12.1,E,A,V*43
20220704 150458+00:00 $WIMWV,43.8,R,6.78,N,A*25
20220704 150500+00:00 $IIMDA,29.9,I,1.012,B,11.5,C,,C,93.7,,,C,,T,,M,,N,,M*22
20220704 150500+00:00 $HCHDT,112.3,T*28
20220704 150500+00:00 $GPRMC,150454,A,4842.0900,N,12519.6998,W,9,114,040722,12.1,E,A,V*4D
20220704 150500+00:00 $WIMWV,44.9,R,7.19,N,A*25
20220704 150502+00:00 $IIMDA,29.9,I,1.012,B,11.5,C,,C,93.7,,,C,,T,,M,,N,,M*22
20220704 150502+00:00 $HCHDT,112.7,T*2C
20220704 150502+00:00 $GPRMC,150456,A,4842.0798,N,12519.6896,W,9.1,114,040722,12.1,E,A,V*50
20220704 150502+00:00 $WIMWV,45.7,R,6.18,N,A*2A
20220704 150504+00:00 $IIMDA,29.9,I,1.012,B,11.5,C,,C,93.8,,,C,,T,,M,,N,,M*2D
20220704 150504+00:00 $HCHDT,112.4,T*2F
20220704 150504+00:00 $GPRMC,150458,A,4842.0798,N,12519.6896,W,9.1,114,040722,12.1,E,A,V*5E
20220704 150504+00:00 $WIMWV,52.49,R,5.29,N,A*17
20220704 150506+00:00 $IIMDA,29.9,I,1.012,B,11.5,C,,C,93.7,,,C,,T,,M,,N,,M*22
20220704 150506+00:00 $HCHDT,111.5,T*2D
20220704 150506+00:00 $GPRMC,150500,A,4842.0798,N,12519.6800,W,9.1,114,040722,12.1,E,A,V*5D
20220704 150506+00:00 $WIMWV,41.1,R,5.38,N,A*29
20220704 150508+00:00 $IIMDA,29.9,I,1.012,B,11.5,C,,C,93.8,,,C,,T,,M,,N,,M*2D
20220704 150508+00:00 $HCHDT,111.4,T*2C
20220704 150508+00:00 $GPRMC,150502,A,4842.0798,N,12519.6698,W,9.1,114,040722,12.1,E,A,V*50
20220704 150508+00:00 $WIMWV,45.5,R,6.18,N,A*28
20220704 150510+00:00 $IIMDA,29.9,I,1.012,B,11.5,C,,C,93.7,,,C,,T,,M,,N,,M*22
20220704 150510+00:00 $HCHDT,111.5,T*2D
20220704 150510+00:00 $GPRMC,150504,A,4842.0798,N,12519.6698,W,9.1,113,040722,12.1,E,A,V*51
20220704 150510+00:00 $WIMWV,61.3,R,6.4,N,A*15
20220704 150512+00:00 $IIMDA,29.9,I,1.012,B,11.5,C,,C,93.8,,,C,,T,,M,,N,,M*2D
20220704 150512+00:00 $HCHDT,111.8,T*20
20220704 150512+00:00 $GPRMC,150506,A,4842.0696,N,12519.6596,W,9,113,040722,12.1,E,A,V*4E
20220704 150512+00:00 $WIMWV,58.69,R,6.78,N,A*18
20220704 150514+00:00 $IIMDA,29.9,I,1.012,B,11.5,C,,C,93.8,,,C,,T,,M,,N,,M*2D
20220704 150514+00:00 $HCHDT,112.6,T*2D
20220704 150514+00:00 $GPRMC,150508,A,4842.0696,N,12519.6500,W,9,113,040722,12.1,E,A,V*4F
20220704 150514+00:00 $WIMWV,56.69,R,6.59,N,A*15
20220704 150516+00:00 $IIMDA,29.9,I,1.012,B,11.5,C,,C,93.8,,,C,,T,,M,,N,,M*2D
20220704 150516+00:00 $HCHDT,112.5,T*2E
20220704 150516+00:00 $GPRMC,150510,A,4842.0696,N,12519.6500,W,9,113,040722,12.1,E,A,V*46
20220704 150516+00:00 $WIMWV,42.5,R,6.3,N,A*15
20220704 150518+00:00 $IIMDA,29.9,I,1.012,B,11.5,C,,C,93.8,,,C,,T,,M,,N,,M*2D
20220704 150518+00:00 $HCHDT,112.2,T*29
20220704 150518+00:00 $GPRMC,150512,A,4842.0696,N,12519.6398,W,9,113,040722,12.1,E,A,V*43
20220704 150518+00:00 $WIMWV,44.4,R,5.79,N,A*2C
20220704 150520+00:00 $IIMDA,29.9,I,1.012,B,11.5,C,,C,93.8,,,C,,T,,M,,N,,M*2D
20220704 150520+00:00 $HCHDT,112.3,T*28
20220704 150520+00:00 $GPRMC,150514,A,4842.0696,N,12519.6296,W,9.1,113,040722,12.1,E,A,V*55
20220704 150520+00:00 $WIMWV,54.2,R,6.49,N,A*2B
20220704 150522+00:00 $IIMDA,29.9,I,1.012,B,11.5,C,,C,93.8,,,C,,T,,M,,N,,M*2D
20220704 150522+00:00 $HCHDT,112.6,T*2D
20220704 150522+00:00 $GPRMC,150516,A,4842.0600,N,12519.6200,W,9.1,113,040722,12.1,E,A,V*57
20220704 150522+00:00 $WIMWV,44.09,R,6.18,N,A*15
20220704 150524+00:00 $IIMDA,29.9,I,1.012,B,11.5,C,,C,93.8,,,C,,T,,M,,N,,M*2D
20220704 150524+00:00 $HCHDT,112.6,T*2D
20220704 150524+00:00 $GPRMC,150518,A,4842.0600,N,12519.6200,W,9.1,113,040722,12.1,E,A,V*59
20220704 150524+00:00 $WIMWV,44.4,R,7.1,N,A*11
20220704 150526+00:00 $IIMDA,29.9,I,1.012,B,11.5,C,,C,93.8,,,C,,T,,M,,N,,M*2D
20220704 150526+00:00 $HCHDT,112.8,T*23
20220704 150526+00:00 $GPRMC,150520,A,4842.0600,N,12519.6098,W,9.1,113,040722,12.1,E,A,V*51
20220704 150526+00:00 $WIMWV,44.5,R,7.1,N,A*10
20220704 150528+00:00 $IIMDA,29.9,I,1.012,B,11.5,C,,C,93.8,,,C,,T,,M,,N,,M*2D
20220704 150528+00:00 $HCHDT,112.7,T*2C
20220704 150528+00:00 $GPRMC,150522,A,4842.0600,N,12519.5996,W,9.1,114,040722,12.1,E,A,V*50
20220704 150528+00:00 $WIMWV,54.4,R,6.49,N,A*2D
20220704 150530+00:00 $IIMDA,29.9,I,1.012,B,11.5,C,,C,93.8,,,C,,T,,M,,N,,M*2D
20220704 150530+00:00 $HCHDT,112.7,T*2C
20220704 150530+00:00 $GPRMC,150524,A,4842.0600,N,12519.5996,W,9.1,114,040722,12.1,E,A,V*56
20220704 150530+00:00 $WIMWV,51.3,R,6.59,N,A*2E
20220704 150532+00:00 $IIMDA,29.9,I,1.012,B,11.5,C,,C,93.8,,,C,,T,,M,,N,,M*2D
20220704 150532+00:00 $HCHDT,112.9,T*22
20220704 150532+00:00 $GPRMC,150526,A,4842.0498,N,12519.5900,W,9.1,114,040722,12.1,E,A,V*58
20220704 150532+00:00 $WIMWV,56.69,R,6.59,N,A*15
20220704 150534+00:00 $IIMDA,29.9,I,1.012,B,11.5,C,,C,93.9,,,C,,T,,M,,N,,M*2C
20220704 150534+00:00 $HCHDT,112.9,T*22
20220704 150534+00:00 $GPRMC,150528,A,4842.0498,N,12519.5798,W,9.1,114,040722,12.1,E,A,V*59
20220704 150534+00:00 $WIMWV,44.9,R,6.4,N,A*18
20220704 150536+00:00 $IIMDA,29.9,I,1.012,B,11.5,C,,C,93.9,,,C,,T,,M,,N,,M*2C
20220704 150536+00:00 $HCHDT,113,T*34
20220704 150536+00:00 $GPRMC,150530,A,4842.0498,N,12519.5798,W,9.1,114,040722,12.1,E,A,V*50
20220704 150536+00:00 $WIMWV,44.2,R,6.69,N,A*28
20220704 150538+00:00 $IIMDA,29.9,I,1.012,B,11.5,C,,C,93.8,,,C,,T,,M,,N,,M*2D
20220704 150538+00:00 $HCHDT,112.9,T*22
20220704 150538+00:00 $GPRMC,150532,A,4842.0498,N,12519.5696,W,9.1,114,040722,12.1,E,A,V*5D
20220704 150538+00:00 $WIMWV,43.3,R,6.78,N,A*2E
20220704 150540+00:00 $IIMDA,29.9,I,1.012,B,11.5,C,,C,93.8,,,C,,T,,M,,N,,M*2D
20220704 150540+00:00 $HCHDT,112.8,T*23
20220704 150540+00:00 $GPRMC,150534,A,4842.0498,N,12519.5600,W,9.1,114,040722,12.1,E,A,V*54
20220704 150540+00:00 $WIMWV,42.99,R,6.88,N,A*13
20220704 150542+00:00 $IIMDA,29.9,I,1.012,B,11.5,C,,C,93.9,,,C,,T,,M,,N,,M*2C
20220704 150542+00:00 $HCHDT,112.5,T*2E
20220704 150542+00:00 $GPRMC,150536,A,4842.0396,N,12519.5498,W,9.1,114,040722,12.1,E,A,V*5C
20220704 150542+00:00 $WIMWV,43.5,R,6.4,N,A*13
20220704 150544+00:00 $IIMDA,29.9,I,1.012,B,11.5,C,,C,93.9,,,C,,T,,M,,N,,M*2C
20220704 150544+00:00 $HCHDT,112.4,T*2F
20220704 150544+00:00 $GPRMC,150538,A,4842.0396,N,12519.5498,W,9.1,115,040722,12.1,E,A,V*53
20220704 150544+00:00 $WIMWV,42.99,R,5.99,N,A*10
20220704 150546+00:00 $IIMDA,29.9,I,1.012,B,11.5,C,,C,93.9,,,C,,T,,M,,N,,M*2C
20220704 150546+00:00 $HCHDT,112.7,T*2C
20220704 150546+00:00 $GPRMC,150540,A,4842.0396,N,12519.5396,W,9.1,115,040722,12.1,E,A,V*55
20220704 150546+00:00 $WIMWV,44.09,R,5.79,N,A*11
20220704 150548+00:00 $IIMDA,29.9,I,1.012,B,11.5,C,,C,93.9,,,C,,T,,M,,N,,M*2C
20220704 150548+00:00 $HCHDT,113.3,T*29
20220704 150548+00:00 $GPRMC,150542,A,4842.0396,N,12519.5300,W,9.1,115,040722,12.1,E,A,V*58
20220704 150548+00:00 $WIMWV,56.69,R,7.29,N,A*13
20220704 150550+00:00 $IIMDA,29.9,I,1.012,B,11.5,C,,C,93.9,,,C,,T,,M,,N,,M*2C
20220704 150550+00:00 $HCHDT,113.4,T*2E
20220704 150550+00:00 $GPRMC,150544,A,4842.0396,N,12519.5300,W,9.1,115,040722,12.1,E,A,V*5E
20220704 150550+00:00 $WIMWV,61.4,R,6.69,N,A*29
20220704 150552+00:00 $IIMDA,29.9,I,1.012,B,11.5,C,,C,93.9,,,C,,T,,M,,N,,M*2C
20220704 150552+00:00 $HCHDT,112.8,T*23
20220704 150552+00:00 $GPRMC,150546,A,4842.0300,N,12519.5198,W,9.1,115,040722,12.1,E,A,V*50
20220704 150552+00:00 $WIMWV,60.4,R,6.4,N,A*13
20220704 150554+00:00 $IIMDA,29.9,I,1.012,B,11.5,C,,C,93.9,,,C,,T,,M,,N,,M*2C
20220704 150554+00:00 $HCHDT,112.4,T*2F
20220704 150554+00:00 $GPRMC,150548,A,4842.0300,N,12519.5096,W,9.1,115,040722,12.1,E,A,V*51
20220704 150554+00:00 $WIMWV,50,R,6.78,N,A*31
20220704 150556+00:00 $IIMDA,29.9,I,1.012,B,11.5,C,,C,93.9,,,C,,T,,M,,N,,M*2C
20220704 150556+00:00 $HCHDT,112.5,T*2E
20220704 150556+00:00 $GPRMC,150550,A,4842.0300,N,12519.5096,W,9,115,040722,12.1,E,A,V*47
20220704 150556+00:00 $WIMWV,55.5,R,7.39,N,A*2B
20220704 150558+00:00 $IIMDA,29.9,I,1.012,B,11.5,C,,C,93.9,,,C,,T,,M,,N,,M*2C
20220704 150558+00:00 $HCHDT,112.6,T*2D
20220704 150558+00:00 $GPRMC,150552,A,4842.0300,N,12519.5000,W,9,115,040722,12.1,E,A,V*4A
20220704 150558+00:00 $WIMWV,46,R,7.19,N,A*30
20220704 150600+00:00 $IIMDA,29.9,I,1.012,B,11.5,C,,C,93.9,,,C,,T,,M,,N,,M*2C
20220704 150600+00:00 $HCHDT,112.8,T*23
20220704 150600+00:00 $GPRMC,150554,A,4842.0198,N,12519.4898,W,9,115,040722,12.1,E,A,V*47
20220704 150600+00:00 $WIMWV,44.09,R,6.59,N,A*10
20220704 150602+00:00 $IIMDA,29.9,I,1.012,B,11.5,C,,C,93.9,,,C,,T,,M,,N,,M*2C
20220704 150602+00:00 $HCHDT,112.3,T*28
20220704 150602+00:00 $GPRMC,150556,A,4842.0198,N,12519.4898,W,9,115,040722,12.1,E,A,V*45
20220704 150602+00:00 $WIMWV,59.79,R,7.29,N,A*1D
20220704 150604+00:00 $IIMDA,29.9,I,1.012,B,11.5,C,,C,93.9,,,C,,T,,M,,N,,M*2C
20220704 150604+00:00 $HCHDT,112.5,T*2E
20220704 150604+00:00 $GPRMC,150558,A,4842.0198,N,12519.4796,W,9.1,115,040722,12.1,E,A,V*55
20220704 150604+00:00 $WIMWV,67.9,R,6.59,N,A*21
20220704 150606+00:00 $IIMDA,29.9,I,1.012,B,11.5,C,,C,93.9,,,C,,T,,M,,N,,M*2C
20220704 150606+00:00 $HCHDT,112.8,T*23
20220704 150606+00:00 $GPRMC,150600,A,4842.0198,N,12519.4700,W,9.1,114,040722,12.1,E,A,V*55
20220704 150606+00:00 $WIMWV,54.49,R,6.4,N,A*2D
20220704 150608+00:00 $IIMDA,29.9,I,1.012,B,11.5,C,,C,93.9,,,C,,T,,M,,N,,M*2C
20220704 150608+00:00 $HCHDT,112.1,T*2A
20220704 150608+00:00 $GPRMC,150602,A,4842.0198,N,12519.4598,W,9.1,114,040722,12.1,E,A,V*54
20220704 150608+00:00 $WIMWV,55,R,7.48,N,A*36
20220704 150610+00:00 $IIMDA,29.9,I,1.012,B,11.5,C,,C,93.9,,,C,,T,,M,,N,,M*2C
20220704 150610+00:00 $HCHDT,112.2,T*29
20220704 150610+00:00 $GPRMC,150604,A,4842.0096,N,12519.4598,W,9.1,114,040722,12.1,E,A,V*5D
20220704 150610+00:00 $WIMWV,72.3,R,7.19,N,A*2A
20220704 150612+00:00 $IIMDA,29.9,I,1.012,B,11.5,C,,C,93.9,,,C,,T,,M,,N,,M*2C
20220704 150612+00:00 $HCHDT,112.5,T*2E
20220704 150612+00:00 $GPRMC,150606,A,4842.0096,N,12519.4496,W,9.1,114,040722,12.1,E,A,V*50
20220704 150612+00:00 $WIMWV,69.4,R,7.39,N,A*25
20220704 150614+00:00 $IIMDA,29.9,I,1.012,B,11.5,C,,C,93.9,,,C,,T,,M,,N,,M*2C
20220704 150614+00:00 $HCHDT,112,T*35
20220704 150614+00:00 $GPRMC,150608,A,4842.0096,N,12519.4400,W,9.1,114,040722,12.1,E,A,V*51
20220704 150614+00:00 $WIMWV,58.89,R,6.3,N,A*2A
20220704 150616+00:00 $IIMDA,29.9,I,1.012,B,11.5,C,,C,93.9,,,C,,T,,M,,N,,M*2C
20220704 150616+00:00 $HCHDT,112.3,T*28
20220704 150616+00:00 $GPRMC,150610,A,4842.0096,N,12519.4400,W,9.1,114,040722,12.1,E,A,V*58
20220704 150616+00:00 $WIMWV,42.3,R,5.6,N,A*15
20220704 150618+00:00 $IIMDA,29.9,I,1.012,B,11.4,C,,C,94,,,C,,T,,M,,N,,M*3D
20220704 150618+00:00 $HCHDT,112.8,T*23
20220704 150618+00:00 $GPRMC,150612,A,4842.0096,N,12519.4298,W,9.1,114,040722,12.1,E,A,V*5D
20220704 150618+00:00 $WIMWV,55.39,R,7.7,N,A*29
20220704 150620+00:00 $IIMDA,29.9,I,1.012,B,11.4,C,,C,93.9,,,C,,T,,M,,N,,M*2D
20220704 150620+00:00 $HCHDT,112.9,T*22
20220704 150620+00:00 $GPRMC,150614,A,4842.0000,N,12519.4196,W,9.1,114,040722,12.1,E,A,V*59
20220704 150620+00:00 $WIMWV,55,R,7.48,N,A*36
20220704 150622+00:00 $IIMDA,29.9,I,1.012,B,11.4,C,,C,93.9,,,C,,T,,M,,N,,M*2D
20220704 150622+00:00 $HCHDT,112.9,T*22
20220704 150622+00:00 $GPRMC,150616,A,4842.0000,N,12519.4196,W,9.1,114,040722,12.1,E,A,V*5B
20220704 150622+00:00 $WIMWV,53.19,R,7.39,N,A*10
20220704 150624+00:00 $IIMDA,29.9,I,1.012,B,11.4,C,,C,93.9,,,C,,T,,M,,N,,M*2D
20220704 150624+00:00 $HCHDT,112.4,T*2F
20220704 150624+00:00 $GPRMC,150618,A,4842.0000,N,12519.4100,W,9.1,114,040722,12.1,E,A,V*5A
20220704 150624+00:00 $WIMWV,48.5,R,6.08,N,A*24
20220704 150626+00:00 $IIMDA,29.9,I,1.012,B,11.4,C,,C,93.9,,,C,,T,,M,,N,,M*2D
20220704 150626+00:00 $HCHDT,112.2,T*29
20220704 150626+00:00 $GPRMC,150620,A,4842.0000,N,12519.3998,W,9.1,114,040722,12.1,E,A,V*5F
20220704 150626+00:00 $WIMWV,46.5,R,5.79,N,A*2F
20220704 150628+00:00 $IIMDA,29.9,I,1.012,B,11.4,C,,C,94,,,C,,T,,M,,N,,M*3D
20220704 150628+00:00 $HCHDT,112.7,T*2C
20220704 150628+00:00 $GPRMC,150622,A,4842.0000,N,12519.3998,W,9.1,114,040722,12.1,E,A,V*5D
20220704 150628+00:00 $WIMWV,52.8,R,7.29,N,A*20
20220704 150630+00:00 $IIMDA,29.9,I,1.012,B,11.4,C,,C,93.9,,,C,,T,,M,,N,,M*2D
20220704 150630+00:00 $HCHDT,112.9,T*22
20220704 150630+00:00 $GPRMC,150624,A,4841.9898,N,12519.3896,W,9.1,114,040722,12.1,E,A,V*57
20220704 150630+00:00 $WIMWV,42.3,R,5.99,N,A*23
20220704 150632+00:00 $IIMDA,29.9,I,1.012,B,11.4,C,,C,94,,,C,,T,,M,,N,,M*3D
20220704 150632+00:00 $HCHDT,112.7,T*2C
20220704 150632+00:00 $GPRMC,150626,A,4841.9898,N,12519.3800,W,9.1,114,040722,12.1,E,A,V*5A
20220704 150632+00:00 $WIMWV,44.2,R,6.59,N,A*2B
20220704 150634+00:00 $IIMDA,29.9,I,1.012,B,11.4,C,,C,94,,,C,,T,,M,,N,,M*3D
20220704 150634+00:00 $HCHDT,112.4,T*2F
20220704 150634+00:00 $GPRMC,150628,A,4841.9898,N,12519.3698,W,9.1,114,040722,12.1,E,A,V*5B
20220704 150634+00:00 $WIMWV,46,R,7.99,N,A*38
20220704 150636+00:00 $IIMDA,29.9,I,1.012,B,11.4,C,,C,94,,,C,,T,,M,,N,,M*3D
20220704 150636+00:00 $HCHDT,112.2,T*29
20220704 150636+00:00 $GPRMC,150630,A,4841.9898,N,12519.3698,W,9.1,114,040722,12.1,E,A,V*52
20220704 150636+00:00 $WIMWV,52.69,R,6.49,N,A*10
20220704 150638+00:00 $IIMDA,29.9,I,1.012,B,11.4,C,,C,94,,,C,,T,,M,,N,,M*3D
20220704 150638+00:00 $HCHDT,111.7,T*2F
20220704 150638+00:00 $GPRMC,150632,A,4841.9898,N,12519.3596,W,9.1,114,040722,12.1,E,A,V*5D
20220704 150638+00:00 $WIMWV,51.5,R,5.99,N,A*27
20220704 150640+00:00 $IIMDA,29.9,I,1.012,B,11.4,C,,C,94,,,C,,T,,M,,N,,M*3D
20220704 150640+00:00 $HCHDT,111.3,T*2B
20220704 150640+00:00 $GPRMC,150634,A,4841.9796,N,12519.3500,W,9.1,114,040722,12.1,E,A,V*55
20220704 150640+00:00 $WIMWV,50.2,R,6.08,N,A*2A
20220704 150642+00:00 $IIMDA,29.9,I,1.012,B,11.4,C,,C,94,,,C,,T,,M,,N,,M*3D
20220704 150642+00:00 $HCHDT,112.1,T*2A
20220704 150642+00:00 $GPRMC,150636,A,4841.9796,N,12519.3500,W,9.1,114,040722,12.1,E,A,V*57
20220704 150642+00:00 $WIMWV,44.5,R,7,N,A*0F
20220704 150644+00:00 $IIMDA,29.9,I,1.012,B,11.4,C,,C,94,,,C,,T,,M,,N,,M*3D
20220704 150644+00:00 $HCHDT,112.4,T*2F
20220704 150644+00:00 $GPRMC,150638,A,4841.9796,N,12519.3398,W,9.1,114,040722,12.1,E,A,V*5E
20220704 150644+00:00 $WIMWV,45.19,R,6.59,N,A*10
20220704 150646+00:00 $IIMDA,29.9,I,1.012,B,11.4,C,,C,94,,,C,,T,,M,,N,,M*3D
20220704 150646+00:00 $HCHDT,112.1,T*2A
20220704 150646+00:00 $GPRMC,150640,A,4841.9796,N,12519.3296,W,9.1,113,040722,12.1,E,A,V*59
20220704 150646+00:00 $WIMWV,44.2,R,6.59,N,A*2B
20220704 150648+00:00 $IIMDA,29.9,I,1.012,B,11.4,C,,C,94,,,C,,T,,M,,N,,M*3D
20220704 150648+00:00 $HCHDT,112,T*35
20220704 150648+00:00 $GPRMC,150642,A,4841.9796,N,12519.3200,W,9.1,113,040722,12.1,E,A,V*54
20220704 150648+00:00 $WIMWV,57.1,R,6.49,N,A*2B
20220704 150650+00:00 $IIMDA,29.9,I,1.012,B,11.4,C,,C,94,,,C,,T,,M,,N,,M*3D
20220704 150650+00:00 $HCHDT,112.2,T*29
20220704 150650+00:00 $GPRMC,150644,A,4841.9700,N,12519.3200,W,9.19,113,040722,12.1,E,A,V*64
20220704 150650+00:00 $WIMWV,47.19,R,6.08,N,A*16
20220704 150652+00:00 $IIMDA,29.9,I,1.012,B,11.4,C,,C,94,,,C,,T,,M,,N,,M*3D
20220704 150652+00:00 $HCHDT,112.4,T*2F
20220704 150652+00:00 $GPRMC,150646,A,4841.9700,N,12519.3098,W,9.1,113,040722,12.1,E,A,V*5C
20220704 150652+00:00 $WIMWV,55,R,7,N,A*14
20220704 150654+00:00 $IIMDA,29.9,I,1.012,B,11.4,C,,C,94,,,C,,T,,M,,N,,M*3D
20220704 150654+00:00 $HCHDT,112.5,T*2E
20220704 150654+00:00 $GPRMC,150648,A,4841.9700,N,12519.2996,W,9.1,113,040722,12.1,E,A,V*54
20220704 150654+00:00 $WIMWV,61.99,R,7,N,A*3D
20220704 150656+00:00 $IIMDA,29.9,I,1.012,B,11.4,C,,C,94,,,C,,T,,M,,N,,M*3D
20220704 150656+00:00 $HCHDT,112.1,T*2A
20220704 150656+00:00 $GPRMC,150650,A,4841.9700,N,12519.2996,W,9.1,113,040722,12.1,E,A,V*5D
20220704 150656+00:00 $WIMWV,59.4,R,6.4,N,A*19
20220704 150658+00:00 $IIMDA,29.9,I,1.012,B,11.4,C,,C,94,,,C,,T,,M,,N,,M*3D
20220704 150658+00:00 $HCHDT,111.9,T*21
20220704 150658+00:00 $GPRMC,150652,A,4841.9700,N,12519.2900,W,9,113,040722,12.1,E,A,V*4F
20220704 150658+00:00 $WIMWV,48.5,R,5.79,N,A*21
20220704 150700+00:00 $IIMDA,29.9,I,1.012,B,11.4,C,,C,94,,,C,,T,,M,,N,,M*3D
20220704 150700+00:00 $HCHDT,112.4,T*2F
20220704 150700+00:00 $GPRMC,150654,A,4841.9598,N,12519.2798,W,9,113,040722,12.1,E,A,V*45
20220704 150700+00:00 $WIMWV,43.5,R,6.18,N,A*2E
20220704 150702+00:00 $IIMDA,29.9,I,1.012,B,11.4,C,,C,94,,,C,,T,,M,,N,,M*3D
20220704 150702+00:00 $HCHDT,112.4,T*2F
20220704 150702+00:00 $GPRMC,150656,A,4841.9598,N,12519.2798,W,9.1,113,040722,12.1,E,A,V*58
20220704 150702+00:00 $WIMWV,50.49,R,6.18,N,A*14
20220704 150704+00:00 $IIMDA,29.9,I,1.012,B,11.4,C,,C,94,,,C,,T,,M,,N,,M*3D
20220704 150704+00:00 $HCHDT,112.3,T*28
20220704 150704+00:00 $GPRMC,150658,A,4841.9598,N,12519.2696,W,9.1,113,040722,12.1,E,A,V*59
20220704 150704+00:00 $WIMWV,46.4,R,6.69,N,A*2C
20220704 150706+00:00 $IIMDA,29.9,I,1.012,B,11.4,C,,C,94,,,C,,T,,M,,N,,M*3D
20220704 150706+00:00 $HCHDT,112.9,T*22
20220704 150706+00:00 $GPRMC,150700,A,4841.9598,N,12519.2600,W,9.19,113,040722,12.1,E,A,V*63
20220704 150706+00:00 $WIMWV,42.79,R,6.4,N,A*29
20220704 150708+00:00 $IIMDA,29.9,I,1.012,B,11.4,C,,C,94,,,C,,T,,M,,N,,M*3D
20220704 150708+00:00 $HCHDT,112.7,T*2C
20220704 150708+00:00 $GPRMC,150702,A,4841.9598,N,12519.2498,W,9.19,113,040722,12.1,E,A,V*62
20220704 150708+00:00 $WIMWV,44.5,R,6.88,N,A*20
20220704 150710+00:00 $IIMDA,29.9,I,1.012,B,11.4,C,,C,94.1,,,C,,T,,M,,N,,M*22
20220704 150710+00:00 $HCHDT,112.1,T*2A
20220704 150710+00:00 $GPRMC,150704,A,4841.9496,N,12519.2498,W,9.19,113,040722,12.1,E,A,V*6B
20220704 150710+00:00 $WIMWV,50.8,R,6.59,N,A*24
20220704 150712+00:00 $IIMDA,29.9,I,1.012,B,11.4,C,,C,94,,,C,,T,,M,,N,,M*3D
20220704 150712+00:00 $HCHDT,111.9,T*21
20220704 150712+00:00 $GPRMC,150706,A,4841.9496,N,12519.2396,W,9.1,113,040722,12.1,E,A,V*59
20220704 150712+00:00 $WIMWV,45.89,R,7.29,N,A*1F
20220704 150714+00:00 $IIMDA,29.9,I,1.012,B,11.4,C,,C,94,,,C,,T,,M,,N,,M*3D
20220704 150714+00:00 $HCHDT,112.1,T*2A
20220704 150714+00:00 $GPRMC,150708,A,4841.9496,N,12519.2300,W,9.1,113,040722,12.1,E,A,V*58
20220704 150714+00:00 $WIMWV,44.09,R,6.69,N,A*13
20220704 150716+00:00 $IIMDA,29.9,I,1.012,B,11.4,C,,C,94,,,C,,T,,M,,N,,M*3D
20220704 150716+00:00 $HCHDT,112.4,T*2F
20220704 150716+00:00 $GPRMC,150710,A,4841.9496,N,12519.2300,W,9.1,113,040722,12.1,E,A,V*51
20220704 150716+00:00 $WIMWV,56.2,R,6.4,N,A*10
20220704 150718+00:00 $IIMDA,29.9,I,1.012,B,11.4,C,,C,94,,,C,,T,,M,,N,,M*3D
20220704 150718+00:00 $HCHDT,112.3,T*28
20220704 150718+00:00 $GPRMC,150712,A,4841.9496,N,12519.2198,W,9.1,113,040722,12.1,E,A,V*50
20220704 150718+00:00 $WIMWV,46.4,R,6.18,N,A*2A
20220704 150720+00:00 $IIMDA,29.9,I,1.012,B,11.4,C,,C,94,,,C,,T,,M,,N,,M*3D
20220704 150720+00:00 $HCHDT,111.8,T*20
20220704 150720+00:00 $GPRMC,150714,A,4841.9400,N,12519.2096,W,9.1,113,040722,12.1,E,A,V*56
20220704 150720+00:00 $WIMWV,40.9,R,6.08,N,A*20
20220704 150722+00:00 $IIMDA,29.9,I,1.012,B,11.4,C,,C,94,,,C,,T,,M,,N,,M*3D
20220704 150722+00:00 $HCHDT,111.5,T*2D
20220704 150722+00:00 $GPRMC,150716,A,4841.9400,N,12519.2096,W,9.1,113,040722,12.1,E,A,V*54
20220704 150722+00:00 $WIMWV,46.7,R,7.79,N,A*2F
20220704 150724+00:00 $IIMDA,29.9,I,1.012,B,11.4,C,,C,94,,,C,,T,,M,,N,,M*3D
20220704 150724+00:00 $HCHDT,111.9,T*21
20220704 150724+00:00 $GPRMC,150718,A,4841.9400,N,12519.2000,W,9.1,113,040722,12.1,E,A,V*55
20220704 150724+00:00 $WIMWV,44.7,R,7.89,N,A*22
20220704 150726+00:00 $IIMDA,29.9,I,1.012,B,11.4,C,,C,94,,,C,,T,,M,,N,,M*3D
20220704 150726+00:00 $HCHDT,112.3,T*28
20220704 150726+00:00 $GPRMC,150720,A,4841.9400,N,12519.1898,W,9.1,113,040722,12.1,E,A,V*54
20220704 150726+00:00 $WIMWV,44.99,R,7.1,N,A*25
20220704 150728+00:00 $IIMDA,29.9,I,1.012,B,11.4,C,,C,94,,,C,,T,,M,,N,,M*3D
20220704 150728+00:00 $HCHDT,112.6,T*2D
20220704 150728+00:00 $GPRMC,150722,A,4841.9400,N,12519.1796,W,9.1,113,040722,12.1,E,A,V*57
20220704 150728+00:00 $WIMWV,44.99,R,7.19,N,A*1C
20220704 150730+00:00 $IIMDA,29.9,I,1.012,B,11.4,C,,C,94.1,,,C,,T,,M,,N,,M*22
20220704 150730+00:00 $HCHDT,112.6,T*2D
20220704 150730+00:00 $GPRMC,150724,A,4841.9298,N,12519.1796,W,9.19,113,040722,12.1,E,A,V*6F
20220704 150730+00:00 $WIMWV,40.1,R,5.89,N,A*22
20220704 150732+00:00 $IIMDA,29.9,I,1.012,B,11.4,C,,C,94,,,C,,T,,M,,N,,M*3D
20220704 150732+00:00 $HCHDT,111.9,T*21
20220704 150732+00:00 $GPRMC,150726,A,4841.9298,N,12519.1700,W,9.19,113,040722,12.1,E,A,V*62
20220704 150732+00:00 $WIMWV,44.7,R,6.69,N,A*2D
20220704 150734+00:00 $IIMDA,29.9,I,1.012,B,11.4,C,,C,94,,,C,,T,,M,,N,,M*3D
20220704 150734+00:00 $HCHDT,111.7,T*2F
20220704 150734+00:00 $GPRMC,150728,A,4841.9298,N,12519.1598,W,9.1,113,040722,12.1,E,A,V*56
20220704 150734+00:00 $WIMWV,39.4,R,6.3,N,A*18
20220704 150736+00:00 $IIMDA,29.9,I,1.012,B,11.4,C,,C,94.1,,,C,,T,,M,,N,,M*22
20220704 150736+00:00 $HCHDT,111.6,T*2E
20220704 150736+00:00 $GPRMC,150730,A,4841.9298,N,12519.1598,W,9.1,113,040722,12.1,E,A,V*5F
20220704 150736+00:00 $WIMWV,46.4,R,6.88,N,A*23
20220704 150738+00:00 $IIMDA,29.9,I,1.012,B,11.4,C,,C,94.1,,,C,,T,,M,,N,,M*22
20220704 150738+00:00 $HCHDT,111.9,T*21
20220704 150738+00:00 $GPRMC,150732,A,4841.9298,N,12519.1496,W,9.1,113,040722,12.1,E,A,V*52
20220704 150738+00:00 $WIMWV,48.2,R,8.28,N,A*2F
20220704 150740+00:00 $IIMDA,29.9,I,1.012,B,11.4,C,,C,94.1,,,C,,T,,M,,N,,M*22
20220704 150740+00:00 $HCHDT,112.5,T*2E
20220704 150740+00:00 $GPRMC,150734,A,4841.9196,N,12519.1400,W,9.1,113,040722,12.1,E,A,V*56
20220704 150740+00:00 $WIMWV,42.5,R,6.69,N,A*29
20220704 150742+00:00 $IIMDA,29.9,I,1.012,B,11.4,C,,C,94.1,,,C,,T,,M,,N,,M*22
20220704 150742+00:00 $HCHDT,112.2,T*29
20220704 150742+00:00 $GPRMC,150736,A,4841.9196,N,12519.1400,W,9.1,113,040722,12.1,E,A,V*54
20220704 150742+00:00 $WIMWV,46.7,R,7.1,N,A*10
20220704 150744+00:00 $IIMDA,29.9,I,1.012,B,11.4,C,,C,94.1,,,C,,T,,M,,N,,M*22
20220704 150744+00:00 $HCHDT,111.4,T*2C
20220704 150744+00:00 $GPRMC,150738,A,4841.9196,N,12519.1298,W,9.1,113,040722,12.1,E,A,V*5D
20220704 150744+00:00 $WIMWV,46,R,6.88,N,A*39
20220704 150746+00:00 $IIMDA,29.9,I,1.012,B,11.4,C,,C,94,,,C,,T,,M,,N,,M*3D
20220704 150746+00:00 $HCHDT,111.2,T*2A
