20220705 020000+00:00 $IIMDA,29.9,I,1.013,B,11.4,C,,C,90.8,,,C,,T,,M,,N,,M*2E
20220705 020000+00:00 $HCHDT,39.2,T*11
20220705 020000+00:00 $GPRMC,015956,A,4823.6400,N,12311.9700,W,11.6,41,050722,11.7,E,A,V*54
20220705 020000+00:00 $WIMWV,282.09,R,5.48,N,A*2B
20220705 020002+00:00 $IIMDA,29.9,I,1.013,B,11.4,C,,C,90.8,,,C,,T,,M,,N,,M*2E
20220705 020002+00:00 $HCHDT,39.2,T*11
20220705 020002+00:00 $GPRMC,015958,A,4823.6400,N,12311.9700,W,11.6,41,050722,11.7,E,A,V*5A
20220705 020002+00:00 $WIMWV,276.79,R,5.19,N,A*23
20220705 020004+00:00 $IIMDA,29.9,I,1.013,B,11.4,C,,C,90.8,,,C,,T,,M,,N,,M*2E
20220705 020004+00:00 $HCHDT,39.2,T*11
20220705 020004+00:00 $GPRMC,020000,A,4823.6400,N,12311.9598,W,11.6,41,050722,11.7,E,A,V*5B
20220705 020004+00:00 $WIMWV,272.79,R,5.29,N,A*24
20220705 020006+00:00 $IIMDA,29.9,I,1.013,B,11.4,C,,C,90.8,,,C,,T,,M,,N,,M*2E
20220705 020006+00:00 $HCHDT,39.4,T*17
20220705 020006+00:00 $GPRMC,020002,A,4823.6496,N,12311.9496,W,11.6,41,050722,11.7,E,A,V*59
20220705 020006+00:00 $WIMWV,271.59,R,5,N,A*00
20220705 020008+00:00 $IIMDA,29.9,I,1.013,B,11.4,C,,C,90.8,,,C,,T,,M,,N,,M*2E
20220705 020008+00:00 $HCHDT,39.5,T*16
20220705 020008+00:00 $GPRMC,020004,A,4823.6496,N,12311.9496,W,11.6,41,050722,11.7,E,A,V*5F
20220705 020008+00:00 $WIMWV,283.19,R,4.39,N,A*2C
20220705 020010+00:00 $IIMDA,29.9,I,1.013,B,11.4,C,,C,90.9,,,C,,T,,M,,N,,M*2F
20220705 020010+00:00 $HCHDT,39.5,T*16
20220705 020010+00:00 $GPRMC,020006,A,4823.6598,N,12311.9400,W,11.6,41,050722,11.7,E,A,V*5D
20220705 020010+00:00 $WIMWV,285.19,R,4.59,N,A*2C
20220705 020012+00:00 $IIMDA,29.9,I,1.013,B,11.4,C,,C,90.8,,,C,,T,,M,,N,,M*2E
20220705 020012+00:00 $HCHDT,39.6,T*15
20220705 020012+00:00 $GPRMC,020008,A,4823.6598,N,12311.9400,W,11.6,41,050722,11.7,E,A,V*53
20220705 020012+00:00 $WIMWV,280.49,R,5.19,N,A*29
20220705 020014+00:00 $IIMDA,29.9,I,1.013,B,11.4,C,,C,90.8,,,C,,T,,M,,N,,M*2E
20220705 020014+00:00 $HCHDT,39.8,T*1B
20220705 020014+00:00 $GPRMC,020010,A,4823.6700,N,12311.9298,W,11.6,41,050722,11.7,E,A,V*5E
20220705 020014+00:00 $WIMWV,278.49,R,4.68,N,A*29
20220705 020016+00:00 $IIMDA,29.9,I,1.013,B,11.4,C,,C,90.9,,,C,,T,,M,,N,,M*2F
20220705 020016+00:00 $HCHDT,39.8,T*1B
20220705 020016+00:00 $GPRMC,020012,A,4823.6700,N,12311.9196,W,11.6,41,050722,11.7,E,A,V*51
20220705 020016+00:00 $WIMWV,273.49,R,4.68,N,A*22
20220705 020018+00:00 $IIMDA,29.9,I,1.013,B,11.4,C,,C,90.8,,,C,,T,,M,,N,,M*2E
20220705 020018+00:00 $HCHDT,39.8,T*1B
20220705 020018+00:00 $GPRMC,020014,A,4823.6796,N,12311.9196,W,11.7,42,050722,11.7,E,A,V*5A
20220705 020018+00:00 $WIMWV,279.7,R,4.68,N,A*12
20220705 020020+00:00 $IIMDA,29.9,I,1.013,B,11.4,C,,C,90.9,,,C,,T,,M,,N,,M*2F
20220705 020020+00:00 $HCHDT,39.6,T*15
20220705 020020+00:00 $GPRMC,020016,A,4823.6796,N,12311.9100,W,11.7,42,050722,11.7,E,A,V*57
20220705 020020+00:00 $WIMWV,281.29,R,4.9,N,A*1E
20220705 020022+00:00 $IIMDA,29.9,I,1.013,B,11.4,C,,C,90.9,,,C,,T,,M,,N,,M*2F
20220705 020022+00:00 $HCHDT,39.3,T*10
20220705 020022+00:00 $GPRMC,020018,A,4823.6898,N,12311.8998,W,11.7,42,050722,11.7,E,A,V*50
20220705 020022+00:00 $WIMWV,282.19,R,5,N,A*08
20220705 020024+00:00 $IIMDA,29.9,I,1.013,B,11.4,C,,C,90.9,,,C,,T,,M,,N,,M*2F
20220705 020024+00:00 $HCHDT,39.2,T*11
20220705 020024+00:00 $GPRMC,020020,A,4823.6898,N,12311.8998,W,11.7,42,050722,11.7,E,A,V*5B
20220705 020024+00:00 $WIMWV,280.89,R,4.78,N,A*23
20220705 020026+00:00 $IIMDA,29.9,I,1.013,B,11.4,C,,C,90.9,,,C,,T,,M,,N,,M*2F
20220705 020026+00:00 $HCHDT,39,T*0D
20220705 020026+00:00 $GPRMC,020022,A,4823.7000,N,12311.8896,W,11.7,42,050722,11.7,E,A,V*5E
20220705 020026+00:00 $WIMWV,283.39,R,4.39,N,A*2E
20220705 020028+00:00 $IIMDA,29.9,I,1.013,B,11.4,C,,C,90.9,,,C,,T,,M,,N,,M*2F
20220705 020028+00:00 $HCHDT,39,T*0D
20220705 020028+00:00 $GPRMC,020024,A,4823.7000,N,12311.8800,W,11.7,42,050722,11.7,E,A,V*57
20220705 020028+00:00 $WIMWV,285.19,R,5,N,A*0F
20220705 020030+00:00 $IIMDA,29.9,I,1.013,B,11.4,C,,C,90.9,,,C,,T,,M,,N,,M*2F
20220705 020030+00:00 $HCHDT,39,T*0D
20220705 020030+00:00 $GPRMC,020026,A,4823.7096,N,12311.8800,W,11.7,42,050722,11.7,E,A,V*5A
20220705 020030+00:00 $WIMWV,280.49,R,5.19,N,A*29
20220705 020032+00:00 $IIMDA,29.9,I,1.013,B,11.4,C,,C,90.9,,,C,,T,,M,,N,,M*2F
20220705 020032+00:00 $HCHDT,39.1,T*12
20220705 020032+00:00 $GPRMC,020028,A,4823.7096,N,12311.8698,W,11.7,41,050722,11.7,E,A,V*58
20220705 020032+00:00 $WIMWV,279.59,R,5,N,A*08
20220705 020034+00:00 $IIMDA,29.9,I,1.013,B,11.4,C,,C,90.9,,,C,,T,,M,,N,,M*2F
20220705 020034+00:00 $HCHDT,39.2,T*11
20220705 020034+00:00 $GPRMC,020030,A,4823.7198,N,12311.8596,W,11.7,41,050722,11.7,E,A,V*53
20220705 020034+00:00 $WIMWV,278.99,R,4.9,N,A*13
20220705 020036+00:00 $IIMDA,29.9,I,1.013,B,11.4,C,,C,90.9,,,C,,T,,M,,N,,M*2F
20220705 020036+00:00 $HCHDT,39.2,T*11
20220705 020036+00:00 $GPRMC,020032,A,4823.7198,N,12311.8596,W,11.7,41,050722,11.7,E,A,V*51
20220705 020036+00:00 $WIMWV,282.39,R,5,N,A*0A
20220705 020038+00:00 $IIMDA,29.9,I,1.013,B,11.4,C,,C,90.9,,,C,,T,,M,,N,,M*2F
20220705 020038+00:00 $HCHDT,39.3,T*10
20220705 020038+00:00 $GPRMC,020034,A,4823.7300,N,12311.8500,W,11.7,41,050722,11.7,E,A,V*5B
20220705 020038+00:00 $WIMWV,277.89,R,5.38,N,A*2E
20220705 020040+00:00 $IIMDA,29.9,I,1.013,B,11.4,C,,C,90.9,,,C,,T,,M,,N,,M*2F
20220705 020040+00:00 $HCHDT,39.4,T*17
20220705 020040+00:00 $GPRMC,020036,A,4823.7300,N,12311.8398,W,11.7,42,050722,11.7,E,A,V*5D
20220705 020040+00:00 $WIMWV,280.49,R,4.59,N,A*2C
20220705 020042+00:00 $IIMDA,29.9,I,1.013,B,11.4,C,,C,90.9,,,C,,T,,M,,N,,M*2F
20220705 020042+00:00 $HCHDT,39.5,T*16
20220705 020042+00:00 $GPRMC,020038,A,4823.7396,N,12311.8398,W,11.7,42,050722,11.7,E,A,V*5C
20220705 020042+00:00 $WIMWV,278.69,R,4.2,N,A*17
20220705 020044+00:00 $IIMDA,29.9,I,1.013,B,11.4,C,,C,90.9,,,C,,T,,M,,N,,M*2F
20220705 020044+00:00 $HCHDT,39.6,T*15
20220705 020044+00:00 $GPRMC,020040,A,4823.7396,N,12311.8296,W,11.7,42,050722,11.7,E,A,V*5C
20220705 020044+00:00 $WIMWV,281.99,R,3.98,N,A*2A
20220705 020046+00:00 $IIMDA,29.9,I,1.013,B,11.4,C,,C,90.9,,,C,,T,,M,,N,,M*2F
20220705 020046+00:00 $HCHDT,39.5,T*16
20220705 020046+00:00 $GPRMC,020042,A,4823.7498,N,12311.8296,W,11.7,42,050722,11.7,E,A,V*57
20220705 020046+00:00 $WIMWV,281.39,R,5.19,N,A*2F
20220705 020048+00:00 $IIMDA,29.9,I,1.013,B,11.4,C,,C,90.9,,,C,,T,,M,,N,,M*2F
20220705 020048+00:00 $HCHDT,39.6,T*15
20220705 020048+00:00 $GPRMC,020044,A,4823.7498,N,12311.8200,W,11.7,42,050722,11.7,E,A,V*5E
20220705 020048+00:00 $WIMWV,280.19,R,5.29,N,A*2F
20220705 020050+00:00 $IIMDA,29.9,I,1.013,B,11.4,C,,C,90.9,,,C,,T,,M,,N,,M*2F
20220705 020050+00:00 $HCHDT,39.5,T*16
20220705 020050+00:00 $GPRMC,020046,A,4823.7600,N,12311.8098,W,11.7,42,050722,11.7,E,A,V*5C
20220705 020050+00:00 $WIMWV,272.39,R,4.49,N,A*27
20220705 020052+00:00 $IIMDA,29.9,I,1.013,B,11.4,C,,C,90.9,,,C,,T,,M,,N,,M*2F
20220705 020052+00:00 $HCHDT,39.5,T*16
20220705 020052+00:00 $GPRMC,020048,A,4823.7600,N,12311.8098,W,11.7,42,050722,11.7,E,A,V*52
20220705 020052+00:00 $WIMWV,279.09,R,4.08,N,A*2A
20220705 020054+00:00 $IIMDA,29.9,I,1.013,B,11.4,C,,C,90.9,,,C,,T,,M,,N,,M*2F
20220705 020054+00:00 $HCHDT,39.5,T*16
20220705 020054+00:00 $GPRMC,020050,A,4823.7696,N,12311.7996,W,11.7,42,050722,11.7,E,A,V*5C
20220705 020054+00:00 $WIMWV,280.69,R,4.39,N,A*28
20220705 020056+00:00 $IIMDA,29.9,I,1.013,B,11.4,C,,C,90.9,,,C,,T,,M,,N,,M*2F
20220705 020056+00:00 $HCHDT,39.5,T*16
20220705 020056+00:00 $GPRMC,020052,A,4823.7696,N,12311.7900,W,11.7,42,050722,11.7,E,A,V*51
20220705 020056+00:00 $WIMWV,278.19,R,4.59,N,A*2E
20220705 020058+00:00 $IIMDA,29.9,I,1.013,B,11.4,C,,C,90.9,,,C,,T,,M,,N,,M*2F
20220705 020058+00:00 $HCHDT,39.7,T*14
20220705 020058+00:00 $GPRMC,020054,A,4823.7798,N,12311.7900,W,11.7,42,050722,11.7,E,A,V*58
20220705 020058+00:00 $WIMWV,277.29,R,5,N,A*01
20220705 020100+00:00 $IIMDA,29.9,I,1.013,B,11.4,C,,C,90.9,,,C,,T,,M,,N,,M*2F
20220705 020100+00:00 $HCHDT,39.8,T*1B
20220705 020100+00:00 $GPRMC,020056,A,4823.7798,N,12311.7798,W,11.7,42,050722,11.7,E,A,V*55
20220705 020100+00:00 $WIMWV,279.19,R,4.59,N,A*2F
20220705 020102+00:00 $IIMDA,29.9,I,1.013,B,11.4,C,,C,91,,,C,,T,,M,,N,,M*39
20220705 020102+00:00 $HCHDT,39.9,T*1A
20220705 020102+00:00 $GPRMC,020058,A,4823.7900,N,12311.7696,W,11.7,42,050722,11.7,E,A,V*5B
20220705 020102+00:00 $WIMWV,278.99,R,4.9,N,A*13
20220705 020104+00:00 $IIMDA,29.9,I,1.013,B,11.4,C,,C,91,,,C,,T,,M,,N,,M*39
20220705 020104+00:00 $HCHDT,40,T*03
20220705 020104+00:00 $GPRMC,020100,A,4823.7900,N,12311.7696,W,11.7,42,050722,11.7,E,A,V*57
20220705 020104+00:00 $WIMWV,278.49,R,4.3,N,A*14
20220705 020106+00:00 $IIMDA,29.9,I,1.013,B,11.4,C,,C,90.9,,,C,,T,,M,,N,,M*2F
20220705 020106+00:00 $HCHDT,40,T*03
20220705 020106+00:00 $GPRMC,020102,A,4823.7996,N,12311.7600,W,11.7,42,050722,11.7,E,A,V*55
20220705 020106+00:00 $WIMWV,279.19,R,4.39,N,A*29
20220705 020108+00:00 $IIMDA,29.9,I,1.013,B,11.4,C,,C,90.9,,,C,,T,,M,,N,,M*2F
20220705 020108+00:00 $HCHDT,40.2,T*1F
20220705 020108+00:00 $GPRMC,020104,A,4823.7996,N,12311.7498,W,11.7,42,050722,11.7,E,A,V*50
20220705 020108+00:00 $WIMWV,281.09,R,4.3,N,A*16
20220705 020110+00:00 $IIMDA,29.9,I,1.013,B,11.4,C,,C,91,,,C,,T,,M,,N,,M*39
20220705 020110+00:00 $HCHDT,40.4,T*19
20220705 020110+00:00 $GPRMC,020106,A,4823.7996,N,12311.7498,W,11.7,42,050722,11.7,E,A,V*52
20220705 020110+00:00 $WIMWV,280.29,R,4.49,N,A*2B
20220705 020112+00:00 $IIMDA,29.9,I,1.013,B,11.4,C,,C,91,,,C,,T,,M,,N,,M*39
20220705 020112+00:00 $HCHDT,40.6,T*1B
20220705 020112+00:00 $GPRMC,020108,A,4823.8098,N,12311.7396,W,11.7,42,050722,11.7,E,A,V*5D
20220705 020112+00:00 $WIMWV,280.99,R,4.2,N,A*1F
20220705 020114+00:00 $IIMDA,29.9,I,1.013,B,11.4,C,,C,91,,,C,,T,,M,,N,,M*39
20220705 020114+00:00 $HCHDT,40.7,T*1A
20220705 020114+00:00 $GPRMC,020110,A,4823.8098,N,12311.7300,W,11.7,42,050722,11.7,E,A,V*5B
20220705 020114+00:00 $WIMWV,282.19,R,4.39,N,A*2D
20220705 020116+00:00 $IIMDA,29.9,I,1.013,B,11.4,C,,C,91,,,C,,T,,M,,N,,M*39
20220705 020116+00:00 $HCHDT,40.7,T*1A
20220705 020116+00:00 $GPRMC,020112,A,4823.8200,N,12311.7300,W,11.7,42,050722,11.7,E,A,V*5A
20220705 020116+00:00 $WIMWV,280.69,R,4.68,N,A*2C
20220705 020118+00:00 $IIMDA,29.9,I,1.013,B,11.4,C,,C,91,,,C,,T,,M,,N,,M*39
20220705 020118+00:00 $HCHDT,40.8,T*15
20220705 020118+00:00 $GPRMC,020114,A,4823.8200,N,12311.7198,W,11.7,42,050722,11.7,E,A,V*5F
20220705 020118+00:00 $WIMWV,274.4,R,4.49,N,A*1F
20220705 020120+00:00 $IIMDA,29.9,I,1.013,B,11.5,C,,C,91,,,C,,T,,M,,N,,M*38
20220705 020120+00:00 $HCHDT,40.7,T*1A
20220705 020120+00:00 $GPRMC,020116,A,4823.8296,N,12311.7096,W,11.8,42,050722,11.7,E,A,V*52
20220705 020120+00:00 $WIMWV,272.99,R,4.2,N,A*12
20220705 020122+00:00 $IIMDA,29.9,I,1.013,B,11.5,C,,C,91,,,C,,T,,M,,N,,M*38
20220705 020122+00:00 $HCHDT,40.7,T*1A
20220705 020122+00:00 $GPRMC,020118,A,4823.8296,N,12311.7096,W,11.8,42,050722,11.7,E,A,V*5C
20220705 020122+00:00 $WIMWV,275.39,R,4.2,N,A*1F
20220705 020124+00:00 $IIMDA,29.9,I,1.013,B,11.5,C,,C,91,,,C,,T,,M,,N,,M*38
20220705 020124+00:00 $HCHDT,40.5,T*18
20220705 020124+00:00 $GPRMC,020120,A,4823.8398,N,12311.7000,W,11.8,42,050722,11.7,E,A,V*57
20220705 020124+00:00 $WIMWV,278.69,R,3.69,N,A*2D
20220705 020126+00:00 $IIMDA,29.9,I,1.013,B,11.5,C,,C,91,,,C,,T,,M,,N,,M*38
20220705 020126+00:00 $HCHDT,40.3,T*1E
20220705 020126+00:00 $GPRMC,020122,A,4823.8398,N,12311.6898,W,11.8,42,050722,11.7,E,A,V*5D
20220705 020126+00:00 $WIMWV,285.29,R,3.98,N,A*25
20220705 020128+00:00 $IIMDA,29.9,I,1.013,B,11.5,C,,C,91,,,C,,T,,M,,N,,M*38
20220705 020128+00:00 $HCHDT,40.2,T*1F
20220705 020128+00:00 $GPRMC,020124,A,4823.8500,N,12311.6898,W,11.8,42,050722,11.7,E,A,V*5C
20220705 020128+00:00 $WIMWV,284.09,R,3.89,N,A*26
20220705 020130+00:00 $IIMDA,29.9,I,1.013,B,11.5,C,,C,91,,,C,,T,,M,,N,,M*38
20220705 020130+00:00 $HCHDT,40.2,T*1F
20220705 020130+00:00 $GPRMC,020126,A,4823.8500,N,12311.6796,W,11.8,42,050722,11.7,E,A,V*5F
20220705 020130+00:00 $WIMWV,282.19,R,4.08,N,A*2F
20220705 020132+00:00 $IIMDA,29.9,I,1.013,B,11.5,C,,C,91,,,C,,T,,M,,N,,M*38
20220705 020132+00:00 $HCHDT,40.2,T*1F
20220705 020132+00:00 $GPRMC,020128,A,4823.8596,N,12311.6700,W,11.8,42,050722,11.7,E,A,V*51
20220705 020132+00:00 $WIMWV,280.29,R,4.68,N,A*28
20220705 020134+00:00 $IIMDA,29.9,I,1.013,B,11.5,C,,C,91,,,C,,T,,M,,N,,M*38
20220705 020134+00:00 $HCHDT,40.1,T*1C
20220705 020134+00:00 $GPRMC,020130,A,4823.8596,N,12311.6700,W,11.8,42,050722,11.7,E,A,V*58
20220705 020134+00:00 $WIMWV,278.09,R,4.2,N,A*11
20220705 020136+00:00 $IIMDA,29.9,I,1.013,B,11.5,C,,C,91,,,C,,T,,M,,N,,M*38
20220705 020136+00:00 $HCHDT,40.1,T*1C
20220705 020136+00:00 $GPRMC,020132,A,4823.8698,N,12311.6598,W,11.8,42,050722,11.7,E,A,V*54
20220705 020136+00:00 $WIMWV,282.19,R,4.49,N,A*2A
20220705 020138+00:00 $IIMDA,29.9,I,1.013,B,11.5,C,,C,90.9,,,C,,T,,M,,N,,M*2E
20220705 020138+00:00 $HCHDT,40.1,T*1C
20220705 020138+00:00 $GPRMC,020134,A,4823.8698,N,12311.6598,W,11.8,42,050722,11.7,E,A,V*52
20220705 020138+00:00 $WIMWV,282.99,R,4.2,N,A*1D
20220705 020140+00:00 $IIMDA,29.9,I,1.013,B,11.5,C,,C,90.9,,,C,,T,,M,,N,,M*2E
20220705 020140+00:00 $HCHDT,40.3,T*1E
20220705 020140+00:00 $GPRMC,020136,A,4823.8800,N,12311.6496,W,11.8,42,050722,11.7,E,A,V*50
20220705 020140+00:00 $WIMWV,284.99,R,4.3,N,A*1A
20220705 020142+00:00 $IIMDA,29.9,I,1.013,B,11.5,C,,C,90.9,,,C,,T,,M,,N,,M*2E
20220705 020142+00:00 $HCHDT,40.4,T*19
20220705 020142+00:00 $GPRMC,020138,A,4823.8800,N,12311.6400,W,11.8,42,050722,11.7,E,A,V*51
20220705 020142+00:00 $WIMWV,284.69,R,4.2,N,A*14
20220705 020144+00:00 $IIMDA,29.9,I,1.013,B,11.5,C,,C,90.9,,,C,,T,,M,,N,,M*2E
20220705 020144+00:00 $HCHDT,40.4,T*19
20220705 020144+00:00 $GPRMC,020140,A,4823.8896,N,12311.6400,W,11.8,42,050722,11.7,E,A,V*51
20220705 020144+00:00 $WIMWV,288.69,R,3.89,N,A*2C
20220705 020146+00:00 $IIMDA,29.9,I,1.013,B,11.5,C,,C,90.9,,,C,,T,,M,,N,,M*2E
20220705 020146+00:00 $HCHDT,40.5,T*18
20220705 020146+00:00 $GPRMC,020142,A,4823.8896,N,12311.6298,W,11.8,42,050722,11.7,E,A,V*54
20220705 020146+00:00 $WIMWV,283.09,R,3.98,N,A*21
20220705 020148+00:00 $IIMDA,29.9,I,1.013,B,11.5,C,,C,90.9,,,C,,T,,M,,N,,M*2E
20220705 020148+00:00 $HCHDT,40.5,T*18
20220705 020148+00:00 $GPRMC,020144,A,4823.8998,N,12311.6196,W,11.8,42,050722,11.7,E,A,V*50
20220705 020148+00:00 $WIMWV,281.49,R,3.98,N,A*27
20220705 020150+00:00 $IIMDA,29.9,I,1.013,B,11.5,C,,C,90.9,,,C,,T,,M,,N,,M*2E
20220705 020150+00:00 $HCHDT,40.6,T*1B
20220705 020150+00:00 $GPRMC,020146,A,4823.8998,N,12311.6196,W,11.8,42,050722,11.7,E,A,V*52
20220705 020150+00:00 $WIMWV,275.79,R,4.2,N,A*1B
20220705 020152+00:00 $IIMDA,29.9,I,1.013,B,11.5,C,,C,90.9,,,C,,T,,M,,N,,M*2E
20220705 020152+00:00 $HCHDT,40.7,T*1A
20220705 020152+00:00 $GPRMC,020148,A,4823.9100,N,12311.6100,W,11.8,43,050722,11.7,E,A,V*5A
20220705 020152+00:00 $WIMWV,281.09,R,4.2,N,A*17
20220705 020154+00:00 $IIMDA,29.9,I,1.013,B,11.5,C,,C,90.8,,,C,,T,,M,,N,,M*2F
20220705 020154+00:00 $HCHDT,40.7,T*1A
20220705 020154+00:00 $GPRMC,020150,A,4823.9100,N,12311.5998,W,11.8,43,050722,11.7,E,A,V*59
20220705 020154+00:00 $WIMWV,282.99,R,3.6,N,A*1E
20220705 020156+00:00 $IIMDA,29.9,I,1.013,B,11.5,C,,C,90.9,,,C,,T,,M,,N,,M*2E
20220705 020156+00:00 $HCHDT,40.7,T*1A
20220705 020156+00:00 $GPRMC,020152,A,4823.9196,N,12311.5998,W,11.8,43,050722,11.7,E,A,V*54
20220705 020156+00:00 $WIMWV,279.49,R,4.59,N,A*2A
20220705 020158+00:00 $IIMDA,29.9,I,1.013,B,11.5,C,,C,90.9,,,C,,T,,M,,N,,M*2E
20220705 020158+00:00 $HCHDT,40.7,T*1A
20220705 020158+00:00 $GPRMC,020154,A,4823.9196,N,12311.5896,W,11.8,43,050722,11.7,E,A,V*5D
20220705 020158+00:00 $WIMWV,285.29,R,3.69,N,A*2B
20220705 020200+00:00 $IIMDA,29.9,I,1.013,B,11.5,C,,C,90.9,,,C,,T,,M,,N,,M*2E
20220705 020200+00:00 $HCHDT,40.7,T*1A
20220705 020200+00:00 $GPRMC,020156,A,4823.9298,N,12311.5800,W,11.8,43,050722,11.7,E,A,V*5D
20220705 020200+00:00 $WIMWV,282.79,R,3.6,N,A*10
20220705 020202+00:00 $IIMDA,29.9,I,1.013,B,11.5,C,,C,90.8,,,C,,T,,M,,N,,M*2F
20220705 020202+00:00 $HCHDT,40.8,T*15
20220705 020202+00:00 $GPRMC,020158,A,4823.9298,N,12311.5800,W,11.8,43,050722,11.7,E,A,V*53
20220705 020202+00:00 $WIMWV,288.69,R,3.79,N,A*23
20220705 020204+00:00 $IIMDA,29.9,I,1.013,B,11.5,C,,C,90.9,,,C,,T,,M,,N,,M*2E
20220705 020204+00:00 $HCHDT,40.8,T*15
20220705 020204+00:00 $GPRMC,020200,A,4823.9298,N,12311.5698,W,11.8,43,050722,11.7,E,A,V*52
20220705 020204+00:00 $WIMWV,289.09,R,4.3,N,A*1E
20220705 020206+00:00 $IIMDA,29.9,I,1.013,B,11.5,C,,C,90.8,,,C,,T,,M,,N,,M*2F
20220705 020206+00:00 $HCHDT,40.9,T*14
20220705 020206+00:00 $GPRMC,020202,A,4823.9400,N,12311.5596,W,11.8,43,050722,11.7,E,A,V*5A
20220705 020206+00:00 $WIMWV,281.79,R,5,N,A*0D
20220705 020208+00:00 $IIMDA,29.9,I,1.013,B,11.5,C,,C,90.9,,,C,,T,,M,,N,,M*2E
20220705 020208+00:00 $HCHDT,41,T*02
20220705 020208+00:00 $GPRMC,020204,A,4823.9400,N,12311.5596,W,11.8,43,050722,11.7,E,A,V*5C
20220705 020208+00:00 $WIMWV,280.39,R,4.59,N,A*2B
20220705 020210+00:00 $IIMDA,29.9,I,1.013,B,11.5,C,,C,90.8,,,C,,T,,M,,N,,M*2F
20220705 020210+00:00 $HCHDT,41.1,T*1D
20220705 020210+00:00 $GPRMC,020206,A,4823.9496,N,12311.5500,W,11.8,43,050722,11.7,E,A,V*5E
20220705 020210+00:00 $WIMWV,280.89,R,4.49,N,A*21
20220705 020212+00:00 $IIMDA,29.9,I,1.013,B,11.5,C,,C,90.9,,,C,,T,,M,,N,,M*2E
20220705 020212+00:00 $HCHDT,41.1,T*1D
20220705 020212+00:00 $GPRMC,020208,A,4823.9496,N,12311.5398,W,11.8,43,050722,11.7,E,A,V*57
20220705 020212+00:00 $WIMWV,287.29,R,4.39,N,A*2B
20220705 020214+00:00 $IIMDA,29.9,I,1.013,B,11.5,C,,C,90.8,,,C,,T,,M,,N,,M*2F
20220705 020214+00:00 $HCHDT,41.1,T*1D
20220705 020214+00:00 $GPRMC,020210,A,4823.9598,N,12311.5398,W,11.8,43,050722,11.7,E,A,V*51
20220705 020214+00:00 $WIMWV,284.99,R,4.39,N,A*23
20220705 020216+00:00 $IIMDA,29.9,I,1.013,B,11.5,C,,C,90.8,,,C,,T,,M,,N,,M*2F
20220705 020216+00:00 $HCHDT,41,T*02
20220705 020216+00:00 $GPRMC,020212,A,4823.9598,N,12311.5296,W,11.8,43,050722,11.7,E,A,V*5C
20220705 020216+00:00 $WIMWV,285.69,R,3.89,N,A*21
20220705 020218+00:00 $IIMDA,29.9,I,1.013,B,11.5,C,,C,90.9,,,C,,T,,M,,N,,M*2E
20220705 020218+00:00 $HCHDT,40.9,T*14
20220705 020218+00:00 $GPRMC,020214,A,4823.9700,N,12311.5200,W,11.8,43,050722,11.7,E,A,V*56
20220705 020218+00:00 $WIMWV,281.9,R,4.08,N,A*1D
20220705 020220+00:00 $IIMDA,29.9,I,1.013,B,11.5,C,,C,90.8,,,C,,T,,M,,N,,M*2F
20220705 020220+00:00 $HCHDT,40.8,T*15
20220705 020220+00:00 $GPRMC,020216,A,4823.9700,N,12311.5200,W,11.8,43,050722,11.7,E,A,V*54
20220705 020220+00:00 $WIMWV,282.79,R,3.89,N,A*27
20220705 020222+00:00 $IIMDA,29.9,I,1.013,B,11.5,C,,C,90.8,,,C,,T,,M,,N,,M*2F
20220705 020222+00:00 $HCHDT,40.7,T*1A
20220705 020222+00:00 $GPRMC,020218,A,4823.9796,N,12311.5098,W,11.8,43,050722,11.7,E,A,V*56
20220705 020222+00:00 $WIMWV,283.29,R,3.69,N,A*2D
20220705 020224+00:00 $IIMDA,29.9,I,1.013,B,11.5,C,,C,90.8,,,C,,T,,M,,N,,M*2F
20220705 020224+00:00 $HCHDT,40.6,T*1B
20220705 020224+00:00 $GPRMC,020220,A,4823.9796,N,12311.4996,W,11.8,43,050722,11.7,E,A,V*5B
20220705 020224+00:00 $WIMWV,285.19,R,3.89,N,A*26
20220705 020226+00:00 $IIMDA,29.9,I,1.013,B,11.5,C,,C,90.8,,,C,,T,,M,,N,,M*2F
20220705 020226+00:00 $HCHDT,40.6,T*1B
20220705 020226+00:00 $GPRMC,020222,A,4823.9898,N,12311.4996,W,11.8,43,050722,11.7,E,A,V*58
20220705 020226+00:00 $WIMWV,281.9,R,5.19,N,A*1C
20220705 020228+00:00 $IIMDA,29.9,I,1.013,B,11.5,C,,C,90.8,,,C,,T,,M,,N,,M*2F
20220705 020228+00:00 $HCHDT,40.6,T*1B
20220705 020228+00:00 $GPRMC,020224,A,4823.9898,N,12311.4900,W,11.8,43,050722,11.7,E,A,V*51
20220705 020228+00:00 $WIMWV,282.49,R,4.49,N,A*2F
20220705 020230+00:00 $IIMDA,29.9,I,1.013,B,11.5,C,,C,90.7,,,C,,T,,M,,N,,M*20
20220705 020230+00:00 $HCHDT,40.5,T*18
20220705 020230+00:00 $GPRMC,020226,A,4824.0000,N,12311.4798,W,11.8,43,050722,11.7,E,A,V*5B
20220705 020230+00:00 $WIMWV,288.79,R,3.38,N,A*27
20220705 020232+00:00 $IIMDA,29.9,I,1.013,B,11.5,C,,C,90.8,,,C,,T,,M,,N,,M*2F
20220705 020232+00:00 $HCHDT,40.4,T*19
20220705 020232+00:00 $GPRMC,020228,A,4824.0000,N,12311.4798,W,11.8,43,050722,11.7,E,A,V*55
20220705 020232+00:00 $WIMWV,287.89,R,4.2,N,A*19
20220705 020234+00:00 $IIMDA,29.9,I,1.013,B,11.5,C,,C,90.7,,,C,,T,,M,,N,,M*20
20220705 020234+00:00 $HCHDT,40.3,T*1E
20220705 020234+00:00 $GPRMC,020230,A,4824.0096,N,12311.4696,W,11.8,43,050722,11.7,E,A,V*5C
20220705 020234+00:00 $WIMWV,282.39,R,4.78,N,A*2A
20220705 020236+00:00 $IIMDA,29.9,I,1.013,B,11.5,C,,C,90.7,,,C,,T,,M,,N,,M*20
20220705 020236+00:00 $HCHDT,40.2,T*1F
20220705 020236+00:00 $GPRMC,020232,A,4824.0096,N,12311.4600,W,11.8,43,050722,11.7,E,A,V*51
20220705 020236+00:00 $WIMWV,284.39,R,4.78,N,A*2C
20220705 020238+00:00 $IIMDA,29.9,I,1.013,B,11.5,C,,C,90.7,,,C,,T,,M,,N,,M*20
20220705 020238+00:00 $HCHDT,40.1,T*1C
20220705 020238+00:00 $GPRMC,020234,A,4824.0198,N,12311.4600,W,11.8,42,050722,11.7,E,A,V*59
20220705 020238+00:00 $WIMWV,287.79,R,3.98,N,A*22
20220705 020240+00:00 $IIMDA,29.9,I,1.013,B,11.5,C,,C,90.8,,,C,,T,,M,,N,,M*2F
20220705 020240+00:00 $HCHDT,40,T*03
20220705 020240+00:00 $GPRMC,020236,A,4824.0198,N,12311.4498,W,11.8,42,050722,11.7,E,A,V*58
20220705 020240+00:00 $WIMWV,290.29,R,3.98,N,A*21
20220705 020242+00:00 $IIMDA,29.9,I,1.013,B,11.5,C,,C,90.7,,,C,,T,,M,,N,,M*20
20220705 020242+00:00 $HCHDT,40,T*03
20220705 020242+00:00 $GPRMC,020238,A,4824.0300,N,12311.4396,W,11.8,42,050722,11.7,E,A,V*5C
20220705 020242+00:00 $WIMWV,291.49,R,4.78,N,A*2F
20220705 020244+00:00 $IIMDA,29.9,I,1.013,B,11.5,C,,C,90.7,,,C,,T,,M,,N,,M*20
20220705 020244+00:00 $HCHDT,40,T*03
20220705 020244+00:00 $GPRMC,020240,A,4824.0300,N,12311.4396,W,11.8,42,050722,11.7,E,A,V*53
20220705 020244+00:00 $WIMWV,282.69,R,4.78,N,A*2F
20220705 020246+00:00 $IIMDA,29.9,I,1.013,B,11.5,C,,C,90.7,,,C,,T,,M,,N,,M*20
20220705 020246+00:00 $HCHDT,40,T*03
20220705 020246+00:00 $GPRMC,020242,A,4824.0396,N,12311.4300,W,11.8,42,050722,11.7,E,A,V*51
20220705 020246+00:00 $WIMWV,284.59,R,5,N,A*0A
20220705 020248+00:00 $IIMDA,29.9,I,1.013,B,11.5,C,,C,90.8,,,C,,T,,M,,N,,M*2F
20220705 020248+00:00 $HCHDT,40,T*03
20220705 020248+00:00 $GPRMC,020244,A,4824.0396,N,12311.4198,W,11.8,42,050722,11.7,E,A,V*54
20220705 020248+00:00 $WIMWV,288.89,R,4.78,N,A*2B
20220705 020250+00:00 $IIMDA,29.9,I,1.013,B,11.5,C,,C,90.7,,,C,,T,,M,,N,,M*20
20220705 020250+00:00 $HCHDT,40,T*03
20220705 020250+00:00 $GPRMC,020246,A,4824.0498,N,12311.4198,W,11.8,42,050722,11.7,E,A,V*5F
20220705 020250+00:00 $WIMWV,286.39,R,4.49,N,A*2C
20220705 020252+00:00 $IIMDA,29.9,I,1.013,B,11.5,C,,C,90.7,,,C,,T,,M,,N,,M*20
20220705 020252+00:00 $HCHDT,40,T*03
20220705 020252+00:00 $GPRMC,020248,A,4824.0498,N,12311.4096,W,11.8,42,050722,11.7,E,A,V*5E
20220705 020252+00:00 $WIMWV,287.89,R,4.68,N,A*25
20220705 020254+00:00 $IIMDA,29.9,I,1.013,B,11.5,C,,C,90.8,,,C,,T,,M,,N,,M*2F
20220705 020254+00:00 $HCHDT,40,T*03
20220705 020254+00:00 $GPRMC,020250,A,4824.0600,N,12311.4000,W,11.8,42,050722,11.7,E,A,V*5B
20220705 020254+00:00 $WIMWV,282.59,R,5.29,N,A*29
20220705 020256+00:00 $IIMDA,29.9,I,1.013,B,11.5,C,,C,90.7,,,C,,T,,M,,N,,M*20
20220705 020256+00:00 $HCHDT,40,T*03
20220705 020256+00:00 $GPRMC,020252,A,4824.0600,N,12311.4000,W,11.8,42,050722,11.7,E,A,V*59
20220705 020256+00:00 $WIMWV,282.69,R,4.78,N,A*2F
20220705 020258+00:00 $IIMDA,29.9,I,1.013,B,11.5,C,,C,90.8,,,C,,T,,M,,N,,M*2F
20220705 020258+00:00 $HCHDT,40,T*03
20220705 020258+00:00 $GPRMC,020254,A,4824.0696,N,12311.3898,W,11.8,42,050722,11.7,E,A,V*5E
20220705 020258+00:00 $WIMWV,282.09,R,4.59,N,A*2A
20220705 020300+00:00 $IIMDA,29.9,I,1.013,B,11.5,C,,C,90.7,,,C,,T,,M,,N,,M*20
20220705 020300+00:00 $HCHDT,40,T*03
20220705 020300+00:00 $GPRMC,020256,A,4824.0696,N,12311.3796,W,11.8,42,050722,11.7,E,A,V*5D
20220705 020300+00:00 $WIMWV,285.49,R,5,N,A*0A
20220705 020302+00:00 $IIMDA,29.9,I,1.013,B,11.5,C,,C,90.8,,,C,,T,,M,,N,,M*2F
20220705 020302+00:00 $HCHDT,40.1,T*1C
20220705 020302+00:00 $GPRMC,020258,A,4824.0798,N,12311.3796,W,11.8,42,050722,11.7,E,A,V*5C
20220705 020302+00:00 $WIMWV,284.99,R,5.09,N,A*21
20220705 020304+00:00 $IIMDA,29.9,I,1.013,B,11.5,C,,C,90.7,,,C,,T,,M,,N,,M*20
20220705 020304+00:00 $HCHDT,40,T*03
20220705 020304+00:00 $GPRMC,020300,A,4824.0798,N,12311.3700,W,11.8,42,050722,11.7,E,A,V*5F
20220705 020304+00:00 $WIMWV,282.69,R,4.9,N,A*19
20220705 020306+00:00 $IIMDA,29.9,I,1.013,B,11.5,C,,C,90.7,,,C,,T,,M,,N,,M*20
20220705 020306+00:00 $HCHDT,39.9,T*1A
20220705 020306+00:00 $GPRMC,020302,A,4824.0900,N,12311.3598,W,11.8,41,050722,11.7,E,A,V*52
20220705 020306+00:00 $WIMWV,281.29,R,5.6,N,A*10
20220705 020308+00:00 $IIMDA,29.9,I,1.013,B,11.5,C,,C,90.7,,,C,,T,,M,,N,,M*20
20220705 020308+00:00 $HCHDT,39.8,T*1B
20220705 020308+00:00 $GPRMC,020304,A,4824.0900,N,12311.3598,W,11.8,41,050722,11.7,E,A,V*54
20220705 020308+00:00 $WIMWV,284.69,R,5.29,N,A*2C
20220705 020310+00:00 $IIMDA,29.9,I,1.013,B,11.5,C,,C,90.7,,,C,,T,,M,,N,,M*20
20220705 020310+00:00 $HCHDT,39.9,T*1A
20220705 020310+00:00 $GPRMC,020306,A,4824.0900,N,12311.3496,W,11.8,41,050722,11.7,E,A,V*59
20220705 020310+00:00 $WIMWV,285.89,R,5.29,N,A*23
20220705 020312+00:00 $IIMDA,29.9,I,1.013,B,11.5,C,,C,90.7,,,C,,T,,M,,N,,M*20
20220705 020312+00:00 $HCHDT,39.9,T*1A
20220705 020312+00:00 $GPRMC,020308,A,4824.0996,N,12311.3400,W,11.8,41,050722,11.7,E,A,V*57
20220705 020312+00:00 $WIMWV,282.49,R,4.9,N,A*1B
20220705 020314+00:00 $IIMDA,29.9,I,1.013,B,11.5,C,,C,90.7,,,C,,T,,M,,N,,M*20
20220705 020314+00:00 $HCHDT,39.9,T*1A
20220705 020314+00:00 $GPRMC,020310,A,4824.0996,N,12311.3400,W,11.8,41,050722,11.7,E,A,V*5E
20220705 020314+00:00 $WIMWV,282.39,R,5,N,A*0A
20220705 020316+00:00 $IIMDA,29.9,I,1.013,B,11.5,C,,C,90.7,,,C,,T,,M,,N,,M*20
20220705 020316+00:00 $HCHDT,39.8,T*1B
20220705 020316+00:00 $GPRMC,020312,A,4824.1098,N,12311.3298,W,11.8,41,050722,11.7,E,A,V*5D
20220705 020316+00:00 $WIMWV,289.79,R,4.49,N,A*27
20220705 020318+00:00 $IIMDA,29.9,I,1.013,B,11.5,C,,C,90.7,,,C,,T,,M,,N,,M*20
20220705 020318+00:00 $HCHDT,39.8,T*1B
20220705 020318+00:00 $GPRMC,020314,A,4824.1098,N,12311.3196,W,11.8,41,050722,11.7,E,A,V*56
20220705 020318+00:00 $WIMWV,295.89,R,4.59,N,A*24
20220705 020320+00:00 $IIMDA,29.9,I,1.013,B,11.5,C,,C,90.7,,,C,,T,,M,,N,,M*20
20220705 020320+00:00 $HCHDT,39.9,T*1A
20220705 020320+00:00 $GPRMC,020316,A,4824.1200,N,12311.3196,W,11.8,41,050722,11.7,E,A,V*57
20220705 020320+00:00 $WIMWV,283.89,R,5.09,N,A*27
20220705 020322+00:00 $IIMDA,29.9,I,1.013,B,11.5,C,,C,90.7,,,C,,T,,M,,N,,M*20
20220705 020322+00:00 $HCHDT,39.8,T*1B
20220705 020322+00:00 $GPRMC,020318,A,4824.1200,N,12311.3100,W,11.8,41,050722,11.7,E,A,V*56
20220705 020322+00:00 $WIMWV,286.29,R,4.9,N,A*19
20220705 020324+00:00 $IIMDA,29.9,I,1.013,B,11.4,C,,C,90.6,,,C,,T,,M,,N,,M*20
20220705 020324+00:00 $HCHDT,39.6,T*15
20220705 020324+00:00 $GPRMC,020320,A,4824.1296,N,12311.3100,W,11.8,41,050722,11.7,E,A,V*52
20220705 020324+00:00 $WIMWV,291.69,R,4.3,N,A*11
20220705 020326+00:00 $IIMDA,29.9,I,1.013,B,11.4,C,,C,90.6,,,C,,T,,M,,N,,M*20
20220705 020326+00:00 $HCHDT,39.6,T*15
20220705 020326+00:00 $GPRMC,020322,A,4824.1296,N,12311.2998,W,11.8,41,050722,11.7,E,A,V*58
20220705 020326+00:00 $WIMWV,282.09,R,5.48,N,A*2B
20220705 020328+00:00 $IIMDA,29.9,I,1.013,B,11.4,C,,C,90.6,,,C,,T,,M,,N,,M*20
20220705 020328+00:00 $HCHDT,39.6,T*15
20220705 020328+00:00 $GPRMC,020324,A,4824.1398,N,12311.2896,W,11.8,41,050722,11.7,E,A,V*5E
20220705 020328+00:00 $WIMWV,295.79,R,4.39,N,A*2D
20220705 020330+00:00 $IIMDA,29.9,I,1.013,B,11.4,C,,C,90.6,,,C,,T,,M,,N,,M*20
20220705 020330+00:00 $HCHDT,39.6,T*15
20220705 020330+00:00 $GPRMC,020326,A,4824.1398,N,12311.2896,W,11.8,41,050722,11.7,E,A,V*5C
20220705 020330+00:00 $WIMWV,283.69,R,5.89,N,A*21
20220705 020332+00:00 $IIMDA,29.9,I,1.013,B,11.4,C,,C,90.6,,,C,,T,,M,,N,,M*20
20220705 020332+00:00 $HCHDT,39.6,T*15
20220705 020332+00:00 $GPRMC,020328,A,4824.1500,N,12311.2800,W,11.8,41,050722,11.7,E,A,V*5A
20220705 020332+00:00 $WIMWV,281.9,R,5.79,N,A*1A
20220705 020334+00:00 $IIMDA,29.9,I,1.013,B,11.4,C,,C,90.6,,,C,,T,,M,,N,,M*20
20220705 020334+00:00 $HCHDT,39.7,T*14
20220705 020334+00:00 $GPRMC,020330,A,4824.1500,N,12311.2698,W,11.8,41,050722,11.7,E,A,V*5C
20220705 020334+00:00 $WIMWV,281.99,R,5,N,A*03
20220705 020336+00:00 $IIMDA,29.9,I,1.013,B,11.4,C,,C,90.6,,,C,,T,,M,,N,,M*20
20220705 020336+00:00 $HCHDT,39.8,T*1B
20220705 020336+00:00 $GPRMC,020332,A,4824.1596,N,12311.2698,W,11.8,41,050722,11.7,E,A,V*51
20220705 020336+00:00 $WIMWV,284.49,R,5,N,A*0B
20220705 020338+00:00 $IIMDA,29.9,I,1.013,B,11.4,C,,C,90.6,,,C,,T,,M,,N,,M*20
20220705 020338+00:00 $HCHDT,40,T*03
20220705 020338+00:00 $GPRMC,020334,A,4824.1596,N,12311.2596,W,11.8,41,050722,11.7,E,A,V*5A
20220705 020338+00:00 $WIMWV,282.49,R,5.19,N,A*2B
20220705 020340+00:00 $IIMDA,29.9,I,1.013,B,11.4,C,,C,90.6,,,C,,T,,M,,N,,M*20
20220705 020340+00:00 $HCHDT,40.1,T*1C
20220705 020340+00:00 $GPRMC,020336,A,4824.1698,N,12311.2500,W,11.8,41,050722,11.7,E,A,V*5A
20220705 020340+00:00 $WIMWV,282.99,R,5.48,N,A*22
20220705 020342+00:00 $IIMDA,29.9,I,1.013,B,11.4,C,,C,90.6,,,C,,T,,M,,N,,M*20
20220705 020342+00:00 $HCHDT,40.2,T*1F
20220705 020342+00:00 $GPRMC,020338,A,4824.1698,N,12311.2500,W,11.8,41,050722,11.7,E,A,V*54
20220705 020342+00:00 $WIMWV,281.59,R,5.6,N,A*17
20220705 020344+00:00 $IIMDA,29.9,I,1.013,B,11.4,C,,C,90.6,,,C,,T,,M,,N,,M*20
20220705 020344+00:00 $HCHDT,40.3,T*1E
20220705 020344+00:00 $GPRMC,020340,A,4824.1800,N,12311.2398,W,11.8,41,050722,11.7,E,A,V*53
20220705 020344+00:00 $WIMWV,282.79,R,5.6,N,A*16
20220705 020346+00:00 $IIMDA,29.9,I,1.013,B,11.4,C,,C,90.6,,,C,,T,,M,,N,,M*20
20220705 020346+00:00 $HCHDT,40.4,T*19
20220705 020346+00:00 $GPRMC,020342,A,4824.1800,N,12311.2296,W,11.8,41,050722,11.7,E,A,V*5E
20220705 020346+00:00 $WIMWV,281.79,R,5.6,N,A*15
20220705 020348+00:00 $IIMDA,29.9,I,1.013,B,11.4,C,,C,90.6,,,C,,T,,M,,N,,M*20
20220705 020348+00:00 $HCHDT,40.4,T*19
20220705 020348+00:00 $GPRMC,020344,A,4824.1896,N,12311.2296,W,11.8,41,050722,11.7,E,A,V*57
20220705 020348+00:00 $WIMWV,279.19,R,5.19,N,A*2A
20220705 020350+00:00 $IIMDA,29.9,I,1.013,B,11.4,C,,C,90.5,,,C,,T,,M,,N,,M*23
20220705 020350+00:00 $HCHDT,40.2,T*1F
20220705 020350+00:00 $GPRMC,020346,A,4824.1896,N,12311.2200,W,11.8,41,050722,11.7,E,A,V*5A
20220705 020350+00:00 $WIMWV,279.49,R,5.09,N,A*2E
20220705 020352+00:00 $IIMDA,29.9,I,1.013,B,11.4,C,,C,90.5,,,C,,T,,M,,N,,M*23
20220705 020352+00:00 $HCHDT,40,T*03
20220705 020352+00:00 $GPRMC,020348,A,4824.1998,N,12311.2200,W,11.8,41,050722,11.7,E,A,V*5B
20220705 020352+00:00 $WIMWV,281.39,R,5.48,N,A*2B
20220705 020354+00:00 $IIMDA,29.9,I,1.013,B,11.4,C,,C,90.5,,,C,,T,,M,,N,,M*23
20220705 020354+00:00 $HCHDT,39.9,T*1A
20220705 020354+00:00 $GPRMC,020350,A,4824.1998,N,12311.2098,W,11.8,41,050722,11.7,E,A,V*51
20220705 020354+00:00 $WIMWV,281.49,R,5.29,N,A*2B
20220705 020356+00:00 $IIMDA,29.9,I,1.013,B,11.4,C,,C,90.5,,,C,,T,,M,,N,,M*23
20220705 020356+00:00 $HCHDT,39.8,T*1B
20220705 020356+00:00 $GPRMC,020352,A,4824.2100,N,12311.1996,W,11.8,41,050722,11.7,E,A,V*5D
20220705 020356+00:00 $WIMWV,280.99,R,5.29,N,A*27
20220705 020358+00:00 $IIMDA,29.9,I,1.013,B,11.4,C,,C,90.6,,,C,,T,,M,,N,,M*20
20220705 020358+00:00 $HCHDT,39.6,T*15
20220705 020358+00:00 $GPRMC,020354,A,4824.2100,N,12311.1996,W,11.8,41,050722,11.7,E,A,V*5B
20220705 020358+00:00 $WIMWV,282.99,R,5.09,N,A*27
20220705 020400+00:00 $IIMDA,29.9,I,1.013,B,11.4,C,,C,90.6,,,C,,T,,M,,N,,M*20
20220705 020400+00:00 $HCHDT,39.4,T*17
20220705 020400+00:00 $GPRMC,020356,A,4824.2196,N,12311.1900,W,11.8,41,050722,11.7,E,A,V*59
20220705 020400+00:00 $WIMWV,290.79,R,5,N,A*0D
20220705 020402+00:00 $IIMDA,29.9,I,1.013,B,11.4,C,,C,90.6,,,C,,T,,M,,N,,M*20
20220705 020402+00:00 $HCHDT,39.4,T*17
20220705 020402+00:00 $GPRMC,020358,A,4824.2196,N,12311.1798,W,11.8,40,050722,11.7,E,A,V*59
20220705 020402+00:00 $WIMWV,284.59,R,5.6,N,A*12
20220705 020404+00:00 $IIMDA,29.9,I,1.013,B,11.4,C,,C,90.6,,,C,,T,,M,,N,,M*20
20220705 020404+00:00 $HCHDT,39.4,T*17
20220705 020404+00:00 $GPRMC,020400,A,4824.2298,N,12311.1798,W,11.8,40,050722,11.7,E,A,V*5E
20220705 020404+00:00 $WIMWV,287.09,R,4.9,N,A*1A
20220705 020406+00:00 $IIMDA,29.9,I,1.013,B,11.4,C,,C,90.6,,,C,,T,,M,,N,,M*20
20220705 020406+00:00 $HCHDT,39.3,T*10
20220705 020406+00:00 $GPRMC,020402,A,4824.2298,N,12311.1696,W,11.8,40,050722,11.7,E,A,V*53
20220705 020406+00:00 $WIMWV,281.9,R,4.68,N,A*1B
20220705 020408+00:00 $IIMDA,29.9,I,1.013,B,11.4,C,,C,90.6,,,C,,T,,M,,N,,M*20
20220705 020408+00:00 $HCHDT,39.3,T*10
20220705 020408+00:00 $GPRMC,020404,A,4824.2400,N,12311.1600,W,11.8,40,050722,11.7,E,A,V*5D
20220705 020408+00:00 $WIMWV,283.59,R,5.6,N,A*15
20220705 020410+00:00 $IIMDA,29.9,I,1.013,B,11.4,C,,C,90.6,,,C,,T,,M,,N,,M*20
20220705 020410+00:00 $HCHDT,39.4,T*17
20220705 020410+00:00 $GPRMC,020406,A,4824.2400,N,12311.1600,W,11.8,40,050722,11.7,E,A,V*5F
20220705 020410+00:00 $WIMWV,284.19,R,5.79,N,A*2E
20220705 020412+00:00 $IIMDA,29.9,I,1.013,B,11.4,C,,C,90.6,,,C,,T,,M,,N,,M*20
20220705 020412+00:00 $HCHDT,39.4,T*17
20220705 020412+00:00 $GPRMC,020408,A,4824.2496,N,12311.1498,W,11.8,40,050722,11.7,E,A,V*5D
20220705 020412+00:00 $WIMWV,282.59,R,5.89,N,A*23
20220705 020414+00:00 $IIMDA,29.9,I,1.013,B,11.4,C,,C,90.6,,,C,,T,,M,,N,,M*20
20220705 020414+00:00 $HCHDT,39.5,T*16
20220705 020414+00:00 $GPRMC,020410,A,4824.2496,N,12311.1498,W,11.8,40,050722,11.7,E,A,V*54
20220705 020414+00:00 $WIMWV,283.89,R,5.99,N,A*2E
20220705 020416+00:00 $IIMDA,29.9,I,1.013,B,11.4,C,,C,90.6,,,C,,T,,M,,N,,M*20
20220705 020416+00:00 $HCHDT,39.5,T*16
20220705 020416+00:00 $GPRMC,020412,A,4824.2598,N,12311.1396,W,11.8,40,050722,11.7,E,A,V*50
20220705 020416+00:00 $WIMWV,281.59,R,5.7,N,A*16
20220705 020418+00:00 $IIMDA,29.9,I,1.013,B,11.4,C,,C,90.5,,,C,,T,,M,,N,,M*23
20220705 020418+00:00 $HCHDT,39.5,T*16
20220705 020418+00:00 $GPRMC,020414,A,4824.2598,N,12311.1300,W,11.8,40,050722,11.7,E,A,V*59
20220705 020418+00:00 $WIMWV,284.39,R,5.09,N,A*2B
20220705 020420+00:00 $IIMDA,29.9,I,1.013,B,11.4,C,,C,90.6,,,C,,T,,M,,N,,M*20
20220705 020420+00:00 $HCHDT,39.5,T*16
20220705 020420+00:00 $GPRMC,020416,A,4824.2700,N,12311.1300,W,11.8,40,050722,11.7,E,A,V*58
20220705 020420+00:00 $WIMWV,283.79,R,5.09,N,A*28
20220705 020422+00:00 $IIMDA,29.9,I,1.013,B,11.4,C,,C,90.5,,,C,,T,,M,,N,,M*23
20220705 020422+00:00 $HCHDT,39.4,T*17
20220705 020422+00:00 $GPRMC,020418,A,4824.2700,N,12311.1198,W,11.8,40,050722,11.7,E,A,V*55
20220705 020422+00:00 $WIMWV,279.09,R,5.48,N,A*2F
20220705 020424+00:00 $IIMDA,29.9,I,1.013,B,11.4,C,,C,90.6,,,C,,T,,M,,N,,M*20
20220705 020424+00:00 $HCHDT,39.2,T*11
20220705 020424+00:00 $GPRMC,020420,A,4824.2796,N,12311.1096,W,11.8,40,050722,11.7,E,A,V*5E
20220705 020424+00:00 $WIMWV,281.49,R,4.9,N,A*18
20220705 020426+00:00 $IIMDA,29.9,I,1.013,B,11.4,C,,C,90.6,,,C,,T,,M,,N,,M*20
20220705 020426+00:00 $HCHDT,39.1,T*12
20220705 020426+00:00 $GPRMC,020422,A,4824.2796,N,12311.1096,W,11.8,40,050722,11.7,E,A,V*5C
20220705 020426+00:00 $WIMWV,281.79,R,5.09,N,A*2A
20220705 020428+00:00 $IIMDA,29.9,I,1.013,B,11.4,C,,C,90.5,,,C,,T,,M,,N,,M*23
20220705 020428+00:00 $HCHDT,39.1,T*12
20220705 020428+00:00 $GPRMC,020424,A,4824.2898,N,12311.1000,W,11.8,40,050722,11.7,E,A,V*54
20220705 020428+00:00 $WIMWV,282.99,R,5.29,N,A*25
20220705 020430+00:00 $IIMDA,29.9,I,1.013,B,11.4,C,,C,90.6,,,C,,T,,M,,N,,M*20
20220705 020430+00:00 $HCHDT,39,T*0D
20220705 020430+00:00 $GPRMC,020426,A,4824.2898,N,12311.1000,W,11.8,40,050722,11.7,E,A,V*56
20220705 020430+00:00 $WIMWV,282.59,R,4.9,N,A*1A
20220705 020432+00:00 $IIMDA,29.9,I,1.013,B,11.4,C,,C,90.5,,,C,,T,,M,,N,,M*23
20220705 020432+00:00 $HCHDT,39,T*0D
20220705 020432+00:00 $GPRMC,020428,A,4824.3000,N,12311.0898,W,11.8,40,050722,11.7,E,A,V*58
20220705 020432+00:00 $WIMWV,283.89,R,5.6,N,A*18
20220705 020434+00:00 $IIMDA,29.9,I,1.013,B,11.4,C,,C,90.6,,,C,,T,,M,,N,,M*20
20220705 020434+00:00 $HCHDT,39,T*0D
20220705 020434+00:00 $GPRMC,020430,A,4824.3000,N,12311.0796,W,11.8,40,050722,11.7,E,A,V*50
20220705 020434+00:00 $WIMWV,278.99,R,5.48,N,A*27
20220705 020436+00:00 $IIMDA,29.9,I,1.013,B,11.4,C,,C,90.6,,,C,,T,,M,,N,,M*20
20220705 020436+00:00 $HCHDT,39,T*0D
20220705 020436+00:00 $GPRMC,020432,A,4824.3096,N,12311.0796,W,11.8,40,050722,11.7,E,A,V*5D
20220705 020436+00:00 $WIMWV,280.99,R,5.09,N,A*25
20220705 020438+00:00 $IIMDA,29.9,I,1.013,B,11.4,C,,C,90.6,,,C,,T,,M,,N,,M*20
20220705 020438+00:00 $HCHDT,39,T*0D
20220705 020438+00:00 $GPRMC,020434,A,4824.3096,N,12311.0700,W,11.8,40,050722,11.7,E,A,V*54
20220705 020438+00:00 $WIMWV,284.09,R,5.38,N,A*2A
20220705 020440+00:00 $IIMDA,29.9,I,1.013,B,11.4,C,,C,90.6,,,C,,T,,M,,N,,M*20
20220705 020440+00:00 $HCHDT,38.9,T*1B
20220705 020440+00:00 $GPRMC,020436,A,4824.3198,N,12311.0598,W,11.8,40,050722,11.7,E,A,V*5A
20220705 020440+00:00 $WIMWV,281.29,R,5.7,N,A*11
20220705 020442+00:00 $IIMDA,29.9,I,1.013,B,11.4,C,,C,90.6,,,C,,T,,M,,N,,M*20
20220705 020442+00:00 $HCHDT,38.8,T*1A
20220705 020442+00:00 $GPRMC,020438,A,4824.3198,N,12311.0598,W,11.8,40,050722,11.7,E,A,V*54
20220705 020442+00:00 $WIMWV,280.69,R,5.48,N,A*2F
20220705 020444+00:00 $IIMDA,29.9,I,1.013,B,11.4,C,,C,90.6,,,C,,T,,M,,N,,M*20
20220705 020444+00:00 $HCHDT,38.7,T*15
20220705 020444+00:00 $GPRMC,020440,A,4824.3300,N,12311.0496,W,11.8,40,050722,11.7,E,A,V*57
20220705 020444+00:00 $WIMWV,281.79,R,5.6,N,A*15
20220705 020446+00:00 $IIMDA,29.9,I,1.013,B,11.4,C,,C,90.6,,,C,,T,,M,,N,,M*20
20220705 020446+00:00 $HCHDT,38.5,T*17
20220705 020446+00:00 $GPRMC,020442,A,4824.3300,N,12311.0400,W,11.8,40,050722,11.7,E,A,V*5A
20220705 020446+00:00 $WIMWV,278.6,R,5.48,N,A*11
20220705 020448+00:00 $IIMDA,29.9,I,1.013,B,11.4,C,,C,90.6,,,C,,T,,M,,N,,M*20
20220705 020448+00:00 $HCHDT,38.3,T*11
20220705 020448+00:00 $GPRMC,020444,A,4824.3396,N,12311.0400,W,11.8,40,050722,11.7,E,A,V*53
20220705 020448+00:00 $WIMWV,277.59,R,5.48,N,A*24
20220705 020450+00:00 $IIMDA,29.9,I,1.013,B,11.4,C,,C,90.6,,,C,,T,,M,,N,,M*20
20220705 020450+00:00 $HCHDT,38.3,T*11
20220705 020450+00:00 $GPRMC,020446,A,4824.3396,N,12311.0298,W,11.8,40,050722,11.7,E,A,V*56
20220705 020450+00:00 $WIMWV,282.19,R,5.6,N,A*10
20220705 020452+00:00 $IIMDA,29.9,I,1.013,B,11.4,C,,C,90.6,,,C,,T,,M,,N,,M*20
20220705 020452+00:00 $HCHDT,38.4,T*16
20220705 020452+00:00 $GPRMC,020448,A,4824.3498,N,12311.0298,W,11.8,39,050722,11.7,E,A,V*5F
20220705 020452+00:00 $WIMWV,280.89,R,5.48,N,A*21
20220705 020454+00:00 $IIMDA,29.9,I,1.013,B,11.4,C,,C,90.6,,,C,,T,,M,,N,,M*20
20220705 020454+00:00 $HCHDT,38.6,T*14
20220705 020454+00:00 $GPRMC,020450,A,4824.3498,N,12311.0196,W,11.8,39,050722,11.7,E,A,V*5B
20220705 020454+00:00 $WIMWV,280.19,R,5.99,N,A*24
20220705 020456+00:00 $IIMDA,29.9,I,1.013,B,11.4,C,,C,90.6,,,C,,T,,M,,N,,M*20
20220705 020456+00:00 $HCHDT,38.7,T*15
20220705 020456+00:00 $GPRMC,020452,A,4824.3600,N,12311.0100,W,11.8,39,050722,11.7,E,A,V*55
20220705 020456+00:00 $WIMWV,277.59,R,5.6,N,A*1E
20220705 020458+00:00 $IIMDA,29.9,I,1.013,B,11.4,C,,C,90.6,,,C,,T,,M,,N,,M*20
20220705 020458+00:00 $HCHDT,38.7,T*15
20220705 020458+00:00 $GPRMC,020454,A,4824.3600,N,12311.0100,W,11.8,39,050722,11.7,E,A,V*53
20220705 020458+00:00 $WIMWV,280.39,R,5.09,N,A*2F
20220705 020500+00:00 $IIMDA,29.9,I,1.013,B,11.4,C,,C,90.6,,,C,,T,,M,,N,,M*20
20220705 020500+00:00 $HCHDT,38.7,T*15
20220705 020500+00:00 $GPRMC,020456,A,4824.3696,N,12310.9998,W,11.9,39,050722,11.7,E,A,V*5E
20220705 020500+00:00 $WIMWV,282.39,R,5.7,N,A*13
20220705 020502+00:00 $IIMDA,29.9,I,1.013,B,11.4,C,,C,90.6,,,C,,T,,M,,N,,M*20
20220705 020502+00:00 $HCHDT,38.9,T*1B
20220705 020502+00:00 $GPRMC,020458,A,4824.3696,N,12310.9896,W,11.9,39,050722,11.7,E,A,V*5F
20220705 020502+00:00 $WIMWV,284.09,R,5,N,A*0F
20220705 020504+00:00 $IIMDA,29.9,I,1.013,B,11.4,C,,C,90.6,,,C,,T,,M,,N,,M*20
20220705 020504+00:00 $HCHDT,39.1,T*12
20220705 020504+00:00 $GPRMC,020500,A,4824.3798,N,12310.9896,W,11.9,39,050722,11.7,E,A,V*5C
20220705 020504+00:00 $WIMWV,281.79,R,5.48,N,A*2F
20220705 020506+00:00 $IIMDA,29.9,I,1.013,B,11.4,C,,C,90.6,,,C,,T,,M,,N,,M*20
20220705 020506+00:00 $HCHDT,39.1,T*12
20220705 020506+00:00 $GPRMC,020502,A,4824.3900,N,12310.9800,W,11.9,39,050722,11.7,E,A,V*5E
20220705 020506+00:00 $WIMWV,283.39,R,5.19,N,A*2D
20220705 020508+00:00 $IIMDA,29.9,I,1.013,B,11.4,C,,C,90.6,,,C,,T,,M,,N,,M*20
20220705 020508+00:00 $HCHDT,39,T*0D
20220705 020508+00:00 $GPRMC,020504,A,4824.3900,N,12310.9800,W,11.9,39,050722,11.7,E,A,V*58
20220705 020508+00:00 $WIMWV,281.59,R,5.48,N,A*2D
20220705 020510+00:00 $IIMDA,29.9,I,1.013,B,11.4,C,,C,90.6,,,C,,T,,M,,N,,M*20
20220705 020510+00:00 $HCHDT,39.1,T*12
20220705 020510+00:00 $GPRMC,020506,A,4824.3996,N,12310.9698,W,11.9,39,050722,11.7,E,A,V*5A
20220705 020510+00:00 $WIMWV,285.59,R,5.38,N,A*2E
20220705 020512+00:00 $IIMDA,29.9,I,1.013,B,11.4,C,,C,90.6,,,C,,T,,M,,N,,M*20
20220705 020512+00:00 $HCHDT,39.2,T*11
20220705 020512+00:00 $GPRMC,020508,A,4824.3996,N,12310.9596,W,11.9,39,050722,11.7,E,A,V*59
20220705 020512+00:00 $WIMWV,283.59,R,5.6,N,A*15
20220705 020514+00:00 $IIMDA,29.9,I,1.013,B,11.4,C,,C,90.6,,,C,,T,,M,,N,,M*20
20220705 020514+00:00 $HCHDT,39.4,T*17
20220705 020514+00:00 $GPRMC,020510,A,4824.4098,N,12310.9596,W,11.9,39,050722,11.7,E,A,V*50
20220705 020514+00:00 $WIMWV,280.99,R,5,N,A*02
20220705 020516+00:00 $IIMDA,29.9,I,1.013,B,11.4,C,,C,90.6,,,C,,T,,M,,N,,M*20
20220705 020516+00:00 $HCHDT,39.4,T*17
20220705 020516+00:00 $GPRMC,020512,A,4824.4098,N,12310.9500,W,11.9,39,050722,11.7,E,A,V*5D
20220705 020516+00:00 $WIMWV,278.99,R,5.6,N,A*1D
20220705 020518+00:00 $IIMDA,29.9,I,1.013,B,11.4,C,,C,90.6,,,C,,T,,M,,N,,M*20
20220705 020518+00:00 $HCHDT,39.4,T*17
20220705 020518+00:00 $GPRMC,020514,A,4824.4200,N,12310.9398,W,11.9,40,050722,11.7,E,A,V*51
20220705 020518+00:00 $WIMWV,280.29,R,5.19,N,A*2F
20220705 020520+00:00 $IIMDA,29.9,I,1.013,B,11.4,C,,C,90.6,,,C,,T,,M,,N,,M*20
20220705 020520+00:00 $HCHDT,39.5,T*16
20220705 020520+00:00 $GPRMC,020516,A,4824.4200,N,12310.9398,W,11.9,40,050722,11.7,E,A,V*53
20220705 020520+00:00 $WIMWV,278.19,R,5.09,N,A*2A
20220705 020522+00:00 $IIMDA,29.9,I,1.013,B,11.4,C,,C,90.5,,,C,,T,,M,,N,,M*23
20220705 020522+00:00 $HCHDT,39.6,T*15
20220705 020522+00:00 $GPRMC,020518,A,4824.4296,N,12310.9296,W,11.9,39,050722,11.7,E,A,V*53
20220705 020522+00:00 $WIMWV,280.69,R,5.09,N,A*2A
20220705 020524+00:00 $IIMDA,29.9,I,1.013,B,11.4,C,,C,90.6,,,C,,T,,M,,N,,M*20
20220705 020524+00:00 $HCHDT,39.8,T*1B
20220705 020524+00:00 $GPRMC,020520,A,4824.4296,N,12310.9296,W,11.9,39,050722,11.7,E,A,V*58
20220705 020524+00:00 $WIMWV,282.39,R,5.29,N,A*2F
20220705 020526+00:00 $IIMDA,29.9,I,1.013,B,11.4,C,,C,90.6,,,C,,T,,M,,N,,M*20
20220705 020526+00:00 $HCHDT,39.8,T*1B
20220705 020526+00:00 $GPRMC,020522,A,4824.4398,N,12310.9200,W,11.9,39,050722,11.7,E,A,V*5A
20220705 020526+00:00 $WIMWV,278.89,R,5.29,N,A*21
20220705 020528+00:00 $IIMDA,29.9,I,1.013,B,11.4,C,,C,90.6,,,C,,T,,M,,N,,M*20
20220705 020528+00:00 $HCHDT,39.9,T*1A
20220705 020528+00:00 $GPRMC,020524,A,4824.4398,N,12310.9098,W,11.9,39,050722,11.7,E,A,V*5F
20220705 020528+00:00 $WIMWV,282.09,R,5.38,N,A*2C
20220705 020530+00:00 $IIMDA,29.9,I,1.013,B,11.4,C,,C,90.6,,,C,,T,,M,,N,,M*20
20220705 020530+00:00 $HCHDT,40,T*03
20220705 020530+00:00 $GPRMC,020526,A,4824.4500,N,12310.9098,W,11.9,39,050722,11.7,E,A,V*5A
20220705 020530+00:00 $WIMWV,275.09,R,5.19,N,A*27
20220705 020532+00:00 $IIMDA,29.9,I,1.013,B,11.4,C,,C,90.6,,,C,,T,,M,,N,,M*20
20220705 020532+00:00 $HCHDT,40,T*03
20220705 020532+00:00 $GPRMC,020528,A,4824.4500,N,12310.8996,W,11.9,40,050722,11.7,E,A,V*5C
20220705 020532+00:00 $WIMWV,274.49,R,5.19,N,A*22
20220705 020534+00:00 $IIMDA,29.9,I,1.013,B,11.4,C,,C,90.6,,,C,,T,,M,,N,,M*20
20220705 020534+00:00 $HCHDT,40,T*03
20220705 020534+00:00 $GPRMC,020530,A,4824.4596,N,12310.8900,W,11.9,40,050722,11.7,E,A,V*55
20220705 020534+00:00 $WIMWV,275.79,R,4.9,N,A*10
20220705 020536+00:00 $IIMDA,29.9,I,1.013,B,11.4,C,,C,90.6,,,C,,T,,M,,N,,M*20
20220705 020536+00:00 $HCHDT,39.9,T*1A
20220705 020536+00:00 $GPRMC,020532,A,4824.4596,N,12310.8900,W,11.9,40,050722,11.7,E,A,V*57
20220705 020536+00:00 $WIMWV,281.59,R,5.19,N,A*29
20220705 020538+00:00 $IIMDA,29.9,I,1.013,B,11.4,C,,C,90.6,,,C,,T,,M,,N,,M*20
20220705 020538+00:00 $HCHDT,40,T*03
20220705 020538+00:00 $GPRMC,020534,A,4824.4698,N,12310.8798,W,11.9,39,050722,11.7,E,A,V*5D
20220705 020538+00:00 $WIMWV,281.49,R,5.19,N,A*28
20220705 020540+00:00 $IIMDA,29.9,I,1.013,B,11.4,C,,C,90.6,,,C,,T,,M,,N,,M*20
20220705 020540+00:00 $HCHDT,40,T*03
20220705 020540+00:00 $GPRMC,020536,A,4824.4698,N,12310.8798,W,11.9,39,050722,11.7,E,A,V*5F
20220705 020540+00:00 $WIMWV,280.39,R,4.78,N,A*28
20220705 020542+00:00 $IIMDA,29.9,I,1.013,B,11.4,C,,C,90.6,,,C,,T,,M,,N,,M*20
20220705 020542+00:00 $HCHDT,40,T*03
20220705 020542+00:00 $GPRMC,020538,A,4824.4800,N,12310.8696,W,11.9,39,050722,11.7,E,A,V*51
20220705 020542+00:00 $WIMWV,281.39,R,4.68,N,A*28
20220705 020544+00:00 $IIMDA,29.9,I,1.013,B,11.4,C,,C,90.7,,,C,,T,,M,,N,,M*21
20220705 020544+00:00 $HCHDT,40,T*03
20220705 020544+00:00 $GPRMC,020540,A,4824.4800,N,12310.8600,W,11.9,39,050722,11.7,E,A,V*51
20220705 020544+00:00 $WIMWV,277.59,R,5.19,N,A*20
20220705 020546+00:00 $IIMDA,29.9,I,1.013,B,11.4,C,,C,90.6,,,C,,T,,M,,N,,M*20
20220705 020546+00:00 $HCHDT,40,T*03
20220705 020546+00:00 $GPRMC,020542,A,4824.4896,N,12310.8600,W,11.9,39,050722,11.7,E,A,V*5C
20220705 020546+00:00 $WIMWV,280.29,R,4.3,N,A*15
20220705 020548+00:00 $IIMDA,29.9,I,1.013,B,11.4,C,,C,90.7,,,C,,T,,M,,N,,M*21
20220705 020548+00:00 $HCHDT,40,T*03
20220705 020548+00:00 $GPRMC,020544,A,4824.4896,N,12310.8498,W,11.9,39,050722,11.7,E,A,V*59
20220705 020548+00:00 $WIMWV,281.39,R,5.7,N,A*10
20220705 020550+00:00 $IIMDA,29.9,I,1.013,B,11.4,C,,C,90.7,,,C,,T,,M,,N,,M*21
20220705 020550+00:00 $HCHDT,40,T*03
20220705 020550+00:00 $GPRMC,020546,A,4824.4998,N,12310.8396,W,11.9,39,050722,11.7,E,A,V*5D
20220705 020550+00:00 $WIMWV,279.79,R,5.89,N,A*25
20220705 020552+00:00 $IIMDA,29.9,I,1.013,B,11.4,C,,C,90.7,,,C,,T,,M,,N,,M*21
20220705 020552+00:00 $HCHDT,40,T*03
20220705 020552+00:00 $GPRMC,020548,A,4824.4998,N,12310.8396,W,11.9,39,050722,11.7,E,A,V*53
20220705 020552+00:00 $WIMWV,277.89,R,5.48,N,A*29
20220705 020554+00:00 $IIMDA,29.9,I,1.013,B,11.4,C,,C,90.7,,,C,,T,,M,,N,,M*21
20220705 020554+00:00 $HCHDT,40,T*03
20220705 020554+00:00 $GPRMC,020550,A,4824.5100,N,12310.8300,W,11.9,39,050722,11.7,E,A,V*5D
20220705 020554+00:00 $WIMWV,278.09,R,5,N,A*0C
20220705 020556+00:00 $IIMDA,29.9,I,1.013,B,11.4,C,,C,90.6,,,C,,T,,M,,N,,M*20
20220705 020556+00:00 $HCHDT,39.9,T*1A
20220705 020556+00:00 $GPRMC,020552,A,4824.5100,N,12310.8198,W,11.9,39,050722,11.7,E,A,V*5C
20220705 020556+00:00 $WIMWV,276.69,R,5.19,N,A*22
20220705 020558+00:00 $IIMDA,29.9,I,1.013,B,11.4,C,,C,90.6,,,C,,T,,M,,N,,M*20
20220705 020558+00:00 $HCHDT,39.8,T*1B
20220705 020558+00:00 $GPRMC,020554,A,4824.5196,N,12310.8198,W,11.9,39,050722,11.7,E,A,V*55
20220705 020558+00:00 $WIMWV,277.79,R,5.19,N,A*22
20220705 020600+00:00 $IIMDA,29.9,I,1.013,B,11.4,C,,C,90.7,,,C,,T,,M,,N,,M*21
20220705 020600+00:00 $HCHDT,39.7,T*14
20220705 020600+00:00 $GPRMC,020556,A,4824.5196,N,12310.8096,W,11.9,40,050722,11.7,E,A,V*56
20220705 020600+00:00 $WIMWV,278.69,R,5,N,A*0A
20220705 020602+00:00 $IIMDA,29.9,I,1.013,B,11.4,C,,C,90.7,,,C,,T,,M,,N,,M*21
20220705 020602+00:00 $HCHDT,39.6,T*15
20220705 020602+00:00 $GPRMC,020558,A,4824.5298,N,12310.8096,W,11.9,40,050722,11.7,E,A,V*55
20220705 020602+00:00 $WIMWV,281.09,R,5.19,N,A*2C
20220705 020604+00:00 $IIMDA,29.9,I,1.013,B,11.4,C,,C,90.7,,,C,,T,,M,,N,,M*21
20220705 020604+00:00 $HCHDT,39.5,T*16
20220705 020604+00:00 $GPRMC,020600,A,4824.5298,N,12310.8000,W,11.9,40,050722,11.7,E,A,V*54
20220705 020604+00:00 $WIMWV,282.79,R,5.29,N,A*2B
20220705 020606+00:00 $IIMDA,29.9,I,1.013,B,11.4,C,,C,90.7,,,C,,T,,M,,N,,M*21
20220705 020606+00:00 $HCHDT,39.5,T*16
20220705 020606+00:00 $GPRMC,020602,A,4824.5400,N,12310.7898,W,11.9,39,050722,11.7,E,A,V*59
20220705 020606+00:00 $WIMWV,282.39,R,4.78,N,A*2A
20220705 020608+00:00 $IIMDA,29.9,I,1.013,B,11.4,C,,C,90.7,,,C,,T,,M,,N,,M*21
20220705 020608+00:00 $HCHDT,39.4,T*17
20220705 020608+00:00 $GPRMC,020604,A,4824.5400,N,12310.7898,W,11.99,39,050722,11.7,E,A,V*66
20220705 020608+00:00 $WIMWV,280.99,R,4.9,N,A*14
20220705 020610+00:00 $IIMDA,29.9,I,1.013,B,11.4,C,,C,90.7,,,C,,T,,M,,N,,M*21
20220705 020610+00:00 $HCHDT,39.3,T*10
20220705 020610+00:00 $GPRMC,020606,A,4824.5496,N,12310.7796,W,11.99,39,050722,11.7,E,A,V*6A
20220705 020610+00:00 $WIMWV,278.09,R,5.09,N,A*2B
20220705 020612+00:00 $IIMDA,29.9,I,1.013,B,11.4,C,,C,90.7,,,C,,T,,M,,N,,M*21
20220705 020612+00:00 $HCHDT,39.3,T*10
20220705 020612+00:00 $GPRMC,020608,A,4824.5496,N,12310.7700,W,11.99,39,050722,11.7,E,A,V*6B
20220705 020612+00:00 $WIMWV,277.29,R,5.09,N,A*26
20220705 020614+00:00 $IIMDA,29.9,I,1.013,B,11.4,C,,C,90.7,,,C,,T,,M,,N,,M*21
20220705 020614+00:00 $HCHDT,39.2,T*11
20220705 020614+00:00 $GPRMC,020610,A,4824.5598,N,12310.7700,W,11.99,39,050722,11.7,E,A,V*6D
20220705 020614+00:00 $WIMWV,276.39,R,4.9,N,A*17
20220705 020616+00:00 $IIMDA,29.9,I,1.013,B,11.4,C,,C,90.7,,,C,,T,,M,,N,,M*21
20220705 020616+00:00 $HCHDT,39.2,T*11
20220705 020616+00:00 $GPRMC,020612,A,4824.5598,N,12310.7598,W,11.99,39,050722,11.7,E,A,V*6C
20220705 020616+00:00 $WIMWV,278.19,R,5.09,N,A*2A
20220705 020618+00:00 $IIMDA,29.9,I,1.013,B,11.4,C,,C,90.7,,,C,,T,,M,,N,,M*21
20220705 020618+00:00 $HCHDT,39.2,T*11
20220705 020618+00:00 $GPRMC,020614,A,4824.5700,N,12310.7598,W,11.99,39,050722,11.7,E,A,V*69
20220705 020618+00:00 $WIMWV,279.09,R,4.9,N,A*1B
20220705 020620+00:00 $IIMDA,29.9,I,1.013,B,11.4,C,,C,90.7,,,C,,T,,M,,N,,M*21
20220705 020620+00:00 $HCHDT,39.2,T*11
20220705 020620+00:00 $GPRMC,020616,A,4824.5700,N,12310.7496,W,11.99,39,050722,11.7,E,A,V*64
20220705 020620+00:00 $WIMWV,281.39,R,4.78,N,A*29
20220705 020622+00:00 $IIMDA,29.9,I,1.013,B,11.4,C,,C,90.7,,,C,,T,,M,,N,,M*21
20220705 020622+00:00 $HCHDT,39.1,T*12
20220705 020622+00:00 $GPRMC,020618,A,4824.5796,N,12310.7400,W,11.99,39,050722,11.7,E,A,V*6A
20220705 020622+00:00 $WIMWV,279.29,R,5.09,N,A*28
20220705 020624+00:00 $IIMDA,29.9,I,1.013,B,11.4,C,,C,90.8,,,C,,T,,M,,N,,M*2E
20220705 020624+00:00 $HCHDT,39.1,T*12
20220705 020624+00:00 $GPRMC,020620,A,4824.5796,N,12310.7400,W,11.99,39,050722,11.7,E,A,V*61
20220705 020624+00:00 $WIMWV,277.29,R,5.48,N,A*23
20220705 020626+00:00 $IIMDA,29.9,I,1.013,B,11.4,C,,C,90.7,,,C,,T,,M,,N,,M*21
20220705 020626+00:00 $HCHDT,39.2,T*11
20220705 020626+00:00 $GPRMC,020622,A,4824.5898,N,12310.7298,W,11.99,39,050722,11.7,E,A,V*65
20220705 020626+00:00 $WIMWV,279.49,R,5.79,N,A*29
20220705 020628+00:00 $IIMDA,29.9,I,1.013,B,11.4,C,,C,90.8,,,C,,T,,M,,N,,M*2E
20220705 020628+00:00 $HCHDT,39.3,T*10
20220705 020628+00:00 $GPRMC,020624,A,4824.6000,N,12310.7196,W,11.99,39,050722,11.7,E,A,V*64
20220705 020628+00:00 $WIMWV,280.39,R,5.09,N,A*2F
20220705 020630+00:00 $IIMDA,29.9,I,1.013,B,11.4,C,,C,90.7,,,C,,T,,M,,N,,M*21
20220705 020630+00:00 $HCHDT,39.3,T*10
20220705 020630+00:00 $GPRMC,020626,A,4824.6000,N,12310.7196,W,11.99,39,050722,11.7,E,A,V*66
20220705 020630+00:00 $WIMWV,279.89,R,5,N,A*05
20220705 020632+00:00 $IIMDA,29.9,I,1.013,B,11.4,C,,C,90.8,,,C,,T,,M,,N,,M*2E
20220705 020632+00:00 $HCHDT,39.4,T*17
20220705 020632+00:00 $GPRMC,020628,A,4824.6096,N,12310.7100,W,11.99,39,050722,11.7,E,A,V*68
20220705 020632+00:00 $WIMWV,279.09,R,5.09,N,A*2A
20220705 020634+00:00 $IIMDA,29.9,I,1.013,B,11.4,C,,C,90.8,,,C,,T,,M,,N,,M*2E
20220705 020634+00:00 $HCHDT,39.4,T*17
20220705 020634+00:00 $GPRMC,020630,A,4824.6096,N,12310.6998,W,11.99,39,050722,11.7,E,A,V*69
20220705 020634+00:00 $WIMWV,277.79,R,5.09,N,A*23
20220705 020636+00:00 $IIMDA,29.9,I,1.013,B,11.4,C,,C,90.7,,,C,,T,,M,,N,,M*21
20220705 020636+00:00 $HCHDT,39.4,T*17
20220705 020636+00:00 $GPRMC,020632,A,4824.6198,N,12310.6998,W,11.99,39,050722,11.7,E,A,V*64
20220705 020636+00:00 $WIMWV,280.69,R,5.09,N,A*2A
20220705 020638+00:00 $IIMDA,29.9,I,1.013,B,11.4,C,,C,90.7,,,C,,T,,M,,N,,M*21
20220705 020638+00:00 $HCHDT,39.5,T*16
20220705 020638+00:00 $GPRMC,020634,A,4824.6198,N,12310.6896,W,11.99,39,050722,11.7,E,A,V*6D
20220705 020638+00:00 $WIMWV,280.89,R,4.68,N,A*22
20220705 020640+00:00 $IIMDA,29.9,I,1.013,B,11.4,C,,C,90.8,,,C,,T,,M,,N,,M*2E
20220705 020640+00:00 $HCHDT,39.5,T*16
20220705 020640+00:00 $GPRMC,020636,A,4824.6300,N,12310.6896,W,11.99,39,050722,11.7,E,A,V*6C
20220705 020640+00:00 $WIMWV,282.79,R,4.78,N,A*2E
20220705 020642+00:00 $IIMDA,29.9,I,1.013,B,11.4,C,,C,90.8,,,C,,T,,M,,N,,M*2E
20220705 020642+00:00 $HCHDT,39.6,T*15
20220705 020642+00:00 $GPRMC,020638,A,4824.6300,N,12310.6800,W,12.09,39,050722,11.7,E,A,V*67
20220705 020642+00:00 $WIMWV,279.09,R,4.9,N,A*1B
20220705 020644+00:00 $IIMDA,29.9,I,1.013,B,11.4,C,,C,90.8,,,C,,T,,M,,N,,M*2E
20220705 020644+00:00 $HCHDT,39.7,T*14
20220705 020644+00:00 $GPRMC,020640,A,4824.6396,N,12310.6698,W,12.09,39,050722,11.7,E,A,V*68
20220705 020644+00:00 $WIMWV,277.49,R,4.39,N,A*22
20220705 020646+00:00 $IIMDA,29.9,I,1.013,B,11.4,C,,C,90.8,,,C,,T,,M,,N,,M*2E
20220705 020646+00:00 $HCHDT,39.7,T*14
20220705 020646+00:00 $GPRMC,020642,A,4824.6396,N,12310.6698,W,12.09,39,050722,11.7,E,A,V*6A
20220705 020646+00:00 $WIMWV,283.09,R,5.29,N,A*2D
20220705 020648+00:00 $IIMDA,29.9,I,1.013,B,11.4,C,,C,90.8,,,C,,T,,M,,N,,M*2E
20220705 020648+00:00 $HCHDT,39.6,T*15
20220705 020648+00:00 $GPRMC,020644,A,4824.6498,N,12310.6596,W,12.09,39,050722,11.7,E,A,V*68
20220705 020648+00:00 $WIMWV,277.49,R,4.39,N,A*22
20220705 020650+00:00 $IIMDA,29.9,I,1.013,B,11.4,C,,C,90.8,,,C,,T,,M,,N,,M*2E
20220705 020650+00:00 $HCHDT,39.6,T*15
20220705 020650+00:00 $GPRMC,020646,A,4824.6498,N,12310.6500,W,12.09,39,050722,11.7,E,A,V*65
20220705 020650+00:00 $WIMWV,279.29,R,5,N,A*0F
20220705 020652+00:00 $IIMDA,29.9,I,1.013,B,11.4,C,,C,90.8,,,C,,T,,M,,N,,M*2E
20220705 020652+00:00 $HCHDT,39.5,T*16
20220705 020652+00:00 $GPRMC,020648,A,4824.6600,N,12310.6500,W,12.09,39,050722,11.7,E,A,V*68
20220705 020652+00:00 $WIMWV,282.69,R,5.38,N,A*2A
20220705 020654+00:00 $IIMDA,29.9,I,1.013,B,11.4,C,,C,90.8,,,C,,T,,M,,N,,M*2E
20220705 020654+00:00 $HCHDT,39.4,T*17
20220705 020654+00:00 $GPRMC,020650,A,4824.6600,N,12310.6398,W,12.09,39,050722,11.7,E,A,V*66
20220705 020654+00:00 $WIMWV,279.79,R,5,N,A*0A
20220705 020656+00:00 $IIMDA,29.9,I,1.013,B,11.4,C,,C,90.8,,,C,,T,,M,,N,,M*2E
20220705 020656+00:00 $HCHDT,39.4,T*17
20220705 020656+00:00 $GPRMC,020652,A,4824.6696,N,12310.6296,W,12.09,39,050722,11.7,E,A,V*64
20220705 020656+00:00 $WIMWV,277.99,R,4.78,N,A*2A
20220705 020658+00:00 $IIMDA,29.9,I,1.013,B,11.4,C,,C,90.8,,,C,,T,,M,,N,,M*2E
20220705 020658+00:00 $HCHDT,39.4,T*17
20220705 020658+00:00 $GPRMC,020654,A,4824.6696,N,12310.6296,W,12.09,40,050722,11.7,E,A,V*6C
20220705 020658+00:00 $WIMWV,278.39,R,4.78,N,A*2F
20220705 020700+00:00 $IIMDA,29.9,I,1.013,B,11.4,C,,C,90.8,,,C,,T,,M,,N,,M*2E
20220705 020700+00:00 $HCHDT,39.3,T*10
20220705 020700+00:00 $GPRMC,020656,A,4824.6798,N,12310.6200,W,12.09,40,050722,11.7,E,A,V*6E
20220705 020700+00:00 $WIMWV,292.09,R,4.39,N,A*2D
20220705 020702+00:00 $IIMDA,29.9,I,1.013,B,11.4,C,,C,90.8,,,C,,T,,M,,N,,M*2E
20220705 020702+00:00 $HCHDT,38.8,T*1A
20220705 020702+00:00 $GPRMC,020658,A,4824.6798,N,12310.6200,W,12.09,40,050722,11.7,E,A,V*60
20220705 020702+00:00 $WIMWV,283.69,R,5.48,N,A*2C
20220705 020704+00:00 $IIMDA,29.9,I,1.013,B,11.4,C,,C,90.8,,,C,,T,,M,,N,,M*2E
20220705 020704+00:00 $HCHDT,37.4,T*19
20220705 020704+00:00 $GPRMC,020700,A,4824.6900,N,12310.6098,W,12.09,39,050722,11.7,E,A,V*6E
20220705 020704+00:00 $WIMWV,273.39,R,5.48,N,A*26
20220705 020706+00:00 $IIMDA,29.9,I,1.013,B,11.4,C,,C,90.8,,,C,,T,,M,,N,,M*2E
20220705 020706+00:00 $HCHDT,35.2,T*1D
20220705 020706+00:00 $GPRMC,020702,A,4824.6900,N,12310.5996,W,12.09,39,050722,11.7,E,A,V*68
20220705 020706+00:00 $WIMWV,275.99,R,5.19,N,A*2E
20220705 020708+00:00 $IIMDA,29.9,I,1.013,B,11.4,C,,C,90.8,,,C,,T,,M,,N,,M*2E
20220705 020708+00:00 $HCHDT,32.9,T*11
20220705 020708+00:00 $GPRMC,020704,A,4824.6996,N,12310.5996,W,12.09,39,050722,11.7,E,A,V*61
20220705 020708+00:00 $WIMWV,277.59,R,5.99,N,A*28
20220705 020710+00:00 $IIMDA,29.9,I,1.013,B,11.4,C,,C,90.8,,,C,,T,,M,,N,,M*2E
20220705 020710+00:00 $HCHDT,31,T*05
20220705 020710+00:00 $GPRMC,020706,A,4824.6996,N,12310.5900,W,12.09,39,050722,11.7,E,A,V*6C
20220705 020710+00:00 $WIMWV,281.59,R,6.3,N,A*11
20220705 020712+00:00 $IIMDA,29.9,I,1.013,B,11.4,C,,C,90.8,,,C,,T,,M,,N,,M*2E
20220705 020712+00:00 $HCHDT,29.7,T*15
20220705 020712+00:00 $GPRMC,020708,A,4824.7098,N,12310.5900,W,12.09,38,050722,11.7,E,A,V*65
20220705 020712+00:00 $WIMWV,281.29,R,6.78,N,A*2A
20220705 020714+00:00 $IIMDA,29.9,I,1.013,B,11.4,C,,C,90.8,,,C,,T,,M,,N,,M*2E
20220705 020714+00:00 $HCHDT,29.1,T*13
20220705 020714+00:00 $GPRMC,020710,A,4824.7200,N,12310.5798,W,12.09,36,050722,11.7,E,A,V*6E
20220705 020714+00:00 $WIMWV,285.19,R,5.6,N,A*17
20220705 020716+00:00 $IIMDA,29.9,I,1.013,B,11.4,C,,C,90.7,,,C,,T,,M,,N,,M*21
20220705 020716+00:00 $HCHDT,29.1,T*13
20220705 020716+00:00 $GPRMC,020712,A,4824.7200,N,12310.5696,W,12.09,35,050722,11.7,E,A,V*60
20220705 020716+00:00 $WIMWV,278.49,R,6.18,N,A*2C
20220705 020718+00:00 $IIMDA,29.9,I,1.013,B,11.4,C,,C,90.7,,,C,,T,,M,,N,,M*21
20220705 020718+00:00 $HCHDT,29.5,T*17
20220705 020718+00:00 $GPRMC,020714,A,4824.7296,N,12310.5696,W,12.09,34,050722,11.7,E,A,V*68
20220705 020718+00:00 $WIMWV,281.09,R,6.49,N,A*2A
20220705 020720+00:00 $IIMDA,29.9,I,1.013,B,11.4,C,,C,90.7,,,C,,T,,M,,N,,M*21
20220705 020720+00:00 $HCHDT,30.1,T*1B
20220705 020720+00:00 $GPRMC,020716,A,4824.7296,N,12310.5600,W,12.09,34,050722,11.7,E,A,V*65
20220705 020720+00:00 $WIMWV,281.39,R,6.88,N,A*24
20220705 020722+00:00 $IIMDA,29.9,I,1.013,B,11.4,C,,C,90.7,,,C,,T,,M,,N,,M*21
20220705 020722+00:00 $HCHDT,30.8,T*12
20220705 020722+00:00 $GPRMC,020718,A,4824.7398,N,12310.5600,W,12.09,33,050722,11.7,E,A,V*63
20220705 020722+00:00 $WIMWV,282.99,R,6.49,N,A*20
20220705 020724+00:00 $IIMDA,29.9,I,1.013,B,11.4,C,,C,90.7,,,C,,T,,M,,N,,M*21
20220705 020724+00:00 $HCHDT,31.4,T*1F
20220705 020724+00:00 $GPRMC,020720,A,4824.7398,N,12310.5498,W,12.09,33,050722,11.7,E,A,V*6B
20220705 020724+00:00 $WIMWV,286.89,R,5.7,N,A*1C
20220705 020726+00:00 $IIMDA,29.9,I,1.013,B,11.4,C,,C,90.7,,,C,,T,,M,,N,,M*21
20220705 020726+00:00 $HCHDT,31.9,T*12
20220705 020726+00:00 $GPRMC,020722,A,4824.7500,N,12310.5498,W,12.09,33,050722,11.7,E,A,V*6E
20220705 020726+00:00 $WIMWV,280.49,R,6.3,N,A*11
20220705 020728+00:00 $IIMDA,29.9,I,1.013,B,11.4,C,,C,90.6,,,C,,T,,M,,N,,M*20
20220705 020728+00:00 $HCHDT,32.1,T*19
20220705 020728+00:00 $GPRMC,020724,A,4824.7596,N,12310.5396,W,12.09,33,050722,11.7,E,A,V*6E
20220705 020728+00:00 $WIMWV,282.59,R,6.3,N,A*12
20220705 020730+00:00 $IIMDA,29.9,I,1.013,B,11.4,C,,C,90.6,,,C,,T,,M,,N,,M*20
20220705 020730+00:00 $HCHDT,32.1,T*19
20220705 020730+00:00 $GPRMC,020726,A,4824.7596,N,12310.5396,W,12.21,33,050722,11.7,E,A,V*66
20220705 020730+00:00 $WIMWV,280.99,R,6.3,N,A*1C
20220705 020732+00:00 $IIMDA,29.9,I,1.013,B,11.4,C,,C,90.6,,,C,,T,,M,,N,,M*20
20220705 020732+00:00 $HCHDT,31.9,T*12
20220705 020732+00:00 $GPRMC,020728,A,4824.7698,N,12310.5300,W,12.21,33,050722,11.7,E,A,V*6A
20220705 020732+00:00 $WIMWV,281.79,R,5.99,N,A*23
20220705 020734+00:00 $IIMDA,29.9,I,1.013,B,11.4,C,,C,90.6,,,C,,T,,M,,N,,M*20
20220705 020734+00:00 $HCHDT,31.6,T*1D
20220705 020734+00:00 $GPRMC,020730,A,4824.7698,N,12310.5198,W,12.21,34,050722,11.7,E,A,V*67
20220705 020734+00:00 $WIMWV,278.19,R,6.3,N,A*13
20220705 020736+00:00 $IIMDA,29.9,I,1.013,B,11.4,C,,C,90.6,,,C,,T,,M,,N,,M*20
20220705 020736+00:00 $HCHDT,31.4,T*1F
20220705 020736+00:00 $GPRMC,020732,A,4824.7800,N,12310.5198,W,12.21,34,050722,11.7,E,A,V*6A
20220705 020736+00:00 $WIMWV,281.99,R,6.59,N,A*22
20220705 020738+00:00 $IIMDA,29.9,I,1.013,B,11.4,C,,C,90.6,,,C,,T,,M,,N,,M*20
20220705 020738+00:00 $HCHDT,31,T*05
20220705 020738+00:00 $GPRMC,020734,A,4824.7800,N,12310.5096,W,12.21,34,050722,11.7,E,A,V*63
20220705 020738+00:00 $WIMWV,279.89,R,6.18,N,A*21
20220705 020740+00:00 $IIMDA,29.9,I,1.013,B,11.4,C,,C,90.6,,,C,,T,,M,,N,,M*20
20220705 020740+00:00 $HCHDT,30.5,T*1F
20220705 020740+00:00 $GPRMC,020736,A,4824.7896,N,12310.5096,W,12.21,34,050722,11.7,E,A,V*6E
20220705 020740+00:00 $WIMWV,278.99,R,6.08,N,A*20
20220705 020742+00:00 $IIMDA,29.9,I,1.013,B,11.4,C,,C,90.6,,,C,,T,,M,,N,,M*20
20220705 020742+00:00 $HCHDT,29.9,T*1B
20220705 020742+00:00 $GPRMC,020738,A,4824.7896,N,12310.5000,W,12.09,34,050722,11.7,E,A,V*65
20220705 020742+00:00 $WIMWV,279.19,R,6.18,N,A*28
20220705 020744+00:00 $IIMDA,29.9,I,1.013,B,11.4,C,,C,90.6,,,C,,T,,M,,N,,M*20
