20220705 120001+00:00 $IIMDA,29.9,I,1.013,B,13.7,C,,C,87.7,,,C,,T,,M,,N,,M*26
20220705 120001+00:00 $GPRMC,115956,A,4923.0400,N,12325.7898,W,5.5,24,050722,11.8,E,A,V*6F
20220705 120001+00:00 $HCHDT,22.9,T*10
20220705 120001+00:00 $WIMWV,5.3,R,9.68,N,A*12
20220705 120003+00:00 $IIMDA,29.9,I,1.013,B,13.7,C,,C,87.6,,,C,,T,,M,,N,,M*27
20220705 120003+00:00 $GPRMC,115958,A,4923.0496,N,12325.7898,W,5.5,24,050722,11.8,E,A,V*6E
20220705 120003+00:00 $HCHDT,22.8,T*11
20220705 120003+00:00 $WIMWV,1.7,R,10.5,N,A*11
20220705 120005+00:00 $IIMDA,29.9,I,1.013,B,13.7,C,,C,87.6,,,C,,T,,M,,N,,M*27
20220705 120005+00:00 $GPRMC,120000,A,4923.0496,N,12325.7796,W,5.5,24,050722,11.8,E,A,V*6D
20220705 120005+00:00 $HCHDT,22.8,T*11
20220705 120005+00:00 $WIMWV,355.09,R,14.19,N,A*14
20220705 120007+00:00 $IIMDA,29.9,I,1.013,B,13.7,C,,C,87.6,,,C,,T,,M,,N,,M*27
20220705 120007+00:00 $GPRMC,120002,A,4923.0496,N,12325.7796,W,5.5,24,050722,11.8,E,A,V*6F
20220705 120007+00:00 $HCHDT,22.8,T*11
20220705 120007+00:00 $WIMWV,355.79,R,14,N,A*35
20220705 120009+00:00 $IIMDA,29.9,I,1.013,B,13.7,C,,C,87.6,,,C,,T,,M,,N,,M*27
20220705 120009+00:00 $GPRMC,120004,A,4923.0598,N,12325.7796,W,5.4,24,050722,11.8,E,A,V*67
20220705 120009+00:00 $HCHDT,22.9,T*10
20220705 120009+00:00 $WIMWV,356.69,R,14,N,A*37
20220705 120011+00:00 $IIMDA,29.9,I,1.013,B,13.7,C,,C,87.5,,,C,,T,,M,,N,,M*24
20220705 120011+00:00 $GPRMC,120006,A,4923.0598,N,12325.7796,W,5.4,24,050722,11.8,E,A,V*65
20220705 120011+00:00 $HCHDT,23,T*06
20220705 120011+00:00 $WIMWV,356.89,R,13.9,N,A*29
20220705 120013+00:00 $IIMDA,29.9,I,1.013,B,13.7,C,,C,87.5,,,C,,T,,M,,N,,M*24
20220705 120013+00:00 $GPRMC,120008,A,4923.0598,N,12325.7796,W,5.4,24,050722,11.8,E,A,V*6B
20220705 120013+00:00 $HCHDT,23.1,T*19
20220705 120013+00:00 $WIMWV,2.7,R,12.38,N,A*2E
20220705 120015+00:00 $IIMDA,29.9,I,1.013,B,13.7,C,,C,87.5,,,C,,T,,M,,N,,M*24
20220705 120015+00:00 $GPRMC,120010,A,4923.0598,N,12325.7700,W,5.4,24,050722,11.8,E,A,V*6D
20220705 120015+00:00 $HCHDT,23.3,T*1B
20220705 120015+00:00 $WIMWV,358.69,R,12.69,N,A*1E
20220705 120017+00:00 $IIMDA,29.9,I,1.013,B,13.7,C,,C,87.5,,,C,,T,,M,,N,,M*24
20220705 120017+00:00 $GPRMC,120012,A,4923.0700,N,12325.7700,W,5.5,24,050722,11.8,E,A,V*6D
20220705 120017+00:00 $HCHDT,23.5,T*1D
20220705 120017+00:00 $WIMWV,0.4,R,13.39,N,A*2F
20220705 120019+00:00 $IIMDA,29.9,I,1.013,B,13.7,C,,C,87.5,,,C,,T,,M,,N,,M*24
20220705 120019+00:00 $GPRMC,120014,A,4923.0700,N,12325.7700,W,5.5,24,050722,11.8,E,A,V*6B
20220705 120019+00:00 $HCHDT,23.8,T*10
20220705 120019+00:00 $WIMWV,7.3,R,7.89,N,A*11
20220705 120021+00:00 $IIMDA,29.9,I,1.013,B,13.7,C,,C,87.5,,,C,,T,,M,,N,,M*24
20220705 120021+00:00 $GPRMC,120016,A,4923.0700,N,12325.7700,W,5.5,24,050722,11.8,E,A,V*69
20220705 120021+00:00 $HCHDT,24,T*01
20220705 120021+00:00 $WIMWV,6.5,R,10.69,N,A*2E
20220705 120023+00:00 $IIMDA,29.9,I,1.013,B,13.7,C,,C,87.5,,,C,,T,,M,,N,,M*24
20220705 120023+00:00 $GPRMC,120018,A,4923.0796,N,12325.7700,W,5.5,24,050722,11.8,E,A,V*68
20220705 120023+00:00 $HCHDT,24.2,T*1D
20220705 120023+00:00 $WIMWV,0.1,R,13.59,N,A*2C
20220705 120025+00:00 $IIMDA,29.9,I,1.013,B,13.7,C,,C,87.5,,,C,,T,,M,,N,,M*24
20220705 120025+00:00 $GPRMC,120020,A,4923.0796,N,12325.7700,W,5.5,24,050722,11.8,E,A,V*63
20220705 120025+00:00 $HCHDT,24.3,T*1C
20220705 120025+00:00 $WIMWV,354.69,R,13.39,N,A*16
20220705 120027+00:00 $IIMDA,29.9,I,1.013,B,13.7,C,,C,87.5,,,C,,T,,M,,N,,M*24
20220705 120027+00:00 $GPRMC,120022,A,4923.0796,N,12325.7598,W,5.5,24,050722,11.8,E,A,V*62
20220705 120027+00:00 $HCHDT,24.3,T*1C
20220705 120027+00:00 $WIMWV,357.99,R,12.19,N,A*19
20220705 120029+00:00 $IIMDA,29.9,I,1.013,B,13.7,C,,C,87.6,,,C,,T,,M,,N,,M*27
20220705 120029+00:00 $GPRMC,120024,A,4923.0796,N,12325.7598,W,5.5,25,050722,11.8,E,A,V*65
20220705 120029+00:00 $HCHDT,24.4,T*1B
20220705 120029+00:00 $WIMWV,355.79,R,14.29,N,A*10
20220705 120031+00:00 $IIMDA,29.9,I,1.013,B,13.7,C,,C,87.6,,,C,,T,,M,,N,,M*27
20220705 120031+00:00 $GPRMC,120026,A,4923.0898,N,12325.7598,W,5.4,25,050722,11.8,E,A,V*67
20220705 120031+00:00 $HCHDT,24.3,T*1C
20220705 120031+00:00 $WIMWV,354.29,R,14.79,N,A*11
20220705 120033+00:00 $IIMDA,29.9,I,1.013,B,13.7,C,,C,87.6,,,C,,T,,M,,N,,M*27
20220705 120033+00:00 $GPRMC,120028,A,4923.0898,N,12325.7598,W,5.4,25,050722,11.8,E,A,V*69
20220705 120033+00:00 $HCHDT,24.2,T*1D
20220705 120033+00:00 $WIMWV,0.19,R,10.28,N,A*10
20220705 120035+00:00 $IIMDA,29.9,I,1.013,B,13.7,C,,C,87.6,,,C,,T,,M,,N,,M*27
20220705 120035+00:00 $GPRMC,120030,A,4923.0898,N,12325.7598,W,5.4,25,050722,11.8,E,A,V*60
20220705 120035+00:00 $HCHDT,24.2,T*1D
20220705 120035+00:00 $WIMWV,356.39,R,13.39,N,A*11
20220705 120037+00:00 $IIMDA,29.9,I,1.013,B,13.7,C,,C,87.7,,,C,,T,,M,,N,,M*26
20220705 120037+00:00 $GPRMC,120032,A,4923.0898,N,12325.7496,W,5.4,25,050722,11.8,E,A,V*6D
20220705 120037+00:00 $HCHDT,24.1,T*1E
20220705 120037+00:00 $WIMWV,359.79,R,12.6,N,A*27
20220705 120039+00:00 $IIMDA,29.9,I,1.013,B,13.7,C,,C,87.7,,,C,,T,,M,,N,,M*26
20220705 120039+00:00 $GPRMC,120034,A,4923.1000,N,12325.7496,W,5.5,25,050722,11.8,E,A,V*62
20220705 120039+00:00 $HCHDT,24.1,T*1E
20220705 120039+00:00 $WIMWV,354.59,R,14.19,N,A*10
20220705 120041+00:00 $IIMDA,29.9,I,1.013,B,13.7,C,,C,87.8,,,C,,T,,M,,N,,M*29
20220705 120041+00:00 $GPRMC,120036,A,4923.1000,N,12325.7496,W,5.5,25,050722,11.8,E,A,V*60
20220705 120041+00:00 $HCHDT,24.1,T*1E
20220705 120041+00:00 $WIMWV,357.89,R,11.78,N,A*1C
20220705 120043+00:00 $IIMDA,29.9,I,1.013,B,13.7,C,,C,87.8,,,C,,T,,M,,N,,M*29
20220705 120043+00:00 $GPRMC,120038,A,4923.1000,N,12325.7496,W,5.5,25,050722,11.8,E,A,V*6E
20220705 120043+00:00 $HCHDT,24,T*01
20220705 120043+00:00 $WIMWV,357.29,R,12.19,N,A*12
20220705 120045+00:00 $IIMDA,29.9,I,1.013,B,13.7,C,,C,87.9,,,C,,T,,M,,N,,M*28
20220705 120045+00:00 $GPRMC,120040,A,4923.1096,N,12325.7496,W,5.5,25,050722,11.8,E,A,V*6E
20220705 120045+00:00 $HCHDT,24,T*01
20220705 120045+00:00 $WIMWV,357.39,R,13.59,N,A*16
20220705 120047+00:00 $IIMDA,29.9,I,1.013,B,13.7,C,,C,88,,,C,,T,,M,,N,,M*30
20220705 120047+00:00 $GPRMC,120042,A,4923.1096,N,12325.7400,W,5.5,25,050722,11.8,E,A,V*63
20220705 120047+00:00 $HCHDT,23.9,T*11
20220705 120047+00:00 $WIMWV,356.99,R,14.09,N,A*1F
20220705 120049+00:00 $IIMDA,29.9,I,1.013,B,13.7,C,,C,88.1,,,C,,T,,M,,N,,M*2F
20220705 120049+00:00 $GPRMC,120044,A,4923.1096,N,12325.7400,W,5.5,25,050722,11.8,E,A,V*65
20220705 120049+00:00 $HCHDT,23.9,T*11
20220705 120049+00:00 $WIMWV,0,R,11.2,N,A*0F
20220705 120051+00:00 $IIMDA,29.9,I,1.013,B,13.7,C,,C,88.1,,,C,,T,,M,,N,,M*2F
20220705 120051+00:00 $GPRMC,120046,A,4923.1096,N,12325.7400,W,5.5,25,050722,11.8,E,A,V*67
20220705 120051+00:00 $HCHDT,23.8,T*10
20220705 120051+00:00 $WIMWV,357.59,R,14.09,N,A*12
20220705 120053+00:00 $IIMDA,29.9,I,1.013,B,13.7,C,,C,88.2,,,C,,T,,M,,N,,M*2C
20220705 120053+00:00 $GPRMC,120048,A,4923.1198,N,12325.7400,W,5.5,25,050722,11.8,E,A,V*66
20220705 120053+00:00 $HCHDT,23.7,T*1F
20220705 120053+00:00 $WIMWV,356.49,R,10.38,N,A*14
20220705 120055+00:00 $IIMDA,29.9,I,1.013,B,13.7,C,,C,88.2,,,C,,T,,M,,N,,M*2C
20220705 120055+00:00 $GPRMC,120050,A,4923.1198,N,12325.7400,W,5.5,25,050722,11.8,E,A,V*6F
20220705 120055+00:00 $HCHDT,23.7,T*1F
20220705 120055+00:00 $WIMWV,356.69,R,9.19,N,A*2D
20220705 120057+00:00 $IIMDA,29.9,I,1.013,B,13.7,C,,C,88.3,,,C,,T,,M,,N,,M*2D
20220705 120057+00:00 $GPRMC,120052,A,4923.1198,N,12325.7298,W,5.5,25,050722,11.8,E,A,V*6A
20220705 120057+00:00 $HCHDT,23.6,T*1E
20220705 120057+00:00 $WIMWV,357.49,R,12.5,N,A*29
20220705 120059+00:00 $IIMDA,29.9,I,1.013,B,13.7,C,,C,88.4,,,C,,T,,M,,N,,M*2A
20220705 120059+00:00 $GPRMC,120054,A,4923.1198,N,12325.7298,W,5.5,25,050722,11.8,E,A,V*6C
20220705 120059+00:00 $HCHDT,23.6,T*1E
20220705 120059+00:00 $WIMWV,358.19,R,13.78,N,A*18
20220705 120101+00:00 $IIMDA,29.9,I,1.013,B,13.7,C,,C,88.4,,,C,,T,,M,,N,,M*2A
20220705 120101+00:00 $GPRMC,120056,A,4923.1300,N,12325.7298,W,5.5,25,050722,11.8,E,A,V*6D
20220705 120101+00:00 $HCHDT,23.6,T*1E
20220705 120101+00:00 $WIMWV,356.29,R,14.48,N,A*11
20220705 120103+00:00 $IIMDA,29.9,I,1.013,B,13.7,C,,C,88.5,,,C,,T,,M,,N,,M*2B
20220705 120103+00:00 $GPRMC,120058,A,4923.1300,N,12325.7298,W,5.5,25,050722,11.8,E,A,V*63
20220705 120103+00:00 $HCHDT,23.6,T*1E
20220705 120103+00:00 $WIMWV,358.69,R,12.6,N,A*27
20220705 120105+00:00 $IIMDA,29.9,I,1.013,B,13.7,C,,C,88.5,,,C,,T,,M,,N,,M*2B
20220705 120105+00:00 $GPRMC,120100,A,4923.1300,N,12325.7298,W,5.5,25,050722,11.8,E,A,V*6F
20220705 120105+00:00 $HCHDT,23.6,T*1E
20220705 120105+00:00 $WIMWV,358.99,R,13.08,N,A*17
20220705 120107+00:00 $IIMDA,29.9,I,1.013,B,13.7,C,,C,88.5,,,C,,T,,M,,N,,M*2B
20220705 120107+00:00 $GPRMC,120102,A,4923.1396,N,12325.7196,W,5.5,25,050722,11.8,E,A,V*6F
20220705 120107+00:00 $HCHDT,23.5,T*1D
20220705 120107+00:00 $WIMWV,357.59,R,9.39,N,A*2D
20220705 120109+00:00 $IIMDA,29.9,I,1.013,B,13.7,C,,C,88.6,,,C,,T,,M,,N,,M*28
20220705 120109+00:00 $GPRMC,120104,A,4923.1396,N,12325.7196,W,5.5,25,050722,11.8,E,A,V*69
20220705 120109+00:00 $HCHDT,23.5,T*1D
20220705 120109+00:00 $WIMWV,354.19,R,9.1,N,A*11
20220705 120111+00:00 $IIMDA,29.9,I,1.013,B,13.7,C,,C,88.6,,,C,,T,,M,,N,,M*28
20220705 120111+00:00 $GPRMC,120106,A,4923.1396,N,12325.7196,W,5.5,25,050722,11.8,E,A,V*6B
20220705 120111+00:00 $HCHDT,23.5,T*1D
20220705 120111+00:00 $WIMWV,356.89,R,11.99,N,A*12
20220705 120113+00:00 $IIMDA,29.9,I,1.013,B,13.7,C,,C,88.7,,,C,,T,,M,,N,,M*29
20220705 120113+00:00 $GPRMC,120108,A,4923.1396,N,12325.7196,W,5.5,24,050722,11.8,E,A,V*64
20220705 120113+00:00 $HCHDT,23.4,T*1C
20220705 120113+00:00 $WIMWV,356.29,R,8.69,N,A*2F
20220705 120115+00:00 $IIMDA,29.9,I,1.013,B,13.7,C,,C,88.7,,,C,,T,,M,,N,,M*29
20220705 120115+00:00 $GPRMC,120110,A,4923.1498,N,12325.7196,W,5.5,24,050722,11.8,E,A,V*64
20220705 120115+00:00 $HCHDT,23.4,T*1C
20220705 120115+00:00 $WIMWV,356.39,R,14,N,A*32
20220705 120117+00:00 $IIMDA,29.9,I,1.013,B,13.7,C,,C,88.8,,,C,,T,,M,,N,,M*26
20220705 120117+00:00 $GPRMC,120112,A,4923.1498,N,12325.7100,W,5.5,24,050722,11.8,E,A,V*69
20220705 120117+00:00 $HCHDT,23.4,T*1C
20220705 120117+00:00 $WIMWV,359.59,R,14.19,N,A*1D
20220705 120119+00:00 $IIMDA,29.9,I,1.013,B,13.7,C,,C,88.9,,,C,,T,,M,,N,,M*27
20220705 120119+00:00 $GPRMC,120114,A,4923.1498,N,12325.7100,W,5.5,24,050722,11.8,E,A,V*6F
20220705 120119+00:00 $HCHDT,23.5,T*1D
20220705 120119+00:00 $WIMWV,358.69,R,12.98,N,A*10
20220705 120121+00:00 $IIMDA,29.9,I,1.013,B,13.7,C,,C,88.9,,,C,,T,,M,,N,,M*27
20220705 120121+00:00 $GPRMC,120116,A,4923.1600,N,12325.7100,W,5.5,24,050722,11.8,E,A,V*6E
20220705 120121+00:00 $HCHDT,23.6,T*1E
20220705 120121+00:00 $WIMWV,1.9,R,10.98,N,A*2B
20220705 120123+00:00 $IIMDA,29.9,I,1.013,B,13.7,C,,C,89,,,C,,T,,M,,N,,M*31
20220705 120123+00:00 $GPRMC,120118,A,4923.1600,N,12325.7100,W,5.5,24,050722,11.8,E,A,V*60
20220705 120123+00:00 $HCHDT,23.6,T*1E
20220705 120123+00:00 $WIMWV,355.19,R,13.49,N,A*17
20220705 120125+00:00 $IIMDA,29.9,I,1.013,B,13.7,C,,C,89.1,,,C,,T,,M,,N,,M*2E
20220705 120125+00:00 $GPRMC,120120,A,4923.1600,N,12325.7100,W,5.5,24,050722,11.8,E,A,V*6B
20220705 120125+00:00 $HCHDT,23.7,T*1F
20220705 120125+00:00 $WIMWV,358.89,R,11.2,N,A*2E
20220705 120127+00:00 $IIMDA,29.9,I,1.013,B,13.7,C,,C,89.1,,,C,,T,,M,,N,,M*2E
20220705 120127+00:00 $GPRMC,120122,A,4923.1600,N,12325.6998,W,5.5,24,050722,11.8,E,A,V*61
20220705 120127+00:00 $HCHDT,23.7,T*1F
20220705 120127+00:00 $WIMWV,18.6,R,6.59,N,A*26
20220705 120129+00:00 $IIMDA,29.9,I,1.013,B,13.7,C,,C,89.2,,,C,,T,,M,,N,,M*2D
20220705 120129+00:00 $GPRMC,120124,A,4923.1696,N,12325.6998,W,5.5,24,050722,11.8,E,A,V*68
20220705 120129+00:00 $HCHDT,23.7,T*1F
20220705 120129+00:00 $WIMWV,357.49,R,12.19,N,A*14
20220705 120131+00:00 $IIMDA,29.9,I,1.013,B,13.7,C,,C,89.2,,,C,,T,,M,,N,,M*2D
20220705 120131+00:00 $GPRMC,120126,A,4923.1696,N,12325.6998,W,5.5,25,050722,11.8,E,A,V*6B
20220705 120131+00:00 $HCHDT,23.7,T*1F
20220705 120131+00:00 $WIMWV,357.99,R,11.68,N,A*1C
20220705 120133+00:00 $IIMDA,29.9,I,1.013,B,13.7,C,,C,89.2,,,C,,T,,M,,N,,M*2D
20220705 120133+00:00 $GPRMC,120128,A,4923.1696,N,12325.6998,W,5.5,25,050722,11.8,E,A,V*65
20220705 120133+00:00 $HCHDT,23.6,T*1E
20220705 120133+00:00 $WIMWV,0,R,12.98,N,A*3F
20220705 120135+00:00 $IIMDA,29.9,I,1.013,B,13.7,C,,C,89.2,,,C,,T,,M,,N,,M*2D
20220705 120135+00:00 $GPRMC,120130,A,4923.1696,N,12325.6998,W,5.5,25,050722,11.8,E,A,V*6C
20220705 120135+00:00 $HCHDT,23.6,T*1E
20220705 120135+00:00 $WIMWV,358.09,R,13.39,N,A*1C
20220705 120137+00:00 $IIMDA,29.9,I,1.013,B,13.7,C,,C,89.2,,,C,,T,,M,,N,,M*2D
20220705 120137+00:00 $GPRMC,120132,A,4923.1798,N,12325.6896,W,5.5,25,050722,11.8,E,A,V*6E
20220705 120137+00:00 $HCHDT,23.6,T*1E
20220705 120137+00:00 $WIMWV,355.89,R,15.4,N,A*21
20220705 120139+00:00 $IIMDA,29.9,I,1.013,B,13.7,C,,C,89.2,,,C,,T,,M,,N,,M*2D
20220705 120139+00:00 $GPRMC,120134,A,4923.1798,N,12325.6896,W,5.5,25,050722,11.8,E,A,V*68
20220705 120139+00:00 $HCHDT,23.6,T*1E
20220705 120139+00:00 $WIMWV,356.39,R,15.59,N,A*11
20220705 120141+00:00 $IIMDA,29.9,I,1.013,B,13.7,C,,C,89.2,,,C,,T,,M,,N,,M*2D
20220705 120141+00:00 $GPRMC,120136,A,4923.1798,N,12325.6896,W,5.5,25,050722,11.8,E,A,V*6A
20220705 120141+00:00 $HCHDT,23.5,T*1D
20220705 120141+00:00 $WIMWV,355.89,R,14.38,N,A*1F
20220705 120143+00:00 $IIMDA,29.9,I,1.013,B,13.7,C,,C,89.1,,,C,,T,,M,,N,,M*2E
20220705 120143+00:00 $GPRMC,120138,A,4923.1900,N,12325.6896,W,5.5,25,050722,11.8,E,A,V*6B
20220705 120143+00:00 $HCHDT,23.5,T*1D
20220705 120143+00:00 $WIMWV,356.79,R,15.18,N,A*10
20220705 120145+00:00 $IIMDA,29.9,I,1.013,B,13.7,C,,C,89.1,,,C,,T,,M,,N,,M*2E
20220705 120145+00:00 $GPRMC,120140,A,4923.1900,N,12325.6896,W,5.5,25,050722,11.8,E,A,V*64
20220705 120145+00:00 $HCHDT,23.5,T*1D
20220705 120145+00:00 $WIMWV,356.79,R,14.19,N,A*10
20220705 120147+00:00 $IIMDA,29.9,I,1.013,B,13.7,C,,C,89,,,C,,T,,M,,N,,M*31
20220705 120147+00:00 $GPRMC,120142,A,4923.1900,N,12325.6800,W,5.5,25,050722,11.8,E,A,V*69
20220705 120147+00:00 $HCHDT,23.5,T*1D
20220705 120147+00:00 $WIMWV,357.69,R,13.08,N,A*17
20220705 120149+00:00 $IIMDA,29.9,I,1.013,B,13.7,C,,C,88.9,,,C,,T,,M,,N,,M*27
20220705 120149+00:00 $GPRMC,120144,A,4923.1900,N,12325.6800,W,5.5,25,050722,11.8,E,A,V*6F
20220705 120149+00:00 $HCHDT,23.5,T*1D
20220705 120149+00:00 $WIMWV,355.49,R,13.08,N,A*17
20220705 120151+00:00 $IIMDA,29.9,I,1.013,B,13.6,C,,C,88.9,,,C,,T,,M,,N,,M*26
20220705 120151+00:00 $GPRMC,120146,A,4923.1996,N,12325.6800,W,5.5,25,050722,11.8,E,A,V*62
20220705 120151+00:00 $HCHDT,23.5,T*1D
20220705 120151+00:00 $WIMWV,357.49,R,12.69,N,A*13
20220705 120153+00:00 $IIMDA,29.9,I,1.013,B,13.6,C,,C,88.7,,,C,,T,,M,,N,,M*28
20220705 120153+00:00 $GPRMC,120148,A,4923.1996,N,12325.6800,W,5.5,25,050722,11.8,E,A,V*6C
20220705 120153+00:00 $HCHDT,23.5,T*1D
20220705 120153+00:00 $WIMWV,355.89,R,11.68,N,A*1F
20220705 120155+00:00 $IIMDA,29.9,I,1.013,B,13.6,C,,C,88.7,,,C,,T,,M,,N,,M*28
20220705 120155+00:00 $GPRMC,120150,A,4923.1996,N,12325.6800,W,5.5,25,050722,11.8,E,A,V*65
20220705 120155+00:00 $HCHDT,23.5,T*1D
20220705 120155+00:00 $WIMWV,356.29,R,13.78,N,A*15
20220705 120157+00:00 $IIMDA,29.9,I,1.013,B,13.6,C,,C,88.6,,,C,,T,,M,,N,,M*29
20220705 120157+00:00 $GPRMC,120152,A,4923.1996,N,12325.6800,W,5.5,25,050722,11.8,E,A,V*67
20220705 120157+00:00 $HCHDT,23.5,T*1D
20220705 120157+00:00 $WIMWV,354.79,R,12.6,N,A*2A
20220705 120159+00:00 $IIMDA,29.9,I,1.013,B,13.6,C,,C,88.5,,,C,,T,,M,,N,,M*2A
20220705 120159+00:00 $GPRMC,120154,A,4923.2098,N,12325.6698,W,5.5,25,050722,11.8,E,A,V*6A
20220705 120159+00:00 $HCHDT,23.5,T*1D
20220705 120159+00:00 $WIMWV,359.09,R,11.08,N,A*1D
20220705 120201+00:00 $IIMDA,29.9,I,1.013,B,13.6,C,,C,88.5,,,C,,T,,M,,N,,M*2A
20220705 120201+00:00 $GPRMC,120156,A,4923.2098,N,12325.6698,W,5.5,25,050722,11.8,E,A,V*68
20220705 120201+00:00 $HCHDT,23.5,T*1D
20220705 120201+00:00 $WIMWV,358.19,R,12.6,N,A*20
20220705 120203+00:00 $IIMDA,29.9,I,1.013,B,13.6,C,,C,88.5,,,C,,T,,M,,N,,M*2A
20220705 120203+00:00 $GPRMC,120158,A,4923.2098,N,12325.6698,W,5.5,25,050722,11.8,E,A,V*66
20220705 120203+00:00 $HCHDT,23.6,T*1E
20220705 120203+00:00 $WIMWV,354.99,R,14,N,A*3A
20220705 120205+00:00 $IIMDA,29.9,I,1.013,B,13.6,C,,C,88.4,,,C,,T,,M,,N,,M*2B
20220705 120205+00:00 $GPRMC,120200,A,4923.2200,N,12325.6698,W,5.5,25,050722,11.8,E,A,V*6B
20220705 120205+00:00 $HCHDT,23.6,T*1E
20220705 120205+00:00 $WIMWV,354.59,R,11.68,N,A*13
20220705 120207+00:00 $IIMDA,29.9,I,1.013,B,13.6,C,,C,88.5,,,C,,T,,M,,N,,M*2A
20220705 120207+00:00 $GPRMC,120202,A,4923.2200,N,12325.6596,W,5.5,25,050722,11.8,E,A,V*64
20220705 120207+00:00 $HCHDT,23.6,T*1E
20220705 120207+00:00 $WIMWV,357.69,R,14,N,A*36
20220705 120209+00:00 $IIMDA,29.9,I,1.013,B,13.6,C,,C,88.5,,,C,,T,,M,,N,,M*2A
20220705 120209+00:00 $GPRMC,120204,A,4923.2200,N,12325.6596,W,5.5,25,050722,11.8,E,A,V*62
20220705 120209+00:00 $HCHDT,23.7,T*1F
20220705 120209+00:00 $WIMWV,357.29,R,14.79,N,A*12
20220705 120211+00:00 $IIMDA,29.9,I,1.013,B,13.6,C,,C,88.5,,,C,,T,,M,,N,,M*2A
20220705 120211+00:00 $GPRMC,120206,A,4923.2200,N,12325.6596,W,5.5,25,050722,11.8,E,A,V*60
20220705 120211+00:00 $HCHDT,23.7,T*1F
20220705 120211+00:00 $WIMWV,356.09,R,15.18,N,A*17
20220705 120213+00:00 $IIMDA,29.9,I,1.013,B,13.6,C,,C,88.6,,,C,,T,,M,,N,,M*29
20220705 120213+00:00 $GPRMC,120208,A,4923.2296,N,12325.6596,W,5.5,26,050722,11.8,E,A,V*62
20220705 120213+00:00 $HCHDT,23.7,T*1F
20220705 120213+00:00 $WIMWV,356.39,R,15.08,N,A*15
20220705 120215+00:00 $IIMDA,29.9,I,1.013,B,13.6,C,,C,88.6,,,C,,T,,M,,N,,M*29
20220705 120215+00:00 $GPRMC,120210,A,4923.2296,N,12325.6596,W,5.5,26,050722,11.8,E,A,V*6B
20220705 120215+00:00 $HCHDT,23.8,T*10
20220705 120215+00:00 $WIMWV,356.19,R,14.7,N,A*29
20220705 120217+00:00 $IIMDA,29.9,I,1.013,B,13.6,C,,C,88.6,,,C,,T,,M,,N,,M*29
20220705 120217+00:00 $GPRMC,120212,A,4923.2296,N,12325.6500,W,5.5,26,050722,11.8,E,A,V*66
20220705 120217+00:00 $HCHDT,23.8,T*10
20220705 120217+00:00 $WIMWV,356.99,R,15.18,N,A*1E
20220705 120219+00:00 $IIMDA,29.9,I,1.013,B,13.6,C,,C,88.7,,,C,,T,,M,,N,,M*28
20220705 120219+00:00 $GPRMC,120214,A,4923.2398,N,12325.6500,W,5.5,26,050722,11.8,E,A,V*6F
20220705 120219+00:00 $HCHDT,23.9,T*11
20220705 120219+00:00 $WIMWV,356.39,R,14.48,N,A*10
20220705 120221+00:00 $IIMDA,29.9,I,1.013,B,13.6,C,,C,88.7,,,C,,T,,M,,N,,M*28
20220705 120221+00:00 $GPRMC,120216,A,4923.2398,N,12325.6500,W,5.5,26,050722,11.8,E,A,V*6D
20220705 120221+00:00 $HCHDT,23.9,T*11
20220705 120221+00:00 $WIMWV,356.09,R,14.09,N,A*16
20220705 120223+00:00 $IIMDA,29.9,I,1.013,B,13.6,C,,C,88.7,,,C,,T,,M,,N,,M*28
20220705 120223+00:00 $GPRMC,120218,A,4923.2398,N,12325.6500,W,5.5,26,050722,11.8,E,A,V*63
20220705 120223+00:00 $HCHDT,23.9,T*11
20220705 120223+00:00 $WIMWV,356.89,R,14.48,N,A*1B
20220705 120225+00:00 $IIMDA,29.9,I,1.013,B,13.6,C,,C,88.7,,,C,,T,,M,,N,,M*28
20220705 120225+00:00 $GPRMC,120220,A,4923.2398,N,12325.6500,W,5.5,26,050722,11.8,E,A,V*68
20220705 120225+00:00 $HCHDT,24,T*01
20220705 120225+00:00 $WIMWV,356.19,R,14.7,N,A*29
20220705 120227+00:00 $IIMDA,29.9,I,1.013,B,13.6,C,,C,88.7,,,C,,T,,M,,N,,M*28
20220705 120227+00:00 $GPRMC,120222,A,4923.2500,N,12325.6398,W,5.5,26,050722,11.8,E,A,V*6A
20220705 120227+00:00 $HCHDT,24,T*01
20220705 120227+00:00 $WIMWV,355.89,R,14.09,N,A*1D
20220705 120229+00:00 $IIMDA,29.9,I,1.013,B,13.6,C,,C,88.7,,,C,,T,,M,,N,,M*28
20220705 120229+00:00 $GPRMC,120224,A,4923.2500,N,12325.6398,W,5.5,26,050722,11.8,E,A,V*6C
20220705 120229+00:00 $HCHDT,24,T*01
20220705 120229+00:00 $WIMWV,355.59,R,14.79,N,A*17
20220705 120231+00:00 $IIMDA,29.9,I,1.013,B,13.6,C,,C,88.7,,,C,,T,,M,,N,,M*28
20220705 120231+00:00 $GPRMC,120226,A,4923.2500,N,12325.6398,W,5.5,26,050722,11.8,E,A,V*6E
20220705 120231+00:00 $HCHDT,24,T*01
20220705 120231+00:00 $WIMWV,355.29,R,14.19,N,A*16
20220705 120233+00:00 $IIMDA,29.9,I,1.013,B,13.6,C,,C,88.8,,,C,,T,,M,,N,,M*27
20220705 120233+00:00 $GPRMC,120228,A,4923.2500,N,12325.6398,W,5.5,26,050722,11.8,E,A,V*60
20220705 120233+00:00 $HCHDT,24.1,T*1E
20220705 120233+00:00 $WIMWV,354.99,R,14.09,N,A*1D
20220705 120235+00:00 $IIMDA,29.9,I,1.013,B,13.6,C,,C,88.9,,,C,,T,,M,,N,,M*26
20220705 120235+00:00 $GPRMC,120230,A,4923.2596,N,12325.6398,W,5.5,26,050722,11.8,E,A,V*66
20220705 120235+00:00 $HCHDT,24.1,T*1E
20220705 120235+00:00 $WIMWV,355.19,R,14.29,N,A*16
20220705 120237+00:00 $IIMDA,29.9,I,1.013,B,13.6,C,,C,88.9,,,C,,T,,M,,N,,M*26
20220705 120237+00:00 $GPRMC,120232,A,4923.2596,N,12325.6296,W,5.5,26,050722,11.8,E,A,V*6B
20220705 120237+00:00 $HCHDT,24,T*01
20220705 120237+00:00 $WIMWV,356.99,R,14.89,N,A*17
20220705 120239+00:00 $IIMDA,29.9,I,1.013,B,13.6,C,,C,89,,,C,,T,,M,,N,,M*30
20220705 120239+00:00 $GPRMC,120234,A,4923.2596,N,12325.6296,W,5.5,26,050722,11.8,E,A,V*6D
20220705 120239+00:00 $HCHDT,24,T*01
20220705 120239+00:00 $WIMWV,357.09,R,15.08,N,A*17
20220705 120241+00:00 $IIMDA,29.9,I,1.013,B,13.6,C,,C,89.1,,,C,,T,,M,,N,,M*2F
20220705 120241+00:00 $GPRMC,120236,A,4923.2698,N,12325.6296,W,5.5,26,050722,11.8,E,A,V*62
20220705 120241+00:00 $HCHDT,23.9,T*11
20220705 120241+00:00 $WIMWV,356.09,R,15.08,N,A*16
20220705 120243+00:00 $IIMDA,29.9,I,1.013,B,13.6,C,,C,89.2,,,C,,T,,M,,N,,M*2C
20220705 120243+00:00 $GPRMC,120238,A,4923.2698,N,12325.6296,W,5.5,26,050722,11.8,E,A,V*6C
20220705 120243+00:00 $HCHDT,23.8,T*10
20220705 120243+00:00 $WIMWV,354.19,R,13.2,N,A*29
20220705 120245+00:00 $IIMDA,29.9,I,1.013,B,13.6,C,,C,89.2,,,C,,T,,M,,N,,M*2C
20220705 120245+00:00 $GPRMC,120240,A,4923.2698,N,12325.6296,W,5.5,26,050722,11.8,E,A,V*63
20220705 120245+00:00 $HCHDT,23.7,T*1F
20220705 120245+00:00 $WIMWV,356.09,R,12.38,N,A*12
20220705 120247+00:00 $IIMDA,29.9,I,1.013,B,13.6,C,,C,89.3,,,C,,T,,M,,N,,M*2D
20220705 120247+00:00 $GPRMC,120242,A,4923.2698,N,12325.6200,W,5.5,26,050722,11.8,E,A,V*6E
20220705 120247+00:00 $HCHDT,23.6,T*1E
20220705 120247+00:00 $WIMWV,356.39,R,11.2,N,A*2B
20220705 120249+00:00 $IIMDA,29.9,I,1.013,B,13.6,C,,C,89.3,,,C,,T,,M,,N,,M*2D
20220705 120249+00:00 $GPRMC,120244,A,4923.2800,N,12325.6200,W,5.5,26,050722,11.8,E,A,V*67
20220705 120249+00:00 $HCHDT,23.5,T*1D
20220705 120249+00:00 $WIMWV,353.99,R,13.78,N,A*1B
20220705 120251+00:00 $IIMDA,29.9,I,1.013,B,13.6,C,,C,89.4,,,C,,T,,M,,N,,M*2A
20220705 120251+00:00 $GPRMC,120246,A,4923.2800,N,12325.6200,W,5.5,25,050722,11.8,E,A,V*66
20220705 120251+00:00 $HCHDT,23.3,T*1B
20220705 120251+00:00 $WIMWV,354.79,R,14,N,A*34
20220705 120253+00:00 $IIMDA,29.9,I,1.013,B,13.6,C,,C,89.4,,,C,,T,,M,,N,,M*2A
20220705 120253+00:00 $GPRMC,120248,A,4923.2800,N,12325.6200,W,5.5,25,050722,11.8,E,A,V*68
20220705 120253+00:00 $HCHDT,23.2,T*1A
20220705 120253+00:00 $WIMWV,355.89,R,14.29,N,A*1F
20220705 120255+00:00 $IIMDA,29.9,I,1.013,B,13.6,C,,C,89.4,,,C,,T,,M,,N,,M*2A
20220705 120255+00:00 $GPRMC,120250,A,4923.2800,N,12325.6200,W,5.5,25,050722,11.8,E,A,V*61
20220705 120255+00:00 $HCHDT,23.2,T*1A
20220705 120255+00:00 $WIMWV,355.89,R,14.89,N,A*15
20220705 120257+00:00 $IIMDA,29.9,I,1.013,B,13.6,C,,C,89.4,,,C,,T,,M,,N,,M*2A
20220705 120257+00:00 $GPRMC,120252,A,4923.2896,N,12325.6098,W,5.5,25,050722,11.8,E,A,V*6F
20220705 120257+00:00 $HCHDT,23.1,T*19
20220705 120257+00:00 $WIMWV,354.79,R,14.19,N,A*12
20220705 120259+00:00 $IIMDA,29.9,I,1.013,B,13.6,C,,C,89.4,,,C,,T,,M,,N,,M*2A
20220705 120259+00:00 $GPRMC,120254,A,4923.2896,N,12325.6098,W,5.5,25,050722,11.8,E,A,V*69
20220705 120259+00:00 $HCHDT,23.1,T*19
20220705 120259+00:00 $WIMWV,358.79,R,13.3,N,A*22
20220705 120301+00:00 $IIMDA,29.9,I,1.013,B,13.6,C,,C,89.5,,,C,,T,,M,,N,,M*2B
20220705 120301+00:00 $GPRMC,120256,A,4923.2896,N,12325.6098,W,5.5,25,050722,11.8,E,A,V*6B
20220705 120301+00:00 $HCHDT,23.1,T*19
20220705 120301+00:00 $WIMWV,357.69,R,14,N,A*36
20220705 120303+00:00 $IIMDA,29.9,I,1.013,B,13.6,C,,C,89.4,,,C,,T,,M,,N,,M*2A
20220705 120303+00:00 $GPRMC,120258,A,4923.2998,N,12325.6098,W,5.5,25,050722,11.8,E,A,V*6A
20220705 120303+00:00 $HCHDT,23.1,T*19
20220705 120303+00:00 $WIMWV,355.19,R,14.7,N,A*2A
20220705 120305+00:00 $IIMDA,29.9,I,1.013,B,13.6,C,,C,89.5,,,C,,T,,M,,N,,M*2B
20220705 120305+00:00 $GPRMC,120300,A,4923.2998,N,12325.6098,W,5.5,25,050722,11.8,E,A,V*66
20220705 120305+00:00 $HCHDT,23.1,T*19
20220705 120305+00:00 $WIMWV,356.49,R,14.19,N,A*13
20220705 120307+00:00 $IIMDA,29.9,I,1.013,B,13.6,C,,C,89.5,,,C,,T,,M,,N,,M*2B
20220705 120307+00:00 $GPRMC,120302,A,4923.2998,N,12325.5996,W,5.5,24,050722,11.8,E,A,V*61
20220705 120307+00:00 $HCHDT,23.2,T*1A
20220705 120307+00:00 $WIMWV,0.1,R,10.28,N,A*29
20220705 120309+00:00 $IIMDA,29.9,I,1.013,B,13.6,C,,C,89.5,,,C,,T,,M,,N,,M*2B
20220705 120309+00:00 $GPRMC,120304,A,4923.2998,N,12325.5996,W,5.5,24,050722,11.8,E,A,V*67
20220705 120309+00:00 $HCHDT,23.1,T*19
20220705 120309+00:00 $WIMWV,358.59,R,12.6,N,A*24
20220705 120311+00:00 $IIMDA,29.9,I,1.013,B,13.6,C,,C,89.6,,,C,,T,,M,,N,,M*28
20220705 120311+00:00 $GPRMC,120306,A,4923.3100,N,12325.5996,W,5.5,24,050722,11.8,E,A,V*6D
20220705 120311+00:00 $HCHDT,23.1,T*19
20220705 120311+00:00 $WIMWV,352.59,R,13.78,N,A*16
20220705 120313+00:00 $IIMDA,29.9,I,1.013,B,13.6,C,,C,89.6,,,C,,T,,M,,N,,M*28
20220705 120313+00:00 $GPRMC,120308,A,4923.3100,N,12325.5996,W,5.5,24,050722,11.8,E,A,V*63
20220705 120313+00:00 $HCHDT,23.1,T*19
20220705 120313+00:00 $WIMWV,356.29,R,14.19,N,A*15
20220705 120315+00:00 $IIMDA,29.9,I,1.013,B,13.6,C,,C,89.6,,,C,,T,,M,,N,,M*28
20220705 120315+00:00 $GPRMC,120310,A,4923.3100,N,12325.5996,W,5.5,24,050722,11.8,E,A,V*6A
20220705 120315+00:00 $HCHDT,23.1,T*19
20220705 120315+00:00 $WIMWV,356.29,R,13.59,N,A*16
20220705 120317+00:00 $IIMDA,29.9,I,1.013,B,13.6,C,,C,89.6,,,C,,T,,M,,N,,M*28
20220705 120317+00:00 $GPRMC,120312,A,4923.3196,N,12325.5996,W,5.5,24,050722,11.8,E,A,V*67
20220705 120317+00:00 $HCHDT,23.2,T*1A
20220705 120317+00:00 $WIMWV,356.79,R,13.59,N,A*13
20220705 120319+00:00 $IIMDA,29.9,I,1.013,B,13.6,C,,C,89.7,,,C,,T,,M,,N,,M*29
20220705 120319+00:00 $GPRMC,120314,A,4923.3196,N,12325.5900,W,5.5,24,050722,11.8,E,A,V*6E
20220705 120319+00:00 $HCHDT,23.2,T*1A
20220705 120319+00:00 $WIMWV,356.39,R,14.29,N,A*17
20220705 120321+00:00 $IIMDA,29.9,I,1.013,B,13.6,C,,C,89.7,,,C,,T,,M,,N,,M*29
20220705 120321+00:00 $GPRMC,120316,A,4923.3196,N,12325.5900,W,5.5,24,050722,11.8,E,A,V*6C
20220705 120321+00:00 $HCHDT,23.3,T*1B
20220705 120321+00:00 $WIMWV,356.79,R,14.89,N,A*19
20220705 120323+00:00 $IIMDA,29.9,I,1.013,B,13.6,C,,C,89.8,,,C,,T,,M,,N,,M*26
20220705 120323+00:00 $GPRMC,120318,A,4923.3196,N,12325.5900,W,5.5,24,050722,11.8,E,A,V*62
20220705 120323+00:00 $HCHDT,23.4,T*1C
20220705 120323+00:00 $WIMWV,356.09,R,14.29,N,A*14
20220705 120325+00:00 $IIMDA,29.9,I,1.013,B,13.6,C,,C,89.8,,,C,,T,,M,,N,,M*26
20220705 120325+00:00 $GPRMC,120320,A,4923.3298,N,12325.5900,W,5.5,24,050722,11.8,E,A,V*64
20220705 120325+00:00 $HCHDT,23.4,T*1C
20220705 120325+00:00 $WIMWV,356.89,R,14.19,N,A*1F
20220705 120327+00:00 $IIMDA,29.9,I,1.013,B,13.6,C,,C,89.8,,,C,,T,,M,,N,,M*26
20220705 120327+00:00 $GPRMC,120322,A,4923.3298,N,12325.5900,W,5.5,24,050722,11.8,E,A,V*66
20220705 120327+00:00 $HCHDT,23.5,T*1D
20220705 120327+00:00 $WIMWV,355.79,R,14.29,N,A*10
20220705 120329+00:00 $IIMDA,29.9,I,1.013,B,13.6,C,,C,89.8,,,C,,T,,M,,N,,M*26
20220705 120329+00:00 $GPRMC,120324,A,4923.3298,N,12325.5798,W,5.5,25,050722,11.8,E,A,V*6E
20220705 120329+00:00 $HCHDT,23.5,T*1D
20220705 120329+00:00 $WIMWV,357.69,R,13.9,N,A*26
20220705 120331+00:00 $IIMDA,29.9,I,1.013,B,13.6,C,,C,89.8,,,C,,T,,M,,N,,M*26
20220705 120331+00:00 $GPRMC,120326,A,4923.3298,N,12325.5798,W,5.5,25,050722,11.8,E,A,V*6C
20220705 120331+00:00 $HCHDT,23.6,T*1E
20220705 120331+00:00 $WIMWV,0.19,R,10.69,N,A*15
20220705 120333+00:00 $IIMDA,29.9,I,1.013,B,13.6,C,,C,89.8,,,C,,T,,M,,N,,M*26
20220705 120333+00:00 $GPRMC,120328,A,4923.3400,N,12325.5798,W,5.5,25,050722,11.8,E,A,V*65
20220705 120333+00:00 $HCHDT,23.7,T*1F
20220705 120333+00:00 $WIMWV,358.19,R,10.28,N,A*1E
20220705 120335+00:00 $IIMDA,29.9,I,1.013,B,13.6,C,,C,89.7,,,C,,T,,M,,N,,M*29
20220705 120335+00:00 $GPRMC,120330,A,4923.3400,N,12325.5798,W,5.5,25,050722,11.8,E,A,V*6C
20220705 120335+00:00 $HCHDT,23.7,T*1F
20220705 120335+00:00 $WIMWV,352.39,R,11.99,N,A*1D
20220705 120337+00:00 $IIMDA,29.9,I,1.013,B,13.6,C,,C,89.7,,,C,,T,,M,,N,,M*29
20220705 120337+00:00 $GPRMC,120332,A,4923.3400,N,12325.5798,W,5.5,25,050722,11.8,E,A,V*6E
20220705 120337+00:00 $HCHDT,23.8,T*10
20220705 120337+00:00 $WIMWV,351.79,R,9.68,N,A*2D
20220705 120339+00:00 $IIMDA,29.9,I,1.013,B,13.6,C,,C,89.8,,,C,,T,,M,,N,,M*26
20220705 120339+00:00 $GPRMC,120334,A,4923.3496,N,12325.5696,W,5.5,25,050722,11.8,E,A,V*68
20220705 120339+00:00 $HCHDT,23.7,T*1F
20220705 120339+00:00 $WIMWV,1.2,R,8.98,N,A*19
20220705 120341+00:00 $IIMDA,29.9,I,1.013,B,13.6,C,,C,89.8,,,C,,T,,M,,N,,M*26
20220705 120341+00:00 $GPRMC,120336,A,4923.3496,N,12325.5696,W,5.5,25,050722,11.8,E,A,V*6A
20220705 120341+00:00 $HCHDT,23.7,T*1F
20220705 120341+00:00 $WIMWV,357.49,R,11.49,N,A*12
20220705 120343+00:00 $IIMDA,29.9,I,1.013,B,13.6,C,,C,89.7,,,C,,T,,M,,N,,M*29
20220705 120343+00:00 $GPRMC,120338,A,4923.3496,N,12325.5696,W,5.5,25,050722,11.8,E,A,V*64
20220705 120343+00:00 $HCHDT,23.7,T*1F
20220705 120343+00:00 $WIMWV,353.79,R,9.58,N,A*2C
20220705 120345+00:00 $IIMDA,29.9,I,1.013,B,13.6,C,,C,89.7,,,C,,T,,M,,N,,M*29
20220705 120345+00:00 $GPRMC,120340,A,4923.3496,N,12325.5696,W,5.5,25,050722,11.8,E,A,V*6B
20220705 120345+00:00 $HCHDT,23.7,T*1F
20220705 120345+00:00 $WIMWV,0,R,10.98,N,A*3D
20220705 120347+00:00 $IIMDA,29.9,I,1.013,B,13.6,C,,C,89.7,,,C,,T,,M,,N,,M*29
20220705 120347+00:00 $GPRMC,120342,A,4923.3598,N,12325.5696,W,5.5,25,050722,11.8,E,A,V*66
20220705 120347+00:00 $HCHDT,23.7,T*1F
20220705 120347+00:00 $WIMWV,0.3,R,9.99,N,A*19
20220705 120349+00:00 $IIMDA,29.9,I,1.013,B,13.6,C,,C,89.6,,,C,,T,,M,,N,,M*28
20220705 120349+00:00 $GPRMC,120344,A,4923.3598,N,12325.5600,W,5.5,25,050722,11.8,E,A,V*6F
20220705 120349+00:00 $HCHDT,23.7,T*1F
20220705 120349+00:00 $WIMWV,358.29,R,11.39,N,A*1C
20220705 120351+00:00 $IIMDA,29.9,I,1.013,B,13.6,C,,C,89.5,,,C,,T,,M,,N,,M*2B
20220705 120351+00:00 $GPRMC,120346,A,4923.3598,N,12325.5600,W,5.5,25,050722,11.8,E,A,V*6D
20220705 120351+00:00 $HCHDT,23.7,T*1F
20220705 120351+00:00 $WIMWV,357.79,R,9.58,N,A*28
20220705 120353+00:00 $IIMDA,29.9,I,1.013,B,13.6,C,,C,89.5,,,C,,T,,M,,N,,M*2B
20220705 120353+00:00 $GPRMC,120348,A,4923.3700,N,12325.5600,W,5.5,25,050722,11.8,E,A,V*60
20220705 120353+00:00 $HCHDT,23.8,T*10
20220705 120353+00:00 $WIMWV,2,R,7.79,N,A*06
20220705 120355+00:00 $IIMDA,29.9,I,1.013,B,13.6,C,,C,89.4,,,C,,T,,M,,N,,M*2A
20220705 120355+00:00 $GPRMC,120350,A,4923.3700,N,12325.5600,W,5.5,25,050722,11.8,E,A,V*69
20220705 120355+00:00 $HCHDT,23.8,T*10
20220705 120355+00:00 $WIMWV,355.59,R,9.58,N,A*28
20220705 120357+00:00 $IIMDA,29.9,I,1.013,B,13.6,C,,C,89.4,,,C,,T,,M,,N,,M*2A
20220705 120357+00:00 $GPRMC,120352,A,4923.3700,N,12325.5600,W,5.5,25,050722,11.8,E,A,V*6B
20220705 120357+00:00 $HCHDT,23.8,T*10
20220705 120357+00:00 $WIMWV,354.89,R,9.68,N,A*27
20220705 120359+00:00 $IIMDA,29.9,I,1.013,B,13.6,C,,C,89.3,,,C,,T,,M,,N,,M*2D
20220705 120359+00:00 $GPRMC,120354,A,4923.3700,N,12325.5498,W,5.5,25,050722,11.8,E,A,V*6E
20220705 120359+00:00 $HCHDT,23.7,T*1F
20220705 120359+00:00 $WIMWV,23.5,R,8.18,N,A*26
20220705 120401+00:00 $IIMDA,29.9,I,1.013,B,13.6,C,,C,89.2,,,C,,T,,M,,N,,M*2C
20220705 120401+00:00 $GPRMC,120356,A,4923.3796,N,12325.5498,W,5.5,25,050722,11.8,E,A,V*63
20220705 120401+00:00 $HCHDT,23.7,T*1F
20220705 120401+00:00 $WIMWV,354.69,R,12.69,N,A*12
20220705 120403+00:00 $IIMDA,29.9,I,1.013,B,13.6,C,,C,89.2,,,C,,T,,M,,N,,M*2C
20220705 120403+00:00 $GPRMC,120358,A,4923.3796,N,12325.5498,W,5.5,25,050722,11.8,E,A,V*6D
20220705 120403+00:00 $HCHDT,23.6,T*1E
20220705 120403+00:00 $WIMWV,355.99,R,13.39,N,A*18
20220705 120405+00:00 $IIMDA,29.9,I,1.013,B,13.6,C,,C,89.1,,,C,,T,,M,,N,,M*2F
20220705 120405+00:00 $GPRMC,120400,A,4923.3796,N,12325.5498,W,5.5,25,050722,11.8,E,A,V*67
20220705 120405+00:00 $HCHDT,23.6,T*1E
20220705 120405+00:00 $WIMWV,357.39,R,12.6,N,A*2D
20220705 120407+00:00 $IIMDA,29.9,I,1.013,B,13.6,C,,C,89.1,,,C,,T,,M,,N,,M*2F
20220705 120407+00:00 $GPRMC,120402,A,4923.3796,N,12325.5498,W,5.5,25,050722,11.8,E,A,V*65
20220705 120407+00:00 $HCHDT,23.7,T*1F
20220705 120407+00:00 $WIMWV,357.69,R,12.09,N,A*17
20220705 120409+00:00 $IIMDA,29.9,I,1.013,B,13.6,C,,C,89.1,,,C,,T,,M,,N,,M*2F
20220705 120409+00:00 $GPRMC,120404,A,4923.3898,N,12325.5396,W,5.5,25,050722,11.8,E,A,V*6B
20220705 120409+00:00 $HCHDT,23.8,T*10
20220705 120409+00:00 $WIMWV,356.19,R,12.69,N,A*17
20220705 120411+00:00 $IIMDA,29.9,I,1.013,B,13.6,C,,C,89,,,C,,T,,M,,N,,M*30
20220705 120411+00:00 $GPRMC,120406,A,4923.3898,N,12325.5396,W,5.5,25,050722,11.8,E,A,V*69
20220705 120411+00:00 $HCHDT,23.9,T*11
20220705 120411+00:00 $WIMWV,356.99,R,12.38,N,A*1B
20220705 120413+00:00 $IIMDA,29.9,I,1.013,B,13.6,C,,C,89,,,C,,T,,M,,N,,M*30
20220705 120413+00:00 $GPRMC,120408,A,4923.3898,N,12325.5396,W,5.5,25,050722,11.8,E,A,V*67
20220705 120413+00:00 $HCHDT,24,T*01
20220705 120413+00:00 $WIMWV,356.89,R,13.08,N,A*18
20220705 120415+00:00 $IIMDA,29.9,I,1.013,B,13.6,C,,C,88.9,,,C,,T,,M,,N,,M*26
20220705 120415+00:00 $GPRMC,120410,A,4923.4000,N,12325.5396,W,5.5,25,050722,11.8,E,A,V*60
20220705 120415+00:00 $HCHDT,24.2,T*1D
20220705 120415+00:00 $WIMWV,358.59,R,12.5,N,A*27
20220705 120417+00:00 $IIMDA,29.9,I,1.013,B,13.6,C,,C,88.9,,,C,,T,,M,,N,,M*26
20220705 120417+00:00 $GPRMC,120412,A,4923.4000,N,12325.5396,W,5.5,25,050722,11.8,E,A,V*62
20220705 120417+00:00 $HCHDT,24.4,T*1B
20220705 120417+00:00 $WIMWV,357.79,R,11.29,N,A*17
20220705 120419+00:00 $IIMDA,29.9,I,1.013,B,13.6,C,,C,88.9,,,C,,T,,M,,N,,M*26
20220705 120419+00:00 $GPRMC,120414,A,4923.4000,N,12325.5300,W,5.5,25,050722,11.8,E,A,V*6B
20220705 120419+00:00 $HCHDT,24.4,T*1B
20220705 120419+00:00 $WIMWV,355.09,R,13.39,N,A*11
20220705 120421+00:00 $IIMDA,29.9,I,1.013,B,13.6,C,,C,88.8,,,C,,T,,M,,N,,M*27
20220705 120421+00:00 $GPRMC,120416,A,4923.4000,N,12325.5300,W,5.5,25,050722,11.8,E,A,V*69
20220705 120421+00:00 $HCHDT,24.4,T*1B
20220705 120421+00:00 $WIMWV,355.99,R,13.3,N,A*21
20220705 120423+00:00 $IIMDA,29.9,I,1.013,B,13.6,C,,C,88.8,,,C,,T,,M,,N,,M*27
20220705 120423+00:00 $GPRMC,120418,A,4923.4096,N,12325.5300,W,5.5,25,050722,11.8,E,A,V*68
20220705 120423+00:00 $HCHDT,24.2,T*1D
20220705 120423+00:00 $WIMWV,357.89,R,11.68,N,A*1D
20220705 120425+00:00 $IIMDA,29.9,I,1.013,B,13.6,C,,C,88.9,,,C,,T,,M,,N,,M*26
20220705 120425+00:00 $GPRMC,120420,A,4923.4096,N,12325.5300,W,5.5,25,050722,11.8,E,A,V*63
20220705 120425+00:00 $HCHDT,24,T*01
20220705 120425+00:00 $WIMWV,355.59,R,12.5,N,A*2A
20220705 120427+00:00 $IIMDA,29.9,I,1.013,B,13.6,C,,C,88.9,,,C,,T,,M,,N,,M*26
20220705 120427+00:00 $GPRMC,120422,A,4923.4096,N,12325.5300,W,5.5,25,050722,11.8,E,A,V*61
20220705 120427+00:00 $HCHDT,23.9,T*11
20220705 120427+00:00 $WIMWV,355.29,R,12.98,N,A*19
20220705 120429+00:00 $IIMDA,29.9,I,1.013,B,13.6,C,,C,88.9,,,C,,T,,M,,N,,M*26
20220705 120429+00:00 $GPRMC,120424,A,4923.4096,N,12325.5198,W,5.5,25,050722,11.8,E,A,V*64
20220705 120429+00:00 $HCHDT,23.7,T*1F
20220705 120429+00:00 $WIMWV,359.29,R,7,N,A*0E
20220705 120431+00:00 $IIMDA,29.9,I,1.013,B,13.6,C,,C,88.9,,,C,,T,,M,,N,,M*26
20220705 120431+00:00 $GPRMC,120426,A,4923.4198,N,12325.5198,W,5.5,25,050722,11.8,E,A,V*69
20220705 120431+00:00 $HCHDT,23.6,T*1E
20220705 120431+00:00 $WIMWV,0.19,R,8.79,N,A*2D
20220705 120433+00:00 $IIMDA,29.9,I,1.013,B,13.6,C,,C,88.9,,,C,,T,,M,,N,,M*26
20220705 120433+00:00 $GPRMC,120428,A,4923.4198,N,12325.5198,W,5.5,25,050722,11.8,E,A,V*67
20220705 120433+00:00 $HCHDT,23.6,T*1E
20220705 120433+00:00 $WIMWV,356.99,R,12.09,N,A*19
20220705 120435+00:00 $IIMDA,29.9,I,1.013,B,13.6,C,,C,88.9,,,C,,T,,M,,N,,M*26
20220705 120435+00:00 $GPRMC,120430,A,4923.4300,N,12325.5198,W,5.5,25,050722,11.8,E,A,V*6D
20220705 120435+00:00 $HCHDT,23.5,T*1D
20220705 120435+00:00 $WIMWV,356.19,R,10.69,N,A*15
20220705 120437+00:00 $IIMDA,29.9,I,1.013,B,13.6,C,,C,89,,,C,,T,,M,,N,,M*30
20220705 120437+00:00 $GPRMC,120432,A,4923.4300,N,12325.5198,W,5.5,25,050722,11.8,E,A,V*6F
20220705 120437+00:00 $HCHDT,23.5,T*1D
20220705 120437+00:00 $WIMWV,357.79,R,13.78,N,A*11
20220705 120439+00:00 $IIMDA,29.9,I,1.013,B,13.6,C,,C,88.9,,,C,,T,,M,,N,,M*26
20220705 120439+00:00 $GPRMC,120434,A,4923.4300,N,12325.5198,W,5.5,24,050722,11.8,E,A,V*68
20220705 120439+00:00 $HCHDT,23.5,T*1D
20220705 120439+00:00 $WIMWV,357.89,R,13.3,N,A*22
20220705 120441+00:00 $IIMDA,29.9,I,1.013,B,13.6,C,,C,89,,,C,,T,,M,,N,,M*30
20220705 120441+00:00 $GPRMC,120436,A,4923.4300,N,12325.5096,W,5.5,24,050722,11.8,E,A,V*65
20220705 120441+00:00 $HCHDT,23.5,T*1D
20220705 120441+00:00 $WIMWV,356.29,R,14.99,N,A*1D
20220705 120443+00:00 $IIMDA,29.9,I,1.013,B,13.6,C,,C,89,,,C,,T,,M,,N,,M*30
20220705 120443+00:00 $GPRMC,120438,A,4923.4300,N,12325.5096,W,5.5,24,050722,11.8,E,A,V*6B
20220705 120443+00:00 $HCHDT,23.5,T*1D
20220705 120443+00:00 $WIMWV,358.09,R,12.09,N,A*1E
20220705 120445+00:00 $IIMDA,29.9,I,1.013,B,13.6,C,,C,89,,,C,,T,,M,,N,,M*30
20220705 120445+00:00 $GPRMC,120440,A,4923.4396,N,12325.5096,W,5.5,24,050722,11.8,E,A,V*6B
20220705 120445+00:00 $HCHDT,23.5,T*1D
20220705 120445+00:00 $WIMWV,358.09,R,12.5,N,A*22
20220705 120447+00:00 $IIMDA,29.9,I,1.013,B,13.6,C,,C,89,,,C,,T,,M,,N,,M*30
20220705 120447+00:00 $GPRMC,120442,A,4923.4396,N,12325.5096,W,5.5,24,050722,11.8,E,A,V*69
20220705 120447+00:00 $HCHDT,23.5,T*1D
20220705 120447+00:00 $WIMWV,357.89,R,12.38,N,A*1B
20220705 120449+00:00 $IIMDA,29.9,I,1.013,B,13.6,C,,C,88.9,,,C,,T,,M,,N,,M*26
20220705 120449+00:00 $GPRMC,120444,A,4923.4396,N,12325.5096,W,5.5,24,050722,11.8,E,A,V*6F
20220705 120449+00:00 $HCHDT,23.5,T*1D
20220705 120449+00:00 $WIMWV,357.19,R,12.98,N,A*18
20220705 120451+00:00 $IIMDA,29.9,I,1.013,B,13.6,C,,C,88.9,,,C,,T,,M,,N,,M*26
20220705 120451+00:00 $GPRMC,120446,A,4923.4498,N,12325.5000,W,5.5,24,050722,11.8,E,A,V*6B
20220705 120451+00:00 $HCHDT,23.5,T*1D
20220705 120451+00:00 $WIMWV,355.09,R,13.08,N,A*13
20220705 120453+00:00 $IIMDA,29.9,I,1.013,B,13.6,C,,C,88.9,,,C,,T,,M,,N,,M*26
20220705 120453+00:00 $GPRMC,120448,A,4923.4498,N,12325.5000,W,5.5,24,050722,11.8,E,A,V*65
20220705 120453+00:00 $HCHDT,23.4,T*1C
20220705 120453+00:00 $WIMWV,354.89,R,13.39,N,A*18
20220705 120455+00:00 $IIMDA,29.9,I,1.013,B,13.6,C,,C,88.8,,,C,,T,,M,,N,,M*27
20220705 120455+00:00 $GPRMC,120450,A,4923.4498,N,12325.5000,W,5.5,24,050722,11.8,E,A,V*6C
20220705 120455+00:00 $HCHDT,23.4,T*1C
20220705 120455+00:00 $WIMWV,355.89,R,13.9,N,A*2A
20220705 120457+00:00 $IIMDA,29.9,I,1.013,B,13.6,C,,C,88.8,,,C,,T,,M,,N,,M*27
20220705 120457+00:00 $GPRMC,120452,A,4923.4498,N,12325.5000,W,5.5,24,050722,11.8,E,A,V*6E
20220705 120457+00:00 $HCHDT,23.3,T*1B
20220705 120457+00:00 $WIMWV,356.79,R,13.9,N,A*26
20220705 120459+00:00 $IIMDA,29.9,I,1.013,B,13.6,C,,C,88.8,,,C,,T,,M,,N,,M*27
20220705 120459+00:00 $GPRMC,120454,A,4923.4600,N,12325.5000,W,5.5,24,050722,11.8,E,A,V*6B
20220705 120459+00:00 $HCHDT,23.3,T*1B
20220705 120459+00:00 $WIMWV,359.49,R,13.39,N,A*19
20220705 120501+00:00 $IIMDA,29.9,I,1.013,B,13.6,C,,C,88.7,,,C,,T,,M,,N,,M*28
20220705 120501+00:00 $GPRMC,120456,A,4923.4600,N,12325.4898,W,5.5,24,050722,11.8,E,A,V*61
20220705 120501+00:00 $HCHDT,23.2,T*1A
20220705 120501+00:00 $WIMWV,356.69,R,14,N,A*37
20220705 120503+00:00 $IIMDA,29.9,I,1.013,B,13.6,C,,C,88.7,,,C,,T,,M,,N,,M*28
20220705 120503+00:00 $GPRMC,120458,A,4923.4600,N,12325.4898,W,5.5,24,050722,11.8,E,A,V*6F
20220705 120503+00:00 $HCHDT,23.2,T*1A
20220705 120503+00:00 $WIMWV,356.09,R,14.6,N,A*29
20220705 120505+00:00 $IIMDA,29.9,I,1.013,B,13.6,C,,C,88.7,,,C,,T,,M,,N,,M*28
20220705 120505+00:00 $GPRMC,120500,A,4923.4600,N,12325.4898,W,5.5,24,050722,11.8,E,A,V*63
20220705 120505+00:00 $HCHDT,23.1,T*19
20220705 120505+00:00 $WIMWV,356.09,R,13.49,N,A*15
20220705 120507+00:00 $IIMDA,29.9,I,1.013,B,13.6,C,,C,88.7,,,C,,T,,M,,N,,M*28
20220705 120507+00:00 $GPRMC,120502,A,4923.4696,N,12325.4898,W,5.5,24,050722,11.8,E,A,V*6E
20220705 120507+00:00 $HCHDT,23.1,T*19
20220705 120507+00:00 $WIMWV,357.29,R,12.5,N,A*2F
20220705 120509+00:00 $IIMDA,29.9,I,1.013,B,13.6,C,,C,88.7,,,C,,T,,M,,N,,M*28
20220705 120509+00:00 $GPRMC,120504,A,4923.4696,N,12325.4898,W,5.5,24,050722,11.8,E,A,V*68
20220705 120509+00:00 $HCHDT,23.1,T*19
20220705 120509+00:00 $WIMWV,355.89,R,14.38,N,A*1F
20220705 120511+00:00 $IIMDA,29.9,I,1.013,B,13.6,C,,C,88.7,,,C,,T,,M,,N,,M*28
20220705 120511+00:00 $GPRMC,120506,A,4923.4696,N,12325.4898,W,5.5,24,050722,11.8,E,A,V*6A
20220705 120511+00:00 $HCHDT,23,T*06
20220705 120511+00:00 $WIMWV,355.29,R,13.39,N,A*13
20220705 120513+00:00 $IIMDA,29.9,I,1.013,B,13.6,C,,C,88.7,,,C,,T,,M,,N,,M*28
20220705 120513+00:00 $GPRMC,120508,A,4923.4798,N,12325.4796,W,5.5,24,050722,11.8,E,A,V*6A
20220705 120513+00:00 $HCHDT,22.9,T*10
20220705 120513+00:00 $WIMWV,358.49,R,11.49,N,A*1D
20220705 120515+00:00 $IIMDA,29.9,I,1.013,B,13.6,C,,C,88.7,,,C,,T,,M,,N,,M*28
20220705 120515+00:00 $GPRMC,120510,A,4923.4798,N,12325.4796,W,5.5,23,050722,11.8,E,A,V*64
20220705 120515+00:00 $HCHDT,22.8,T*11
20220705 120515+00:00 $WIMWV,353.79,R,10.5,N,A*2C
20220705 120517+00:00 $IIMDA,29.9,I,1.013,B,13.6,C,,C,88.7,,,C,,T,,M,,N,,M*28
20220705 120517+00:00 $GPRMC,120512,A,4923.4798,N,12325.4796,W,5.5,23,050722,11.8,E,A,V*66
20220705 120517+00:00 $HCHDT,22.7,T*1E
20220705 120517+00:00 $WIMWV,8.59,R,9.1,N,A*1F
20220705 120519+00:00 $IIMDA,29.9,I,1.013,B,13.6,C,,C,88.7,,,C,,T,,M,,N,,M*28
20220705 120519+00:00 $GPRMC,120514,A,4923.4798,N,12325.4796,W,5.5,23,050722,11.8,E,A,V*60
20220705 120519+00:00 $HCHDT,22.7,T*1E
20220705 120519+00:00 $WIMWV,0.19,R,10.28,N,A*10
20220705 120521+00:00 $IIMDA,29.9,I,1.013,B,13.6,C,,C,88.7,,,C,,T,,M,,N,,M*28
20220705 120521+00:00 $GPRMC,120516,A,4923.4900,N,12325.4796,W,5.5,23,050722,11.8,E,A,V*6D
20220705 120521+00:00 $HCHDT,22.8,T*11
20220705 120521+00:00 $WIMWV,358.19,R,7.79,N,A*2C
20220705 120523+00:00 $IIMDA,29.9,I,1.013,B,13.6,C,,C,88.7,,,C,,T,,M,,N,,M*28
20220705 120523+00:00 $GPRMC,120518,A,4923.4900,N,12325.4700,W,5.5,23,050722,11.8,E,A,V*6C
20220705 120523+00:00 $HCHDT,22.9,T*10
20220705 120523+00:00 $WIMWV,0.1,R,7.39,N,A*1F
20220705 120525+00:00 $IIMDA,29.9,I,1.013,B,13.6,C,,C,88.7,,,C,,T,,M,,N,,M*28
20220705 120525+00:00 $GPRMC,120520,A,4923.4900,N,12325.4700,W,5.5,23,050722,11.8,E,A,V*67
20220705 120525+00:00 $HCHDT,23,T*06
20220705 120525+00:00 $WIMWV,359.59,R,4.9,N,A*1D
20220705 120527+00:00 $IIMDA,29.9,I,1.013,B,13.6,C,,C,88.7,,,C,,T,,M,,N,,M*28
20220705 120527+00:00 $GPRMC,120522,A,4923.4996,N,12325.4700,W,5.5,23,050722,11.8,E,A,V*6A
20220705 120527+00:00 $HCHDT,23.1,T*19
20220705 120527+00:00 $WIMWV,355.39,R,13.3,N,A*2B
20220705 120529+00:00 $IIMDA,29.9,I,1.013,B,13.6,C,,C,88.6,,,C,,T,,M,,N,,M*29
20220705 120529+00:00 $GPRMC,120524,A,4923.4996,N,12325.4700,W,5.5,23,050722,11.8,E,A,V*6C
20220705 120529+00:00 $HCHDT,23.2,T*1A
20220705 120529+00:00 $WIMWV,357.49,R,10.98,N,A*1F
20220705 120531+00:00 $IIMDA,29.9,I,1.013,B,13.6,C,,C,88.6,,,C,,T,,M,,N,,M*29
20220705 120531+00:00 $GPRMC,120526,A,4923.4996,N,12325.4700,W,5.5,23,050722,11.8,E,A,V*6E
20220705 120531+00:00 $HCHDT,23.3,T*1B
20220705 120531+00:00 $WIMWV,340.69,R,7.99,N,A*2C
20220705 120533+00:00 $IIMDA,29.9,I,1.013,B,13.6,C,,C,88.6,,,C,,T,,M,,N,,M*29
20220705 120533+00:00 $GPRMC,120528,A,4923.4996,N,12325.4598,W,5.5,24,050722,11.8,E,A,V*64
20220705 120533+00:00 $HCHDT,23.3,T*1B
20220705 120533+00:00 $WIMWV,359.79,R,10.19,N,A*1B
20220705 120535+00:00 $IIMDA,29.9,I,1.013,B,13.6,C,,C,88.6,,,C,,T,,M,,N,,M*29
20220705 120535+00:00 $GPRMC,120530,A,4923.5098,N,12325.4598,W,5.5,24,050722,11.8,E,A,V*6B
20220705 120535+00:00 $HCHDT,23.3,T*1B
20220705 120535+00:00 $WIMWV,12.9,R,8.98,N,A*20
20220705 120537+00:00 $IIMDA,29.9,I,1.013,B,13.6,C,,C,88.6,,,C,,T,,M,,N,,M*29
20220705 120537+00:00 $GPRMC,120532,A,4923.5098,N,12325.4598,W,5.5,24,050722,11.8,E,A,V*69
20220705 120537+00:00 $HCHDT,23.2,T*1A
20220705 120537+00:00 $WIMWV,339.49,R,8.59,N,A*23
20220705 120539+00:00 $IIMDA,29.9,I,1.013,B,13.6,C,,C,88.6,,,C,,T,,M,,N,,M*29
20220705 120539+00:00 $GPRMC,120534,A,4923.5098,N,12325.4598,W,5.5,24,050722,11.8,E,A,V*6F
20220705 120539+00:00 $HCHDT,23.1,T*19
20220705 120539+00:00 $WIMWV,0.19,R,5.6,N,A*18
20220705 120541+00:00 $IIMDA,29.9,I,1.013,B,13.6,C,,C,88.5,,,C,,T,,M,,N,,M*2A
20220705 120541+00:00 $GPRMC,120536,A,4923.5098,N,12325.4598,W,5.4,24,050722,11.8,E,A,V*6C
20220705 120541+00:00 $HCHDT,23,T*06
20220705 120541+00:00 $WIMWV,356.89,R,7.1,N,A*14
20220705 120543+00:00 $IIMDA,29.9,I,1.013,B,13.6,C,,C,88.5,,,C,,T,,M,,N,,M*2A
20220705 120543+00:00 $GPRMC,120538,A,4923.5200,N,12325.4598,W,5.4,24,050722,11.8,E,A,V*61
20220705 120543+00:00 $HCHDT,22.9,T*10
20220705 120543+00:00 $WIMWV,2.4,R,8.09,N,A*14
20220705 120545+00:00 $IIMDA,29.9,I,1.013,B,13.6,C,,C,88.5,,,C,,T,,M,,N,,M*2A
20220705 120545+00:00 $GPRMC,120540,A,4923.5200,N,12325.4496,W,5.4,24,050722,11.8,E,A,V*61
20220705 120545+00:00 $HCHDT,22.8,T*11
20220705 120545+00:00 $WIMWV,359.49,R,7.89,N,A*27
20220705 120547+00:00 $IIMDA,29.9,I,1.013,B,13.6,C,,C,88.5,,,C,,T,,M,,N,,M*2A
20220705 120547+00:00 $GPRMC,120542,A,4923.5200,N,12325.4496,W,5.4,23,050722,11.8,E,A,V*64
20220705 120547+00:00 $HCHDT,22.6,T*1F
20220705 120547+00:00 $WIMWV,354.09,R,9.1,N,A*10
20220705 120549+00:00 $IIMDA,29.9,I,1.013,B,13.6,C,,C,88.5,,,C,,T,,M,,N,,M*2A
20220705 120549+00:00 $GPRMC,120544,A,4923.5296,N,12325.4496,W,5.5,23,050722,11.8,E,A,V*6C
20220705 120549+00:00 $HCHDT,22.4,T*1D
20220705 120549+00:00 $WIMWV,359.19,R,9.29,N,A*26
20220705 120551+00:00 $IIMDA,29.9,I,1.013,B,13.6,C,,C,88.5,,,C,,T,,M,,N,,M*2A
20220705 120551+00:00 $GPRMC,120546,A,4923.5296,N,12325.4496,W,5.5,23,050722,11.8,E,A,V*6E
20220705 120551+00:00 $HCHDT,22.3,T*1A
20220705 120551+00:00 $WIMWV,355.89,R,9.68,N,A*26
20220705 120553+00:00 $IIMDA,29.9,I,1.013,B,13.6,C,,C,88.5,,,C,,T,,M,,N,,M*2A
20220705 120553+00:00 $GPRMC,120548,A,4923.5296,N,12325.4496,W,5.5,23,050722,11.8,E,A,V*60
20220705 120553+00:00 $HCHDT,22.2,T*1B
20220705 120553+00:00 $WIMWV,359.29,R,10.09,N,A*1F
20220705 120555+00:00 $IIMDA,29.9,I,1.013,B,13.6,C,,C,88.5,,,C,,T,,M,,N,,M*2A
20220705 120555+00:00 $GPRMC,120550,A,4923.5296,N,12325.4400,W,5.5,23,050722,11.8,E,A,V*66
20220705 120555+00:00 $HCHDT,22.1,T*18
20220705 120555+00:00 $WIMWV,0.19,R,9.68,N,A*2C
20220705 120557+00:00 $IIMDA,29.9,I,1.013,B,13.6,C,,C,88.6,,,C,,T,,M,,N,,M*29
20220705 120557+00:00 $GPRMC,120552,A,4923.5398,N,12325.4400,W,5.5,23,050722,11.8,E,A,V*6B
20220705 120557+00:00 $HCHDT,22,T*07
20220705 120557+00:00 $WIMWV,3.1,R,6.4,N,A*23
20220705 120559+00:00 $IIMDA,29.9,I,1.013,B,13.6,C,,C,88.6,,,C,,T,,M,,N,,M*29
20220705 120559+00:00 $GPRMC,120554,A,4923.5398,N,12325.4400,W,5.4,23,050722,11.8,E,A,V*6C
20220705 120559+00:00 $HCHDT,22,T*07
20220705 120559+00:00 $WIMWV,0.9,R,10.79,N,A*25
20220705 120601+00:00 $IIMDA,29.9,I,1.013,B,13.6,C,,C,88.7,,,C,,T,,M,,N,,M*28
20220705 120601+00:00 $GPRMC,120556,A,4923.5398,N,12325.4400,W,5.4,23,050722,11.8,E,A,V*6E
20220705 120601+00:00 $HCHDT,22,T*07
20220705 120601+00:00 $WIMWV,359.69,R,8.88,N,A*2B
20220705 120603+00:00 $IIMDA,29.9,I,1.013,B,13.6,C,,C,88.7,,,C,,T,,M,,N,,M*28
20220705 120603+00:00 $GPRMC,120558,A,4923.5500,N,12325.4400,W,5.4,23,050722,11.8,E,A,V*67
20220705 120603+00:00 $HCHDT,22,T*07
20220705 120603+00:00 $WIMWV,2.19,R,4.68,N,A*23
20220705 120605+00:00 $IIMDA,29.9,I,1.013,B,13.6,C,,C,88.7,,,C,,T,,M,,N,,M*28
20220705 120605+00:00 $GPRMC,120600,A,4923.5500,N,12325.4400,W,5.4,23,050722,11.8,E,A,V*69
20220705 120605+00:00 $HCHDT,22.1,T*18
20220705 120605+00:00 $WIMWV,0.19,R,9.58,N,A*2F
20220705 120607+00:00 $IIMDA,29.9,I,1.013,B,13.6,C,,C,88.7,,,C,,T,,M,,N,,M*28
20220705 120607+00:00 $GPRMC,120602,A,4923.5500,N,12325.4298,W,5.4,23,050722,11.8,E,A,V*6C
20220705 120607+00:00 $HCHDT,22.1,T*18
20220705 120607+00:00 $WIMWV,358.39,R,8.28,N,A*25
20220705 120609+00:00 $IIMDA,29.9,I,1.013,B,13.6,C,,C,88.7,,,C,,T,,M,,N,,M*28
20220705 120609+00:00 $GPRMC,120604,A,4923.5500,N,12325.4298,W,5.4,23,050722,11.8,E,A,V*6A
20220705 120609+00:00 $HCHDT,22.2,T*1B
20220705 120609+00:00 $WIMWV,351.79,R,9.39,N,A*29
20220705 120611+00:00 $IIMDA,29.9,I,1.013,B,13.6,C,,C,88.6,,,C,,T,,M,,N,,M*29
20220705 120611+00:00 $GPRMC,120606,A,4923.5596,N,12325.4298,W,5.4,23,050722,11.8,E,A,V*67
20220705 120611+00:00 $HCHDT,22.2,T*1B
20220705 120611+00:00 $WIMWV,358.49,R,10.79,N,A*1F
20220705 120613+00:00 $IIMDA,29.9,I,1.013,B,13.6,C,,C,88.6,,,C,,T,,M,,N,,M*29
20220705 120613+00:00 $GPRMC,120608,A,4923.5596,N,12325.4298,W,5.4,23,050722,11.8,E,A,V*69
20220705 120613+00:00 $HCHDT,22.3,T*1A
20220705 120613+00:00 $WIMWV,354.99,R,12.69,N,A*1D
20220705 120615+00:00 $IIMDA,29.9,I,1.013,B,13.6,C,,C,88.6,,,C,,T,,M,,N,,M*29
20220705 120615+00:00 $GPRMC,120610,A,4923.5596,N,12325.4298,W,5.4,23,050722,11.8,E,A,V*60
20220705 120615+00:00 $HCHDT,22.3,T*1A
20220705 120615+00:00 $WIMWV,357.59,R,11.59,N,A*12
20220705 120617+00:00 $IIMDA,29.9,I,1.013,B,13.6,C,,C,88.7,,,C,,T,,M,,N,,M*28
20220705 120617+00:00 $GPRMC,120612,A,4923.5596,N,12325.4196,W,5.4,23,050722,11.8,E,A,V*6F
20220705 120617+00:00 $HCHDT,22.4,T*1D
20220705 120617+00:00 $WIMWV,357.19,R,12.19,N,A*11
20220705 120619+00:00 $IIMDA,29.9,I,1.013,B,13.6,C,,C,88.8,,,C,,T,,M,,N,,M*27
20220705 120619+00:00 $GPRMC,120614,A,4923.5698,N,12325.4196,W,5.5,23,050722,11.8,E,A,V*65
20220705 120619+00:00 $HCHDT,22.5,T*1C
20220705 120619+00:00 $WIMWV,357.89,R,10.89,N,A*13
20220705 120621+00:00 $IIMDA,29.9,I,1.013,B,13.6,C,,C,88.8,,,C,,T,,M,,N,,M*27
20220705 120621+00:00 $GPRMC,120616,A,4923.5698,N,12325.4196,W,5.5,23,050722,11.8,E,A,V*67
20220705 120621+00:00 $HCHDT,22.6,T*1F
20220705 120621+00:00 $WIMWV,0.9,R,9.8,N,A*2B
20220705 120623+00:00 $IIMDA,29.9,I,1.013,B,13.6,C,,C,88.9,,,C,,T,,M,,N,,M*26
20220705 120623+00:00 $GPRMC,120618,A,4923.5698,N,12325.4196,W,5.5,23,050722,11.8,E,A,V*69
20220705 120623+00:00 $HCHDT,22.8,T*11
20220705 120623+00:00 $WIMWV,358.19,R,9.49,N,A*21
20220705 120625+00:00 $IIMDA,29.9,I,1.013,B,13.6,C,,C,89,,,C,,T,,M,,N,,M*30
20220705 120625+00:00 $GPRMC,120620,A,4923.5800,N,12325.4196,W,5.5,23,050722,11.8,E,A,V*6D
20220705 120625+00:00 $HCHDT,22.9,T*10
20220705 120625+00:00 $WIMWV,336.09,R,7,N,A*05
20220705 120627+00:00 $IIMDA,29.9,I,1.013,B,13.6,C,,C,89,,,C,,T,,M,,N,,M*30
20220705 120627+00:00 $GPRMC,120622,A,4923.5800,N,12325.4196,W,5.5,24,050722,11.8,E,A,V*68
20220705 120627+00:00 $HCHDT,22.9,T*10
20220705 120627+00:00 $WIMWV,76.3,R,4.08,N,A*2D
20220705 120629+00:00 $IIMDA,29.9,I,1.013,B,13.6,C,,C,89.1,,,C,,T,,M,,N,,M*2F
20220705 120629+00:00 $GPRMC,120624,A,4923.5800,N,12325.4100,W,5.5,24,050722,11.8,E,A,V*61
20220705 120629+00:00 $HCHDT,23,T*06
20220705 120629+00:00 $WIMWV,357.69,R,5.38,N,A*23
20220705 120631+00:00 $IIMDA,29.9,I,1.013,B,13.6,C,,C,89.1,,,C,,T,,M,,N,,M*2F
20220705 120631+00:00 $GPRMC,120626,A,4923.5800,N,12325.4100,W,5.5,24,050722,11.8,E,A,V*63
20220705 120631+00:00 $HCHDT,23,T*06
20220705 120631+00:00 $WIMWV,330.59,R,7.1,N,A*19
20220705 120633+00:00 $IIMDA,29.9,I,1.013,B,13.6,C,,C,89.1,,,C,,T,,M,,N,,M*2F
20220705 120633+00:00 $GPRMC,120628,A,4923.5896,N,12325.4100,W,5.5,24,050722,11.8,E,A,V*62
20220705 120633+00:00 $HCHDT,23,T*06
20220705 120633+00:00 $WIMWV,356.69,R,10.5,N,A*28
20220705 120635+00:00 $IIMDA,29.9,I,1.013,B,13.6,C,,C,89.1,,,C,,T,,M,,N,,M*2F
20220705 120635+00:00 $GPRMC,120630,A,4923.5896,N,12325.4100,W,5.5,24,050722,11.8,E,A,V*6B
20220705 120635+00:00 $HCHDT,23.1,T*19
20220705 120635+00:00 $WIMWV,356.89,R,7.29,N,A*2E
20220705 120637+00:00 $IIMDA,29.9,I,1.013,B,13.6,C,,C,89.1,,,C,,T,,M,,N,,M*2F
20220705 120637+00:00 $GPRMC,120632,A,4923.5896,N,12325.4100,W,5.5,24,050722,11.8,E,A,V*69
20220705 120637+00:00 $HCHDT,23.1,T*19
20220705 120637+00:00 $WIMWV,349.89,R,7.89,N,A*2A
20220705 120639+00:00 $IIMDA,29.9,I,1.013,B,13.6,C,,C,89.1,,,C,,T,,M,,N,,M*2F
20220705 120639+00:00 $GPRMC,120634,A,4923.5998,N,12325.3998,W,5.5,24,050722,11.8,E,A,V*6E
20220705 120639+00:00 $HCHDT,23.2,T*1A
20220705 120639+00:00 $WIMWV,357.99,R,9.49,N,A*26
20220705 120641+00:00 $IIMDA,29.9,I,1.013,B,13.6,C,,C,89.1,,,C,,T,,M,,N,,M*2F
20220705 120641+00:00 $GPRMC,120636,A,4923.5998,N,12325.3998,W,5.5,24,050722,11.8,E,A,V*6C
20220705 120641+00:00 $HCHDT,23.3,T*1B
20220705 120641+00:00 $WIMWV,9.2,R,8.79,N,A*1E
20220705 120643+00:00 $IIMDA,29.9,I,1.013,B,13.6,C,,C,89,,,C,,T,,M,,N,,M*30
20220705 120643+00:00 $GPRMC,120638,A,4923.5998,N,12325.3998,W,5.5,24,050722,11.8,E,A,V*62
20220705 120643+00:00 $HCHDT,23.4,T*1C
20220705 120643+00:00 $WIMWV,353.99,R,9.68,N,A*21
20220705 120645+00:00 $IIMDA,29.9,I,1.013,B,13.6,C,,C,89,,,C,,T,,M,,N,,M*30
20220705 120645+00:00 $GPRMC,120640,A,4923.5998,N,12325.3998,W,5.5,24,050722,11.8,E,A,V*6D
20220705 120645+00:00 $HCHDT,23.5,T*1D
20220705 120645+00:00 $WIMWV,356.99,R,11.08,N,A*1B
20220705 120647+00:00 $IIMDA,29.9,I,1.013,B,13.6,C,,C,89,,,C,,T,,M,,N,,M*30
20220705 120647+00:00 $GPRMC,120642,A,4923.6100,N,12325.3998,W,5.5,24,050722,11.8,E,A,V*65
20220705 120647+00:00 $HCHDT,23.5,T*1D
20220705 120647+00:00 $WIMWV,0.1,R,11.39,N,A*28
20220705 120649+00:00 $IIMDA,29.9,I,1.013,B,13.6,C,,C,89,,,C,,T,,M,,N,,M*30
20220705 120649+00:00 $GPRMC,120644,A,4923.6100,N,12325.3896,W,5.5,24,050722,11.8,E,A,V*6C
20220705 120649+00:00 $HCHDT,23.6,T*1E
20220705 120649+00:00 $WIMWV,5.6,R,8.18,N,A*11
20220705 120651+00:00 $IIMDA,29.9,I,1.013,B,13.6,C,,C,88.9,,,C,,T,,M,,N,,M*26
20220705 120651+00:00 $GPRMC,120646,A,4923.6100,N,12325.3896,W,5.5,24,050722,11.8,E,A,V*6E
20220705 120651+00:00 $HCHDT,23.7,T*1F
20220705 120651+00:00 $WIMWV,355.09,R,7.29,N,A*25
20220705 120653+00:00 $IIMDA,29.9,I,1.013,B,13.6,C,,C,88.9,,,C,,T,,M,,N,,M*26
20220705 120653+00:00 $GPRMC,120648,A,4923.6100,N,12325.3896,W,5.5,25,050722,11.8,E,A,V*61
20220705 120653+00:00 $HCHDT,23.7,T*1F
20220705 120653+00:00 $WIMWV,359.39,R,10.5,N,A*22
20220705 120655+00:00 $IIMDA,29.9,I,1.013,B,13.6,C,,C,88.9,,,C,,T,,M,,N,,M*26
20220705 120655+00:00 $GPRMC,120650,A,4923.6196,N,12325.3896,W,5.5,25,050722,11.8,E,A,V*67
20220705 120655+00:00 $HCHDT,23.8,T*10
20220705 120655+00:00 $WIMWV,359.49,R,9.8,N,A*10
20220705 120657+00:00 $IIMDA,29.9,I,1.013,B,13.6,C,,C,88.9,,,C,,T,,M,,N,,M*26
20220705 120657+00:00 $GPRMC,120652,A,4923.6196,N,12325.3896,W,5.5,25,050722,11.8,E,A,V*65
20220705 120657+00:00 $HCHDT,23.9,T*11
20220705 120657+00:00 $WIMWV,356.79,R,10.38,N,A*17
20220705 120659+00:00 $IIMDA,29.9,I,1.013,B,13.6,C,,C,88.9,,,C,,T,,M,,N,,M*26
20220705 120659+00:00 $GPRMC,120654,A,4923.6196,N,12325.3800,W,5.5,25,050722,11.8,E,A,V*6C
20220705 120659+00:00 $HCHDT,24,T*01
20220705 120659+00:00 $WIMWV,5.9,R,4.39,N,A*11
20220705 120701+00:00 $IIMDA,29.9,I,1.013,B,13.6,C,,C,88.9,,,C,,T,,M,,N,,M*26
20220705 120701+00:00 $GPRMC,120656,A,4923.6298,N,12325.3800,W,5.5,25,050722,11.8,E,A,V*63
20220705 120701+00:00 $HCHDT,24,T*01
20220705 120701+00:00 $WIMWV,8.2,R,4.78,N,A*12
20220705 120703+00:00 $IIMDA,29.9,I,1.013,B,13.6,C,,C,88.9,,,C,,T,,M,,N,,M*26
20220705 120703+00:00 $GPRMC,120658,A,4923.6298,N,12325.3800,W,5.5,25,050722,11.8,E,A,V*6D
20220705 120703+00:00 $HCHDT,23.7,T*1F
20220705 120703+00:00 $WIMWV,1.8,R,10.38,N,A*20
20220705 120705+00:00 $IIMDA,29.9,I,1.013,B,13.6,C,,C,88.8,,,C,,T,,M,,N,,M*27
20220705 120705+00:00 $GPRMC,120700,A,4923.6298,N,12325.3800,W,5.5,25,050722,11.8,E,A,V*61
20220705 120705+00:00 $HCHDT,23,T*06
20220705 120705+00:00 $WIMWV,358.29,R,9.39,N,A*25
20220705 120707+00:00 $IIMDA,29.9,I,1.013,B,13.6,C,,C,88.9,,,C,,T,,M,,N,,M*26
20220705 120707+00:00 $GPRMC,120702,A,4923.6298,N,12325.3800,W,5.5,25,050722,11.8,E,A,V*63
20220705 120707+00:00 $HCHDT,22,T*07
20220705 120707+00:00 $WIMWV,5,R,7.89,N,A*0E
20220705 120709+00:00 $IIMDA,29.9,I,1.013,B,13.6,C,,C,88.9,,,C,,T,,M,,N,,M*26
20220705 120709+00:00 $GPRMC,120704,A,4923.6400,N,12325.3698,W,5.5,24,050722,11.8,E,A,V*6C
20220705 120709+00:00 $HCHDT,20.8,T*13
20220705 120709+00:00 $WIMWV,356.79,R,3.38,N,A*25
20220705 120711+00:00 $IIMDA,29.9,I,1.013,B,13.6,C,,C,88.9,,,C,,T,,M,,N,,M*26
20220705 120711+00:00 $GPRMC,120706,A,4923.6400,N,12325.3698,W,5.5,24,050722,11.8,E,A,V*6E
20220705 120711+00:00 $HCHDT,19.5,T*14
20220705 120711+00:00 $WIMWV,351.39,R,9.19,N,A*2F
20220705 120713+00:00 $IIMDA,29.9,I,1.013,B,13.6,C,,C,88.9,,,C,,T,,M,,N,,M*26
20220705 120713+00:00 $GPRMC,120708,A,4923.6400,N,12325.3698,W,5.5,23,050722,11.8,E,A,V*67
20220705 120713+00:00 $HCHDT,18.5,T*15
20220705 120713+00:00 $WIMWV,356.29,R,10.5,N,A*2C
20220705 120715+00:00 $IIMDA,29.9,I,1.013,B,13.6,C,,C,88.9,,,C,,T,,M,,N,,M*26
20220705 120715+00:00 $GPRMC,120710,A,4923.6496,N,12325.3698,W,5.5,22,050722,11.8,E,A,V*60
20220705 120715+00:00 $HCHDT,17.7,T*18
20220705 120715+00:00 $WIMWV,359.49,R,5.6,N,A*12
20220705 120717+00:00 $IIMDA,29.9,I,1.013,B,13.6,C,,C,88.9,,,C,,T,,M,,N,,M*26
20220705 120717+00:00 $GPRMC,120712,A,4923.6496,N,12325.3698,W,5.5,21,050722,11.8,E,A,V*61
20220705 120717+00:00 $HCHDT,17.1,T*1E
20220705 120717+00:00 $WIMWV,1.9,R,3.6,N,A*2E
20220705 120719+00:00 $IIMDA,29.9,I,1.013,B,13.6,C,,C,88.8,,,C,,T,,M,,N,,M*27
20220705 120719+00:00 $GPRMC,120714,A,4923.6496,N,12325.3698,W,5.5,20,050722,11.8,E,A,V*66
20220705 120719+00:00 $HCHDT,16.7,T*19
20220705 120719+00:00 $WIMWV,356.39,R,7.7,N,A*19
20220705 120721+00:00 $IIMDA,29.9,I,1.013,B,13.6,C,,C,88.8,,,C,,T,,M,,N,,M*27
20220705 120721+00:00 $GPRMC,120716,A,4923.6496,N,12325.3698,W,5.5,19,050722,11.8,E,A,V*6E
20220705 120721+00:00 $HCHDT,16.5,T*1B
20220705 120721+00:00 $WIMWV,352.79,R,4.49,N,A*20
20220705 120723+00:00 $IIMDA,29.9,I,1.013,B,13.6,C,,C,88.8,,,C,,T,,M,,N,,M*27
20220705 120723+00:00 $GPRMC,120718,A,4923.6598,N,12325.3596,W,5.5,19,050722,11.8,E,A,V*62
20220705 120723+00:00 $HCHDT,16.6,T*18
20220705 120723+00:00 $WIMWV,13.3,R,4.3,N,A*15
20220705 120725+00:00 $IIMDA,29.9,I,1.013,B,13.6,C,,C,88.8,,,C,,T,,M,,N,,M*27
20220705 120725+00:00 $GPRMC,120720,A,4923.6598,N,12325.3596,W,5.5,18,050722,11.8,E,A,V*68
20220705 120725+00:00 $HCHDT,16.7,T*19
20220705 120725+00:00 $WIMWV,355.79,R,6.18,N,A*21
20220705 120727+00:00 $IIMDA,29.9,I,1.013,B,13.6,C,,C,88.8,,,C,,T,,M,,N,,M*27
20220705 120727+00:00 $GPRMC,120722,A,4923.6598,N,12325.3596,W,5.5,18,050722,11.8,E,A,V*6A
20220705 120727+00:00 $HCHDT,16.9,T*17
20220705 120727+00:00 $WIMWV,351.59,R,6.88,N,A*2E
20220705 120729+00:00 $IIMDA,29.9,I,1.013,B,13.6,C,,C,88.8,,,C,,T,,M,,N,,M*27
20220705 120729+00:00 $GPRMC,120724,A,4923.6700,N,12325.3596,W,5.5,18,050722,11.8,E,A,V*6F
20220705 120729+00:00 $HCHDT,17.2,T*1D
20220705 120729+00:00 $WIMWV,359.39,R,9.39,N,A*25
20220705 120731+00:00 $IIMDA,29.9,I,1.013,B,13.6,C,,C,88.8,,,C,,T,,M,,N,,M*27
20220705 120731+00:00 $GPRMC,120726,A,4923.6700,N,12325.3596,W,5.5,18,050722,11.8,E,A,V*6D
20220705 120731+00:00 $HCHDT,17.4,T*1B
20220705 120731+00:00 $WIMWV,356.19,R,9.68,N,A*2C
20220705 120733+00:00 $IIMDA,29.9,I,1.013,B,13.6,C,,C,88.8,,,C,,T,,M,,N,,M*27
20220705 120733+00:00 $GPRMC,120728,A,4923.6700,N,12325.3596,W,5.5,18,050722,11.8,E,A,V*63
20220705 120733+00:00 $HCHDT,17.7,T*18
20220705 120733+00:00 $WIMWV,3.4,R,8.88,N,A*1C
20220705 120735+00:00 $IIMDA,29.9,I,1.013,B,13.6,C,,C,88.8,,,C,,T,,M,,N,,M*27
20220705 120735+00:00 $GPRMC,120730,A,4923.6700,N,12325.3596,W,5.5,18,050722,11.8,E,A,V*6A
20220705 120735+00:00 $HCHDT,18.1,T*11
20220705 120735+00:00 $WIMWV,0.19,R,9.39,N,A*28
20220705 120737+00:00 $IIMDA,29.9,I,1.013,B,13.6,C,,C,88.8,,,C,,T,,M,,N,,M*27
20220705 120737+00:00 $GPRMC,120732,A,4923.6796,N,12325.3500,W,5.5,18,050722,11.8,E,A,V*68
20220705 120737+00:00 $HCHDT,18.4,T*14
20220705 120737+00:00 $WIMWV,38.59,R,2.9,N,A*2F
20220705 120739+00:00 $IIMDA,29.9,I,1.013,B,13.6,C,,C,88.8,,,C,,T,,M,,N,,M*27
20220705 120739+00:00 $GPRMC,120734,A,4923.6796,N,12325.3500,W,5.5,18,050722,11.8,E,A,V*6E
20220705 120739+00:00 $HCHDT,18.6,T*16
20220705 120739+00:00 $WIMWV,0.1,R,8.49,N,A*17
20220705 120741+00:00 $IIMDA,29.9,I,1.013,B,13.6,C,,C,88.9,,,C,,T,,M,,N,,M*26
20220705 120741+00:00 $GPRMC,120736,A,4923.6796,N,12325.3500,W,5.5,18,050722,11.8,E,A,V*6C
20220705 120741+00:00 $HCHDT,18.7,T*17
20220705 120741+00:00 $WIMWV,357.39,R,9.49,N,A*2C
20220705 120743+00:00 $IIMDA,29.9,I,1.013,B,13.6,C,,C,88.9,,,C,,T,,M,,N,,M*26
20220705 120743+00:00 $GPRMC,120738,A,4923.6898,N,12325.3500,W,5.5,18,050722,11.8,E,A,V*63
20220705 120743+00:00 $HCHDT,18.7,T*17
20220705 120743+00:00 $WIMWV,346.99,R,8.98,N,A*2B
20220705 120745+00:00 $IIMDA,29.9,I,1.013,B,13.6,C,,C,88.9,,,C,,T,,M,,N,,M*26
20220705 120745+00:00 $GPRMC,120740,A,4923.6898,N,12325.3500,W,5.5,19,050722,11.8,E,A,V*6D
20220705 120745+00:00 $HCHDT,18.6,T*16
20220705 120745+00:00 $WIMWV,356.89,R,9.8,N,A*13
