20220704 010001+00:00 $IIMDA,29.8,I,1.01,B,13.9,C,,C,91.8,,,C,,T,,M,,N,,M*12
20220704 010001+00:00 $HCHDT,152,T*31
20220704 010001+00:00 $GPRMC,005956,A,4938.8998,N,12605.6196,W,0.1,124,040722,12.2,E,A,V*58
20220704 010001+00:00 $WIMWV,339.89,R,1.09,N,A*23
20220704 010003+00:00 $IIMDA,29.8,I,1.01,B,13.9,C,,C,91.8,,,C,,T,,M,,N,,M*12
20220704 010003+00:00 $HCHDT,151.9,T*25
20220704 010003+00:00 $GPRMC,005958,A,4938.8998,N,12605.6196,W,0.1,123,040722,12.2,E,A,V*51
20220704 010003+00:00 $WIMWV,351.69,R,1.09,N,A*23
20220704 010005+00:00 $IIMDA,29.8,I,1.01,B,13.9,C,,C,91.8,,,C,,T,,M,,N,,M*12
20220704 010005+00:00 $HCHDT,151.9,T*25
20220704 010005+00:00 $GPRMC,010000,A,4938.8998,N,12605.6196,W,0.1,121,040722,12.2,E,A,V*53
20220704 010005+00:00 $WIMWV,334.19,R,1.28,N,A*24
20220704 010007+00:00 $IIMDA,29.8,I,1.01,B,13.9,C,,C,91.9,,,C,,T,,M,,N,,M*13
20220704 010007+00:00 $HCHDT,151.7,T*2B
20220704 010007+00:00 $GPRMC,010002,A,4938.8998,N,12605.6196,W,0.1,120,040722,12.2,E,A,V*50
20220704 010007+00:00 $WIMWV,326.69,R,1.19,N,A*22
20220704 010009+00:00 $IIMDA,29.8,I,1.01,B,13.9,C,,C,91.8,,,C,,T,,M,,N,,M*12
20220704 010009+00:00 $HCHDT,151.6,T*2A
20220704 010009+00:00 $GPRMC,010004,A,4938.8998,N,12605.6196,W,0.1,119,040722,12.2,E,A,V*5C
20220704 010009+00:00 $WIMWV,327.29,R,1.4,N,A*1B
20220704 010011+00:00 $IIMDA,29.9,I,1.011,B,13.9,C,,C,91.8,,,C,,T,,M,,N,,M*22
20220704 010011+00:00 $HCHDT,151.6,T*2A
20220704 010011+00:00 $GPRMC,010006,A,4938.8998,N,12605.6196,W,0.1,118,040722,12.2,E,A,V*5F
20220704 010011+00:00 $WIMWV,331.49,R,1.4,N,A*1A
20220704 010013+00:00 $IIMDA,29.9,I,1.011,B,13.9,C,,C,91.8,,,C,,T,,M,,N,,M*22
20220704 010013+00:00 $HCHDT,151.5,T*29
20220704 010013+00:00 $GPRMC,010008,A,4938.8998,N,12605.6196,W,0.1,116,040722,12.2,E,A,V*5F
20220704 010013+00:00 $WIMWV,336.09,R,1.19,N,A*25
20220704 010015+00:00 $IIMDA,29.9,I,1.011,B,13.9,C,,C,91.9,,,C,,T,,M,,N,,M*23
20220704 010015+00:00 $HCHDT,151.4,T*28
20220704 010015+00:00 $GPRMC,010010,A,4938.8998,N,12605.6196,W,0.1,114,040722,12.2,E,A,V*54
20220704 010015+00:00 $WIMWV,351.59,R,1.79,N,A*27
20220704 010017+00:00 $IIMDA,29.9,I,1.011,B,13.9,C,,C,91.9,,,C,,T,,M,,N,,M*23
20220704 010017+00:00 $HCHDT,151.3,T*2F
20220704 010017+00:00 $GPRMC,010012,A,4938.8998,N,12605.6196,W,0.1,114,040722,12.2,E,A,V*56
20220704 010017+00:00 $WIMWV,0.19,R,0.99,N,A*2B
20220704 010019+00:00 $IIMDA,29.9,I,1.011,B,13.9,C,,C,91.8,,,C,,T,,M,,N,,M*22
20220704 010019+00:00 $HCHDT,151.2,T*2E
20220704 010019+00:00 $GPRMC,010014,A,4938.8998,N,12605.6196,W,0.1,113,040722,12.2,E,A,V*57
20220704 010019+00:00 $WIMWV,57.59,R,0.7,N,A*2A
20220704 010021+00:00 $IIMDA,29.9,I,1.011,B,13.9,C,,C,91.9,,,C,,T,,M,,N,,M*23
20220704 010021+00:00 $HCHDT,151.1,T*2D
20220704 010021+00:00 $GPRMC,010016,A,4938.8998,N,12605.6196,W,0.1,112,040722,12.2,E,A,V*54
20220704 010021+00:00 $WIMWV,33.29,R,0.99,N,A*18
20220704 010023+00:00 $IIMDA,29.9,I,1.011,B,13.9,C,,C,91.8,,,C,,T,,M,,N,,M*22
20220704 010023+00:00 $HCHDT,151,T*32
20220704 010023+00:00 $GPRMC,010018,A,4938.8998,N,12605.6196,W,0.1,111,040722,12.2,E,A,V*59
20220704 010023+00:00 $WIMWV,52,R,2.2,N,A*0A
20220704 010025+00:00 $IIMDA,29.8,I,1.01,B,13.9,C,,C,91.8,,,C,,T,,M,,N,,M*12
20220704 010025+00:00 $HCHDT,151,T*32
20220704 010025+00:00 $GPRMC,010020,A,4938.8998,N,12605.6196,W,0.1,110,040722,12.2,E,A,V*53
20220704 010025+00:00 $WIMWV,58.1,R,2.29,N,A*26
20220704 010027+00:00 $IIMDA,29.8,I,1.01,B,13.9,C,,C,91.8,,,C,,T,,M,,N,,M*12
20220704 010027+00:00 $HCHDT,150.9,T*24
20220704 010027+00:00 $GPRMC,010022,A,4938.8998,N,12605.6196,W,0.1,109,040722,12.2,E,A,V*59
20220704 010027+00:00 $WIMWV,48.7,R,2.59,N,A*26
20220704 010029+00:00 $IIMDA,29.8,I,1.01,B,13.9,C,,C,91.8,,,C,,T,,M,,N,,M*12
20220704 010029+00:00 $HCHDT,150.9,T*24
20220704 010029+00:00 $GPRMC,010024,A,4938.8998,N,12605.6196,W,0,109,040722,12.2,E,A,V*40
20220704 010029+00:00 $WIMWV,60.4,R,2.2,N,A*11
20220704 010031+00:00 $IIMDA,29.8,I,1.01,B,13.9,C,,C,91.8,,,C,,T,,M,,N,,M*12
20220704 010031+00:00 $HCHDT,150.8,T*25
20220704 010031+00:00 $GPRMC,010026,A,4938.8998,N,12605.6196,W,0,109,040722,12.2,E,A,V*42
20220704 010031+00:00 $WIMWV,30.8,R,2.29,N,A*21
20220704 010033+00:00 $IIMDA,29.9,I,1.011,B,13.9,C,,C,91.8,,,C,,T,,M,,N,,M*22
20220704 010033+00:00 $HCHDT,150.8,T*25
20220704 010033+00:00 $GPRMC,010028,A,4938.8998,N,12605.6196,W,0,110,040722,12.2,E,A,V*44
20220704 010033+00:00 $WIMWV,25.59,R,1.98,N,A*18
20220704 010035+00:00 $IIMDA,29.8,I,1.01,B,13.9,C,,C,91.8,,,C,,T,,M,,N,,M*12
20220704 010035+00:00 $HCHDT,150.9,T*24
20220704 010035+00:00 $GPRMC,010030,A,4938.8998,N,12605.6196,W,0,111,040722,12.2,E,A,V*4C
20220704 010035+00:00 $WIMWV,29.7,R,2.1,N,A*1C
20220704 010037+00:00 $IIMDA,29.8,I,1.01,B,13.9,C,,C,91.8,,,C,,T,,M,,N,,M*12
20220704 010037+00:00 $HCHDT,150.8,T*25
20220704 010037+00:00 $GPRMC,010032,A,4938.8998,N,12605.6196,W,0,112,040722,12.2,E,A,V*4D
20220704 010037+00:00 $WIMWV,55,R,2.68,N,A*31
20220704 010039+00:00 $IIMDA,29.8,I,1.01,B,13.9,C,,C,91.7,,,C,,T,,M,,N,,M*1D
20220704 010039+00:00 $HCHDT,150.9,T*24
20220704 010039+00:00 $GPRMC,010034,A,4938.8998,N,12605.6196,W,0,113,040722,12.2,E,A,V*4A
20220704 010039+00:00 $WIMWV,11.8,R,0.99,N,A*2B
20220704 010041+00:00 $IIMDA,29.8,I,1.01,B,13.9,C,,C,91.7,,,C,,T,,M,,N,,M*1D
20220704 010041+00:00 $HCHDT,150.9,T*24
20220704 010041+00:00 $GPRMC,010036,A,4938.8998,N,12605.6196,W,0,115,040722,12.2,E,A,V*4E
20220704 010041+00:00 $WIMWV,66.3,R,2.49,N,A*2F
20220704 010043+00:00 $IIMDA,29.8,I,1.01,B,13.9,C,,C,91.7,,,C,,T,,M,,N,,M*1D
20220704 010043+00:00 $HCHDT,150.9,T*24
20220704 010043+00:00 $GPRMC,010038,A,4938.8998,N,12605.6196,W,0,115,040722,12.2,E,A,V*40
20220704 010043+00:00 $WIMWV,59.3,R,3.79,N,A*21
20220704 010045+00:00 $IIMDA,29.8,I,1.01,B,13.9,C,,C,91.7,,,C,,T,,M,,N,,M*1D
20220704 010045+00:00 $HCHDT,150.8,T*25
20220704 010045+00:00 $GPRMC,010040,A,4938.8998,N,12605.6196,W,0,113,040722,12.2,E,A,V*49
20220704 010045+00:00 $WIMWV,48.7,R,2.59,N,A*26
20220704 010047+00:00 $IIMDA,29.8,I,1.01,B,13.9,C,,C,91.7,,,C,,T,,M,,N,,M*1D
20220704 010047+00:00 $HCHDT,150.8,T*25
20220704 010047+00:00 $GPRMC,010042,A,4938.8998,N,12605.6196,W,0,112,040722,12.2,E,A,V*4A
20220704 010047+00:00 $WIMWV,66.7,R,2.59,N,A*2A
20220704 010049+00:00 $IIMDA,29.8,I,1.01,B,13.9,C,,C,91.6,,,C,,T,,M,,N,,M*1C
20220704 010049+00:00 $HCHDT,150.8,T*25
20220704 010049+00:00 $GPRMC,010044,A,4938.8998,N,12605.6196,W,0,113,040722,12.2,E,A,V*4D
20220704 010049+00:00 $WIMWV,59.3,R,2.39,N,A*24
20220704 010051+00:00 $IIMDA,29.8,I,1.01,B,13.9,C,,C,91.6,,,C,,T,,M,,N,,M*1C
20220704 010051+00:00 $HCHDT,150.7,T*2A
20220704 010051+00:00 $GPRMC,010046,A,4938.8998,N,12605.6196,W,0,112,040722,12.2,E,A,V*4E
20220704 010051+00:00 $WIMWV,42.1,R,1.89,N,A*24
20220704 010053+00:00 $IIMDA,29.8,I,1.01,B,13.9,C,,C,91.6,,,C,,T,,M,,N,,M*1C
20220704 010053+00:00 $HCHDT,150.7,T*2A
20220704 010053+00:00 $GPRMC,010048,A,4938.8998,N,12605.6196,W,0,110,040722,12.2,E,A,V*42
20220704 010053+00:00 $WIMWV,69.9,R,1.4,N,A*10
20220704 010055+00:00 $IIMDA,29.8,I,1.01,B,13.9,C,,C,91.6,,,C,,T,,M,,N,,M*1C
20220704 010055+00:00 $HCHDT,150.6,T*2B
20220704 010055+00:00 $GPRMC,010050,A,4938.8998,N,12605.6196,W,0,108,040722,12.2,E,A,V*42
20220704 010055+00:00 $WIMWV,30.5,R,2.39,N,A*2D
20220704 010057+00:00 $IIMDA,29.8,I,1.01,B,13.9,C,,C,91.6,,,C,,T,,M,,N,,M*1C
20220704 010057+00:00 $HCHDT,150.5,T*28
20220704 010057+00:00 $GPRMC,010052,A,4938.8998,N,12605.6196,W,0,108,040722,12.2,E,A,V*40
20220704 010057+00:00 $WIMWV,58.5,R,1.89,N,A*2B
20220704 010059+00:00 $IIMDA,29.8,I,1.01,B,13.9,C,,C,91.6,,,C,,T,,M,,N,,M*1C
20220704 010059+00:00 $HCHDT,150.4,T*29
20220704 010059+00:00 $GPRMC,010054,A,4938.8998,N,12605.6196,W,0,107,040722,12.2,E,A,V*49
20220704 010059+00:00 $WIMWV,32.1,R,2.68,N,A*2F
20220704 010101+00:00 $IIMDA,29.8,I,1.01,B,13.9,C,,C,91.6,,,C,,T,,M,,N,,M*1C
20220704 010101+00:00 $HCHDT,150.3,T*2E
20220704 010101+00:00 $GPRMC,010056,A,4938.8998,N,12605.6196,W,0,106,040722,12.2,E,A,V*4A
20220704 010101+00:00 $WIMWV,61.09,R,0.99,N,A*1D
20220704 010103+00:00 $IIMDA,29.8,I,1.01,B,13.9,C,,C,91.6,,,C,,T,,M,,N,,M*1C
20220704 010103+00:00 $HCHDT,150.3,T*2E
20220704 010103+00:00 $GPRMC,010058,A,4938.8998,N,12605.6196,W,0,104,040722,12.2,E,A,V*46
20220704 010103+00:00 $WIMWV,104.99,R,0.58,N,A*2B
20220704 010105+00:00 $IIMDA,29.8,I,1.01,B,13.9,C,,C,91.5,,,C,,T,,M,,N,,M*1F
20220704 010105+00:00 $HCHDT,150.3,T*2E
20220704 010105+00:00 $GPRMC,010100,A,4938.8998,N,12605.6196,W,0,100,040722,12.2,E,A,V*4E
20220704 010105+00:00 $WIMWV,67.9,R,2.8,N,A*11
20220704 010107+00:00 $IIMDA,29.8,I,1.01,B,13.9,C,,C,91.6,,,C,,T,,M,,N,,M*1C
20220704 010107+00:00 $HCHDT,150.3,T*2E
20220704 010107+00:00 $GPRMC,010102,A,4938.8998,N,12605.6196,W,0,98,040722,12.2,E,A,V*7C
20220704 010107+00:00 $WIMWV,62.8,R,3.5,N,A*19
20220704 010109+00:00 $IIMDA,29.8,I,1.01,B,13.9,C,,C,91.5,,,C,,T,,M,,N,,M*1F
20220704 010109+00:00 $HCHDT,150.2,T*2F
20220704 010109+00:00 $GPRMC,010104,A,4938.8998,N,12605.6196,W,0,95,040722,12.2,E,A,V*77
20220704 010109+00:00 $WIMWV,168,R,0.99,N,A*02
20220704 010111+00:00 $IIMDA,29.8,I,1.01,B,13.9,C,,C,91.5,,,C,,T,,M,,N,,M*1F
20220704 010111+00:00 $HCHDT,150.2,T*2F
20220704 010111+00:00 $GPRMC,010106,A,4938.8998,N,12605.6196,W,0,93,040722,12.2,E,A,V*73
20220704 010111+00:00 $WIMWV,61.3,R,1.79,N,A*28
20220704 010113+00:00 $IIMDA,29.8,I,1.01,B,13.9,C,,C,91.5,,,C,,T,,M,,N,,M*1F
20220704 010113+00:00 $HCHDT,150.2,T*2F
20220704 010113+00:00 $GPRMC,010108,A,4938.8998,N,12605.6196,W,0,92,040722,12.2,E,A,V*7C
20220704 010113+00:00 $WIMWV,67.9,R,3.38,N,A*23
20220704 010115+00:00 $IIMDA,29.8,I,1.01,B,13.9,C,,C,91.5,,,C,,T,,M,,N,,M*1F
20220704 010115+00:00 $HCHDT,150.1,T*2C
20220704 010115+00:00 $GPRMC,010110,A,4938.8998,N,12605.6196,W,0,90,040722,12.2,E,A,V*77
20220704 010115+00:00 $WIMWV,65,R,4.2,N,A*08
20220704 010117+00:00 $IIMDA,29.8,I,1.01,B,13.9,C,,C,91.4,,,C,,T,,M,,N,,M*1E
20220704 010117+00:00 $HCHDT,150.2,T*2F
20220704 010117+00:00 $GPRMC,010112,A,4938.8998,N,12605.6196,W,0,89,040722,12.2,E,A,V*7D
20220704 010117+00:00 $WIMWV,67,R,3.6,N,A*09
20220704 010119+00:00 $IIMDA,29.8,I,1.01,B,13.9,C,,C,91.5,,,C,,T,,M,,N,,M*1F
20220704 010119+00:00 $HCHDT,150.2,T*2F
20220704 010119+00:00 $GPRMC,010114,A,4938.8998,N,12605.6196,W,0,88,040722,12.2,E,A,V*7A
20220704 010119+00:00 $WIMWV,55.1,R,3.79,N,A*2F
20220704 010121+00:00 $IIMDA,29.8,I,1.01,B,13.9,C,,C,91.4,,,C,,T,,M,,N,,M*1E
20220704 010121+00:00 $HCHDT,150.1,T*2C
20220704 010121+00:00 $GPRMC,010116,A,4938.8998,N,12605.6196,W,0,87,040722,12.2,E,A,V*77
20220704 010121+00:00 $WIMWV,57.7,R,3.98,N,A*24
20220704 010123+00:00 $IIMDA,29.8,I,1.01,B,13.9,C,,C,91.4,,,C,,T,,M,,N,,M*1E
20220704 010123+00:00 $HCHDT,150,T*33
20220704 010123+00:00 $GPRMC,010118,A,4938.8998,N,12605.6196,W,0,87,040722,12.2,E,A,V*79
20220704 010123+00:00 $WIMWV,56,R,3.6,N,A*0B
20220704 010125+00:00 $IIMDA,29.8,I,1.01,B,13.9,C,,C,91.4,,,C,,T,,M,,N,,M*1E
20220704 010125+00:00 $HCHDT,150,T*33
20220704 010125+00:00 $GPRMC,010120,A,4938.8998,N,12605.6196,W,0,86,040722,12.2,E,A,V*73
20220704 010125+00:00 $WIMWV,59.3,R,3.89,N,A*2E
20220704 010127+00:00 $IIMDA,29.8,I,1.01,B,13.9,C,,C,91.4,,,C,,T,,M,,N,,M*1E
20220704 010127+00:00 $HCHDT,149.9,T*2C
20220704 010127+00:00 $GPRMC,010122,A,4938.8998,N,12605.6196,W,0,85,040722,12.2,E,A,V*72
20220704 010127+00:00 $WIMWV,62.1,R,3.38,N,A*2E
20220704 010129+00:00 $IIMDA,29.8,I,1.01,B,13.9,C,,C,91.4,,,C,,T,,M,,N,,M*1E
20220704 010129+00:00 $HCHDT,149.8,T*2D
20220704 010129+00:00 $GPRMC,010124,A,4938.8998,N,12605.6196,W,0,84,040722,12.2,E,A,V*75
20220704 010129+00:00 $WIMWV,68.5,R,3.89,N,A*2A
20220704 010131+00:00 $IIMDA,29.8,I,1.01,B,13.9,C,,C,91.4,,,C,,T,,M,,N,,M*1E
20220704 010131+00:00 $HCHDT,149.7,T*22
20220704 010131+00:00 $GPRMC,010126,A,4938.8998,N,12605.6196,W,0,84,040722,12.2,E,A,V*77
20220704 010131+00:00 $WIMWV,65.99,R,3.79,N,A*1D
20220704 010133+00:00 $IIMDA,29.8,I,1.01,B,13.9,C,,C,91.4,,,C,,T,,M,,N,,M*1E
20220704 010133+00:00 $HCHDT,149.6,T*23
20220704 010133+00:00 $GPRMC,010128,A,4938.8998,N,12605.6196,W,0,83,040722,12.2,E,A,V*7E
20220704 010133+00:00 $WIMWV,67.7,R,3.5,N,A*13
20220704 010135+00:00 $IIMDA,29.8,I,1.01,B,13.9,C,,C,91.3,,,C,,T,,M,,N,,M*19
20220704 010135+00:00 $HCHDT,149.5,T*20
20220704 010135+00:00 $GPRMC,010130,A,4938.8998,N,12605.6196,W,0,82,040722,12.2,E,A,V*76
20220704 010135+00:00 $WIMWV,63.99,R,3.5,N,A*20
20220704 010137+00:00 $IIMDA,29.8,I,1.01,B,13.9,C,,C,91.3,,,C,,T,,M,,N,,M*19
20220704 010137+00:00 $HCHDT,149.3,T*26
20220704 010137+00:00 $GPRMC,010132,A,4938.8998,N,12605.6196,W,0.1,83,040722,12.2,E,A,V*6A
20220704 010137+00:00 $WIMWV,58.5,R,3.29,N,A*23
20220704 010139+00:00 $IIMDA,29.8,I,1.01,B,13.9,C,,C,91.3,,,C,,T,,M,,N,,M*19
20220704 010139+00:00 $HCHDT,149.1,T*24
20220704 010139+00:00 $GPRMC,010134,A,4938.8998,N,12605.6196,W,0.1,85,040722,12.2,E,A,V*6A
20220704 010139+00:00 $WIMWV,55,R,3.5,N,A*0B
20220704 010141+00:00 $IIMDA,29.8,I,1.01,B,13.9,C,,C,91.2,,,C,,T,,M,,N,,M*18
20220704 010141+00:00 $HCHDT,149,T*3B
20220704 010141+00:00 $GPRMC,010136,A,4938.8998,N,12605.6196,W,0.1,85,040722,12.2,E,A,V*68
20220704 010141+00:00 $WIMWV,65,R,3.19,N,A*35
20220704 010143+00:00 $IIMDA,29.8,I,1.01,B,13.9,C,,C,91.3,,,C,,T,,M,,N,,M*19
20220704 010143+00:00 $HCHDT,149,T*3B
20220704 010143+00:00 $GPRMC,010138,A,4938.8998,N,12605.6196,W,0.1,85,040722,12.2,E,A,V*66
20220704 010143+00:00 $WIMWV,61.99,R,3.19,N,A*1F
20220704 010145+00:00 $IIMDA,29.8,I,1.01,B,13.9,C,,C,91.3,,,C,,T,,M,,N,,M*19
20220704 010145+00:00 $HCHDT,148.8,T*2C
20220704 010145+00:00 $GPRMC,010140,A,4938.8998,N,12605.6196,W,0.1,84,040722,12.2,E,A,V*68
20220704 010145+00:00 $WIMWV,66.39,R,2.99,N,A*1B
20220704 010147+00:00 $IIMDA,29.8,I,1.01,B,13.9,C,,C,91.3,,,C,,T,,M,,N,,M*19
20220704 010147+00:00 $HCHDT,148.8,T*2C
20220704 010147+00:00 $GPRMC,010142,A,4938.8998,N,12605.6100,W,0.1,84,040722,12.2,E,A,V*65
20220704 010147+00:00 $WIMWV,65.6,R,3.79,N,A*2B
20220704 010149+00:00 $IIMDA,29.8,I,1.01,B,13.9,C,,C,91.2,,,C,,T,,M,,N,,M*18
20220704 010149+00:00 $HCHDT,148.7,T*23
20220704 010149+00:00 $GPRMC,010144,A,4938.8998,N,12605.6100,W,0.1,84,040722,12.2,E,A,V*63
20220704 010149+00:00 $WIMWV,67.49,R,3.5,N,A*29
20220704 010151+00:00 $IIMDA,29.8,I,1.01,B,13.9,C,,C,91.2,,,C,,T,,M,,N,,M*18
20220704 010151+00:00 $HCHDT,148.7,T*23
20220704 010151+00:00 $GPRMC,010146,A,4938.8998,N,12605.6100,W,0.1,83,040722,12.2,E,A,V*66
20220704 010151+00:00 $WIMWV,56.3,R,3.5,N,A*15
20220704 010153+00:00 $IIMDA,29.8,I,1.01,B,13.9,C,,C,91.2,,,C,,T,,M,,N,,M*18
20220704 010153+00:00 $HCHDT,148.6,T*22
20220704 010153+00:00 $GPRMC,010148,A,4938.8998,N,12605.6100,W,0.1,82,040722,12.2,E,A,V*69
20220704 010153+00:00 $WIMWV,62.4,R,3.29,N,A*2B
20220704 010155+00:00 $IIMDA,29.8,I,1.01,B,13.9,C,,C,91.2,,,C,,T,,M,,N,,M*18
20220704 010155+00:00 $HCHDT,148.6,T*22
20220704 010155+00:00 $GPRMC,010150,A,4938.8998,N,12605.6100,W,0,81,040722,12.2,E,A,V*7C
20220704 010155+00:00 $WIMWV,66.8,R,1.98,N,A*2B
20220704 010157+00:00 $IIMDA,29.8,I,1.01,B,13.9,C,,C,91.2,,,C,,T,,M,,N,,M*18
20220704 010157+00:00 $HCHDT,148.5,T*21
20220704 010157+00:00 $GPRMC,010152,A,4938.8998,N,12605.6100,W,0,81,040722,12.2,E,A,V*7E
20220704 010157+00:00 $WIMWV,61.6,R,2.68,N,A*2E
20220704 010159+00:00 $IIMDA,29.8,I,1.01,B,13.9,C,,C,91.2,,,C,,T,,M,,N,,M*18
20220704 010159+00:00 $HCHDT,148.4,T*20
20220704 010159+00:00 $GPRMC,010154,A,4938.8998,N,12605.6100,W,0,80,040722,12.2,E,A,V*79
20220704 010159+00:00 $WIMWV,65.09,R,2.29,N,A*10
20220704 010201+00:00 $IIMDA,29.8,I,1.01,B,13.9,C,,C,91.2,,,C,,T,,M,,N,,M*18
20220704 010201+00:00 $HCHDT,148.2,T*26
20220704 010201+00:00 $GPRMC,010156,A,4938.8998,N,12605.6100,W,0,80,040722,12.2,E,A,V*7B
20220704 010201+00:00 $WIMWV,68.3,R,2.68,N,A*22
20220704 010203+00:00 $IIMDA,29.8,I,1.01,B,13.9,C,,C,91.2,,,C,,T,,M,,N,,M*18
20220704 010203+00:00 $HCHDT,148,T*3A
20220704 010203+00:00 $GPRMC,010158,A,4938.8998,N,12605.6100,W,0,80,040722,12.2,E,A,V*75
20220704 010203+00:00 $WIMWV,66.5,R,2.49,N,A*29
20220704 010205+00:00 $IIMDA,29.8,I,1.01,B,13.9,C,,C,91.2,,,C,,T,,M,,N,,M*18
20220704 010205+00:00 $HCHDT,147.8,T*23
20220704 010205+00:00 $GPRMC,010200,A,4938.8998,N,12605.6100,W,0,81,040722,12.2,E,A,V*7A
20220704 010205+00:00 $WIMWV,70.5,R,1.89,N,A*21
20220704 010207+00:00 $IIMDA,29.8,I,1.01,B,13.9,C,,C,91.2,,,C,,T,,M,,N,,M*18
20220704 010207+00:00 $HCHDT,147.6,T*2D
20220704 010207+00:00 $GPRMC,010202,A,4938.8998,N,12605.6100,W,0,82,040722,12.2,E,A,V*7B
20220704 010207+00:00 $WIMWV,80.29,R,1.79,N,A*1F
20220704 010209+00:00 $IIMDA,29.8,I,1.01,B,13.9,C,,C,91.3,,,C,,T,,M,,N,,M*19
20220704 010209+00:00 $HCHDT,147.5,T*2E
20220704 010209+00:00 $GPRMC,010204,A,4938.8998,N,12605.6100,W,0,85,040722,12.2,E,A,V*7A
20220704 010209+00:00 $WIMWV,82.2,R,2.99,N,A*29
20220704 010211+00:00 $IIMDA,29.8,I,1.01,B,13.9,C,,C,91.2,,,C,,T,,M,,N,,M*18
20220704 010211+00:00 $HCHDT,147.4,T*2F
20220704 010211+00:00 $GPRMC,010206,A,4938.8998,N,12605.6100,W,0,89,040722,12.2,E,A,V*74
20220704 010211+00:00 $WIMWV,82.2,R,2.9,N,A*10
20220704 010213+00:00 $IIMDA,29.8,I,1.01,B,13.9,C,,C,91.2,,,C,,T,,M,,N,,M*18
20220704 010213+00:00 $HCHDT,147.4,T*2F
20220704 010213+00:00 $GPRMC,010208,A,4938.8998,N,12605.6100,W,0,92,040722,12.2,E,A,V*70
20220704 010213+00:00 $WIMWV,68.39,R,3.29,N,A*1F
20220704 010215+00:00 $IIMDA,29.8,I,1.01,B,13.9,C,,C,91.2,,,C,,T,,M,,N,,M*18
20220704 010215+00:00 $HCHDT,147.4,T*2F
20220704 010215+00:00 $GPRMC,010210,A,4938.8998,N,12605.6100,W,0,97,040722,12.2,E,A,V*7C
20220704 010215+00:00 $WIMWV,74.99,R,2.68,N,A*1C
20220704 010217+00:00 $IIMDA,29.8,I,1.01,B,13.9,C,,C,91.2,,,C,,T,,M,,N,,M*18
20220704 010217+00:00 $HCHDT,147.3,T*28
20220704 010217+00:00 $GPRMC,010212,A,4938.8998,N,12605.6100,W,0,104,040722,12.2,E,A,V*45
20220704 010217+00:00 $WIMWV,68.5,R,1.4,N,A*1D
20220704 010219+00:00 $IIMDA,29.8,I,1.01,B,13.9,C,,C,91.2,,,C,,T,,M,,N,,M*18
20220704 010219+00:00 $HCHDT,147.3,T*28
20220704 010219+00:00 $GPRMC,010214,A,4938.8998,N,12605.6100,W,0,113,040722,12.2,E,A,V*45
20220704 010219+00:00 $WIMWV,84.9,R,2.9,N,A*1D
20220704 010221+00:00 $IIMDA,29.8,I,1.01,B,13.9,C,,C,91.3,,,C,,T,,M,,N,,M*19
20220704 010221+00:00 $HCHDT,147.3,T*28
20220704 010221+00:00 $GPRMC,010216,A,4938.8998,N,12605.6100,W,0,124,040722,12.2,E,A,V*43
20220704 010221+00:00 $WIMWV,72.79,R,1.59,N,A*15
20220704 010223+00:00 $IIMDA,29.8,I,1.01,B,13.9,C,,C,91.2,,,C,,T,,M,,N,,M*18
20220704 010223+00:00 $HCHDT,147.3,T*28
20220704 010223+00:00 $GPRMC,010218,A,4938.8998,N,12605.6100,W,0,138,040722,12.2,E,A,V*40
20220704 010223+00:00 $WIMWV,91.7,R,0.99,N,A*2C
20220704 010225+00:00 $IIMDA,29.8,I,1.01,B,13.9,C,,C,91.3,,,C,,T,,M,,N,,M*19
20220704 010225+00:00 $HCHDT,147.3,T*28
20220704 010225+00:00 $GPRMC,010220,A,4938.8998,N,12605.6100,W,0,150,040722,12.2,E,A,V*45
20220704 010225+00:00 $WIMWV,71.89,R,1.59,N,A*19
20220704 010227+00:00 $IIMDA,29.8,I,1.01,B,13.8,C,,C,91.3,,,C,,T,,M,,N,,M*18
20220704 010227+00:00 $HCHDT,147.3,T*28
20220704 010227+00:00 $GPRMC,010222,A,4938.8998,N,12605.6100,W,0,160,040722,12.2,E,A,V*44
20220704 010227+00:00 $WIMWV,78.6,R,2.39,N,A*22
20220704 010229+00:00 $IIMDA,29.8,I,1.01,B,13.8,C,,C,91.3,,,C,,T,,M,,N,,M*18
20220704 010229+00:00 $HCHDT,147.3,T*28
20220704 010229+00:00 $GPRMC,010224,A,4938.8998,N,12605.6100,W,0,168,040722,12.2,E,A,V*4A
20220704 010229+00:00 $WIMWV,113.1,R,1.09,N,A*19
20220704 010231+00:00 $IIMDA,29.8,I,1.01,B,13.8,C,,C,91.2,,,C,,T,,M,,N,,M*19
20220704 010231+00:00 $HCHDT,147.3,T*28
20220704 010231+00:00 $GPRMC,010226,A,4938.8998,N,12605.6100,W,0,175,040722,12.2,E,A,V*44
20220704 010231+00:00 $WIMWV,81.3,R,1.4,N,A*1C
20220704 010233+00:00 $IIMDA,29.8,I,1.01,B,13.8,C,,C,91.2,,,C,,T,,M,,N,,M*19
20220704 010233+00:00 $HCHDT,147.3,T*28
20220704 010233+00:00 $GPRMC,010228,A,4938.8998,N,12605.6100,W,0,181,040722,12.2,E,A,V*41
20220704 010233+00:00 $WIMWV,52,R,3.5,N,A*0C
20220704 010235+00:00 $IIMDA,29.8,I,1.01,B,13.8,C,,C,91.3,,,C,,T,,M,,N,,M*18
20220704 010235+00:00 $HCHDT,147.3,T*28
20220704 010235+00:00 $GPRMC,010230,A,4938.8998,N,12605.6100,W,0,184,040722,12.2,E,A,V*4D
20220704 010235+00:00 $WIMWV,55.9,R,1.59,N,A*27
20220704 010237+00:00 $IIMDA,29.8,I,1.01,B,13.8,C,,C,91.3,,,C,,T,,M,,N,,M*18
20220704 010237+00:00 $HCHDT,147.3,T*28
20220704 010237+00:00 $GPRMC,010232,A,4938.8998,N,12605.6100,W,0,185,040722,12.2,E,A,V*4E
20220704 010237+00:00 $WIMWV,109.3,R,1.28,N,A*13
20220704 010239+00:00 $IIMDA,29.8,I,1.01,B,13.8,C,,C,91.3,,,C,,T,,M,,N,,M*18
20220704 010239+00:00 $HCHDT,147.3,T*28
20220704 010239+00:00 $GPRMC,010234,A,4938.8998,N,12605.6100,W,0,187,040722,12.2,E,A,V*4A
20220704 010239+00:00 $WIMWV,180.6,R,0.19,N,A*14
20220704 010241+00:00 $IIMDA,29.8,I,1.01,B,13.8,C,,C,91.3,,,C,,T,,M,,N,,M*18
20220704 010241+00:00 $HCHDT,147.3,T*28
20220704 010241+00:00 $GPRMC,010236,A,4938.8998,N,12605.6100,W,0,188,040722,12.2,E,A,V*47
20220704 010241+00:00 $WIMWV,58.89,R,1.89,N,A*1F
20220704 010243+00:00 $IIMDA,29.8,I,1.01,B,13.8,C,,C,91.3,,,C,,T,,M,,N,,M*18
20220704 010243+00:00 $HCHDT,147.2,T*29
20220704 010243+00:00 $GPRMC,010238,A,4938.8998,N,12605.6100,W,0,189,040722,12.2,E,A,V*48
20220704 010243+00:00 $WIMWV,74.3,R,2.2,N,A*13
20220704 010245+00:00 $IIMDA,29.8,I,1.01,B,13.8,C,,C,91.3,,,C,,T,,M,,N,,M*18
20220704 010245+00:00 $HCHDT,147.2,T*29
20220704 010245+00:00 $GPRMC,010240,A,4938.8998,N,12605.6100,W,0,190,040722,12.2,E,A,V*4F
20220704 010245+00:00 $WIMWV,72.5,R,1.69,N,A*2D
20220704 010247+00:00 $IIMDA,29.8,I,1.01,B,13.8,C,,C,91.3,,,C,,T,,M,,N,,M*18
20220704 010247+00:00 $HCHDT,147.2,T*29
20220704 010247+00:00 $GPRMC,010242,A,4938.8998,N,12605.6100,W,0,192,040722,12.2,E,A,V*4F
20220704 010247+00:00 $WIMWV,68.19,R,0.39,N,A*1F
20220704 010249+00:00 $IIMDA,29.8,I,1.01,B,13.8,C,,C,91.3,,,C,,T,,M,,N,,M*18
20220704 010249+00:00 $HCHDT,147.2,T*29
20220704 010249+00:00 $GPRMC,010244,A,4938.8998,N,12605.6100,W,0,194,040722,12.2,E,A,V*4F
20220704 010249+00:00 $WIMWV,62.8,R,1.4,N,A*1A
20220704 010251+00:00 $IIMDA,29.8,I,1.01,B,13.8,C,,C,91.3,,,C,,T,,M,,N,,M*18
20220704 010251+00:00 $HCHDT,147.2,T*29
20220704 010251+00:00 $GPRMC,010246,A,4938.8998,N,12605.6100,W,0,195,040722,12.2,E,A,V*4C
20220704 010251+00:00 $WIMWV,83.8,R,3.09,N,A*2A
20220704 010253+00:00 $IIMDA,29.8,I,1.01,B,13.8,C,,C,91.3,,,C,,T,,M,,N,,M*18
20220704 010253+00:00 $HCHDT,147.3,T*28
20220704 010253+00:00 $GPRMC,010248,A,4938.8998,N,12605.6100,W,0,197,040722,12.2,E,A,V*40
20220704 010253+00:00 $WIMWV,72.99,R,1.28,N,A*1D
20220704 010255+00:00 $IIMDA,29.8,I,1.01,B,13.8,C,,C,91.3,,,C,,T,,M,,N,,M*18
20220704 010255+00:00 $HCHDT,147.3,T*28
20220704 010255+00:00 $GPRMC,010250,A,4938.8998,N,12605.6100,W,0,200,040722,12.2,E,A,V*44
20220704 010255+00:00 $WIMWV,260.69,R,0.89,N,A*29
20220704 010257+00:00 $IIMDA,29.8,I,1.01,B,13.8,C,,C,91.3,,,C,,T,,M,,N,,M*18
20220704 010257+00:00 $HCHDT,147.3,T*28
20220704 010257+00:00 $GPRMC,010252,A,4938.8998,N,12605.6100,W,0,204,040722,12.2,E,A,V*42
20220704 010257+00:00 $WIMWV,348.49,R,0.8,N,A*19
20220704 010259+00:00 $IIMDA,29.8,I,1.01,B,13.8,C,,C,91.3,,,C,,T,,M,,N,,M*18
20220704 010259+00:00 $HCHDT,147.3,T*28
20220704 010259+00:00 $GPRMC,010254,A,4938.8998,N,12605.6100,W,0,204,040722,12.2,E,A,V*44
20220704 010259+00:00 $WIMWV,20.9,R,0.49,N,A*25
20220704 010301+00:00 $IIMDA,29.8,I,1.01,B,13.8,C,,C,91.3,,,C,,T,,M,,N,,M*18
20220704 010301+00:00 $HCHDT,147.4,T*2F
20220704 010301+00:00 $GPRMC,010256,A,4938.8998,N,12605.6100,W,0,202,040722,12.2,E,A,V*40
20220704 010301+00:00 $WIMWV,54.4,R,1.59,N,A*2B
20220704 010303+00:00 $IIMDA,29.8,I,1.01,B,13.8,C,,C,91.4,,,C,,T,,M,,N,,M*1F
20220704 010303+00:00 $HCHDT,147.5,T*2E
20220704 010303+00:00 $GPRMC,010258,A,4938.8998,N,12605.6100,W,0,201,040722,12.2,E,A,V*4D
20220704 010303+00:00 $WIMWV,65.29,R,1.79,N,A*14
20220704 010305+00:00 $IIMDA,29.8,I,1.01,B,13.8,C,,C,91.4,,,C,,T,,M,,N,,M*1F
20220704 010305+00:00 $HCHDT,147.5,T*2E
20220704 010305+00:00 $GPRMC,010300,A,4938.8998,N,12605.6100,W,0,204,040722,12.2,E,A,V*44
20220704 010305+00:00 $WIMWV,31.99,R,2.2,N,A*21
20220704 010307+00:00 $IIMDA,29.8,I,1.01,B,13.8,C,,C,91.4,,,C,,T,,M,,N,,M*1F
20220704 010307+00:00 $HCHDT,147.5,T*2E
20220704 010307+00:00 $GPRMC,010302,A,4938.8998,N,12605.6100,W,0,208,040722,12.2,E,A,V*4A
20220704 010307+00:00 $WIMWV,30.7,R,2.1,N,A*14
20220704 010309+00:00 $IIMDA,29.8,I,1.01,B,13.8,C,,C,91.4,,,C,,T,,M,,N,,M*1F
20220704 010309+00:00 $HCHDT,147.6,T*2D
20220704 010309+00:00 $GPRMC,010304,A,4938.8998,N,12605.6100,W,0,213,040722,12.2,E,A,V*46
20220704 010309+00:00 $WIMWV,32.9,R,3.09,N,A*21
20220704 010311+00:00 $IIMDA,29.8,I,1.01,B,13.8,C,,C,91.4,,,C,,T,,M,,N,,M*1F
20220704 010311+00:00 $HCHDT,147.7,T*2C
20220704 010311+00:00 $GPRMC,010306,A,4938.8998,N,12605.6100,W,0,217,040722,12.2,E,A,V*40
20220704 010311+00:00 $WIMWV,29.2,R,3.09,N,A*20
20220704 010313+00:00 $IIMDA,29.8,I,1.01,B,13.8,C,,C,91.4,,,C,,T,,M,,N,,M*1F
20220704 010313+00:00 $HCHDT,147.8,T*23
20220704 010313+00:00 $GPRMC,010308,A,4938.8998,N,12605.6100,W,0,218,040722,12.2,E,A,V*41
20220704 010313+00:00 $WIMWV,32.7,R,3.5,N,A*13
20220704 010315+00:00 $IIMDA,29.8,I,1.01,B,13.8,C,,C,91.4,,,C,,T,,M,,N,,M*1F
20220704 010315+00:00 $HCHDT,147.8,T*23
20220704 010315+00:00 $GPRMC,010310,A,4938.8998,N,12605.6100,W,0,218,040722,12.2,E,A,V*48
20220704 010315+00:00 $WIMWV,27.79,R,2.49,N,A*17
20220704 010317+00:00 $IIMDA,29.8,I,1.01,B,13.8,C,,C,91.4,,,C,,T,,M,,N,,M*1F
20220704 010317+00:00 $HCHDT,147.9,T*22
20220704 010317+00:00 $GPRMC,010312,A,4938.8998,N,12605.6100,W,0,218,040722,12.2,E,A,V*4A
20220704 010317+00:00 $WIMWV,27.99,R,2.68,N,A*1A
20220704 010319+00:00 $IIMDA,29.8,I,1.01,B,13.8,C,,C,91.4,,,C,,T,,M,,N,,M*1F
20220704 010319+00:00 $HCHDT,148,T*3A
20220704 010319+00:00 $GPRMC,010314,A,4938.8998,N,12605.6100,W,0,218,040722,12.2,E,A,V*4C
20220704 010319+00:00 $WIMWV,33.09,R,2.9,N,A*21
20220704 010321+00:00 $IIMDA,29.8,I,1.01,B,13.8,C,,C,91.4,,,C,,T,,M,,N,,M*1F
20220704 010321+00:00 $HCHDT,148.1,T*25
20220704 010321+00:00 $GPRMC,010316,A,4938.8998,N,12605.6100,W,0,220,040722,12.2,E,A,V*45
20220704 010321+00:00 $WIMWV,33.29,R,3.79,N,A*15
20220704 010323+00:00 $IIMDA,29.8,I,1.01,B,13.8,C,,C,91.5,,,C,,T,,M,,N,,M*1E
20220704 010323+00:00 $HCHDT,148.1,T*25
20220704 010323+00:00 $GPRMC,010318,A,4938.8998,N,12605.6100,W,0,222,040722,12.2,E,A,V*49
20220704 010323+00:00 $WIMWV,28.2,R,2.59,N,A*25
20220704 010325+00:00 $IIMDA,29.8,I,1.01,B,13.8,C,,C,91.4,,,C,,T,,M,,N,,M*1F
20220704 010325+00:00 $HCHDT,148.1,T*25
20220704 010325+00:00 $GPRMC,010320,A,4938.8998,N,12605.6100,W,0,226,040722,12.2,E,A,V*46
20220704 010325+00:00 $WIMWV,26.8,R,2.2,N,A*1F
20220704 010327+00:00 $IIMDA,29.8,I,1.01,B,13.8,C,,C,91.4,,,C,,T,,M,,N,,M*1F
20220704 010327+00:00 $HCHDT,148.1,T*25
20220704 010327+00:00 $GPRMC,010322,A,4938.8998,N,12605.6100,W,0,229,040722,12.2,E,A,V*4B
20220704 010327+00:00 $WIMWV,31.9,R,2.2,N,A*18
20220704 010329+00:00 $IIMDA,29.8,I,1.01,B,13.8,C,,C,91.4,,,C,,T,,M,,N,,M*1F
20220704 010329+00:00 $HCHDT,148.2,T*26
20220704 010329+00:00 $GPRMC,010324,A,4938.8998,N,12605.6100,W,0,231,040722,12.2,E,A,V*44
20220704 010329+00:00 $WIMWV,72.3,R,2.29,N,A*2C
20220704 010331+00:00 $IIMDA,29.8,I,1.01,B,13.8,C,,C,91.5,,,C,,T,,M,,N,,M*1E
20220704 010331+00:00 $HCHDT,148.3,T*27
20220704 010331+00:00 $GPRMC,010326,A,4938.8998,N,12605.6100,W,0,232,040722,12.2,E,A,V*45
20220704 010331+00:00 $WIMWV,56.49,R,2.1,N,A*2E
20220704 010333+00:00 $IIMDA,29.8,I,1.01,B,13.8,C,,C,91.4,,,C,,T,,M,,N,,M*1F
20220704 010333+00:00 $HCHDT,148.3,T*27
20220704 010333+00:00 $GPRMC,010328,A,4938.8998,N,12605.6100,W,0,231,040722,12.2,E,A,V*48
20220704 010333+00:00 $WIMWV,30.3,R,1.09,N,A*2B
20220704 010335+00:00 $IIMDA,29.8,I,1.01,B,13.8,C,,C,91.4,,,C,,T,,M,,N,,M*1F
20220704 010335+00:00 $HCHDT,148.2,T*26
20220704 010335+00:00 $GPRMC,010330,A,4938.8998,N,12605.6100,W,0,228,040722,12.2,E,A,V*49
20220704 010335+00:00 $WIMWV,0.19,R,0.29,N,A*20
20220704 010337+00:00 $IIMDA,29.8,I,1.01,B,13.8,C,,C,91.4,,,C,,T,,M,,N,,M*1F
20220704 010337+00:00 $HCHDT,148.2,T*26
20220704 010337+00:00 $GPRMC,010332,A,4938.8998,N,12605.6100,W,0,226,040722,12.2,E,A,V*45
20220704 010337+00:00 $WIMWV,22.69,R,0.7,N,A*2B
20220704 010339+00:00 $IIMDA,29.8,I,1.01,B,13.8,C,,C,91.4,,,C,,T,,M,,N,,M*1F
20220704 010339+00:00 $HCHDT,148.3,T*27
20220704 010339+00:00 $GPRMC,010334,A,4938.8998,N,12605.6100,W,0,227,040722,12.2,E,A,V*42
20220704 010339+00:00 $WIMWV,0.19,R,0,N,A*05
20220704 010341+00:00 $IIMDA,29.8,I,1.01,B,13.8,C,,C,91.4,,,C,,T,,M,,N,,M*1F
20220704 010341+00:00 $HCHDT,148.3,T*27
20220704 010341+00:00 $GPRMC,010336,A,4938.8998,N,12605.6100,W,0,233,040722,12.2,E,A,V*45
20220704 010341+00:00 $WIMWV,118.89,R,0.29,N,A*21
20220704 010343+00:00 $IIMDA,29.8,I,1.01,B,13.8,C,,C,91.4,,,C,,T,,M,,N,,M*1F
20220704 010343+00:00 $HCHDT,148.3,T*27
20220704 010343+00:00 $GPRMC,010338,A,4938.8998,N,12605.6100,W,0,242,040722,12.2,E,A,V*4D
20220704 010343+00:00 $WIMWV,180.6,R,0.1,N,A*2D
20220704 010345+00:00 $IIMDA,29.8,I,1.01,B,13.8,C,,C,91.5,,,C,,T,,M,,N,,M*1E
20220704 010345+00:00 $HCHDT,148.4,T*20
20220704 010345+00:00 $GPRMC,010340,A,4938.8998,N,12605.6100,W,0,254,040722,12.2,E,A,V*45
20220704 010345+00:00 $WIMWV,29.9,R,1.89,N,A*21
20220704 010347+00:00 $IIMDA,29.8,I,1.01,B,13.8,C,,C,91.4,,,C,,T,,M,,N,,M*1F
20220704 010347+00:00 $HCHDT,148.4,T*20
20220704 010347+00:00 $GPRMC,010342,A,4938.8998,N,12605.6100,W,0,261,040722,12.2,E,A,V*41
20220704 010347+00:00 $WIMWV,27.4,R,1.59,N,A*2F
20220704 010349+00:00 $IIMDA,29.8,I,1.01,B,13.8,C,,C,91.4,,,C,,T,,M,,N,,M*1F
20220704 010349+00:00 $HCHDT,148.4,T*20
20220704 010349+00:00 $GPRMC,010344,A,4938.8998,N,12605.6100,W,0,265,040722,12.2,E,A,V*43
20220704 010349+00:00 $WIMWV,23.3,R,1.19,N,A*28
20220704 010351+00:00 $IIMDA,29.8,I,1.01,B,13.8,C,,C,91.4,,,C,,T,,M,,N,,M*1F
20220704 010351+00:00 $HCHDT,148.5,T*21
20220704 010351+00:00 $GPRMC,010346,A,4938.8998,N,12605.6100,W,0,264,040722,12.2,E,A,V*40
20220704 010351+00:00 $WIMWV,64.39,R,1.4,N,A*2E
20220704 010353+00:00 $IIMDA,29.8,I,1.01,B,13.8,C,,C,91.4,,,C,,T,,M,,N,,M*1F
20220704 010353+00:00 $HCHDT,148.6,T*22
20220704 010353+00:00 $GPRMC,010348,A,4938.8998,N,12605.6100,W,0,264,040722,12.2,E,A,V*4E
20220704 010353+00:00 $WIMWV,32.3,R,0.8,N,A*19
20220704 010355+00:00 $IIMDA,29.8,I,1.01,B,13.8,C,,C,91.4,,,C,,T,,M,,N,,M*1F
20220704 010355+00:00 $HCHDT,148.7,T*23
20220704 010355+00:00 $GPRMC,010350,A,4938.8998,N,12605.6100,W,0,269,040722,12.2,E,A,V*4A
20220704 010355+00:00 $WIMWV,72.59,R,0.99,N,A*1A
20220704 010357+00:00 $IIMDA,29.8,I,1.01,B,13.8,C,,C,91.4,,,C,,T,,M,,N,,M*1F
20220704 010357+00:00 $HCHDT,148.8,T*2C
20220704 010357+00:00 $GPRMC,010352,A,4938.8998,N,12605.6100,W,0,278,040722,12.2,E,A,V*48
20220704 010357+00:00 $WIMWV,80.9,R,1.4,N,A*17
20220704 010359+00:00 $IIMDA,29.8,I,1.01,B,13.8,C,,C,91.4,,,C,,T,,M,,N,,M*1F
20220704 010359+00:00 $HCHDT,148.9,T*2D
20220704 010359+00:00 $GPRMC,010354,A,4938.8998,N,12605.6100,W,0,283,040722,12.2,E,A,V*4A
20220704 010359+00:00 $WIMWV,55.79,R,2.1,N,A*2E
20220704 010401+00:00 $IIMDA,29.8,I,1.01,B,13.8,C,,C,91.4,,,C,,T,,M,,N,,M*1F
20220704 010401+00:00 $HCHDT,149,T*3B
20220704 010401+00:00 $GPRMC,010356,A,4938.8998,N,12605.6100,W,0,286,040722,12.2,E,A,V*4D
20220704 010401+00:00 $WIMWV,73.2,R,0.49,N,A*28
20220704 010403+00:00 $IIMDA,29.8,I,1.01,B,13.8,C,,C,91.4,,,C,,T,,M,,N,,M*1F
20220704 010403+00:00 $HCHDT,149.1,T*24
20220704 010403+00:00 $GPRMC,010358,A,4938.8998,N,12605.6100,W,0,294,040722,12.2,E,A,V*40
20220704 010403+00:00 $WIMWV,57.2,R,0.58,N,A*2E
20220704 010405+00:00 $IIMDA,29.8,I,1.01,B,13.8,C,,C,91.4,,,C,,T,,M,,N,,M*1F
20220704 010405+00:00 $HCHDT,149.2,T*27
20220704 010405+00:00 $GPRMC,010400,A,4938.8998,N,12605.6100,W,0,305,040722,12.2,E,A,V*43
20220704 010405+00:00 $WIMWV,337.19,R,0.89,N,A*2D
20220704 010407+00:00 $IIMDA,29.8,I,1.01,B,13.8,C,,C,91.4,,,C,,T,,M,,N,,M*1F
20220704 010407+00:00 $HCHDT,149.2,T*27
20220704 010407+00:00 $GPRMC,010402,A,4938.8998,N,12605.6100,W,0,318,040722,12.2,E,A,V*4D
20220704 010407+00:00 $WIMWV,20.9,R,0.58,N,A*25
20220704 010409+00:00 $IIMDA,29.8,I,1.01,B,13.8,C,,C,91.4,,,C,,T,,M,,N,,M*1F
20220704 010409+00:00 $HCHDT,149.3,T*26
20220704 010409+00:00 $GPRMC,010404,A,4938.8998,N,12605.6100,W,0,333,040722,12.2,E,A,V*42
20220704 010409+00:00 $WIMWV,269.99,R,0.19,N,A*26
20220704 010411+00:00 $IIMDA,29.8,I,1.01,B,13.8,C,,C,91.4,,,C,,T,,M,,N,,M*1F
20220704 010411+00:00 $HCHDT,149.4,T*21
20220704 010411+00:00 $GPRMC,010406,A,4938.8998,N,12605.6100,W,0,349,040722,12.2,E,A,V*4D
20220704 010411+00:00 $WIMWV,58.5,R,0.89,N,A*2A
20220704 010413+00:00 $IIMDA,29.8,I,1.01,B,13.8,C,,C,91.4,,,C,,T,,M,,N,,M*1F
20220704 010413+00:00 $HCHDT,149.4,T*21
20220704 010413+00:00 $GPRMC,010408,A,4938.8998,N,12605.6100,W,0,3,040722,12.2,E,A,V*4E
20220704 010413+00:00 $WIMWV,26,R,1.19,N,A*30
20220704 010415+00:00 $IIMDA,29.8,I,1.01,B,13.8,C,,C,91.4,,,C,,T,,M,,N,,M*1F
20220704 010415+00:00 $HCHDT,149.5,T*20
20220704 010415+00:00 $GPRMC,010410,A,4938.8998,N,12605.6100,W,0,15,040722,12.2,E,A,V*70
20220704 010415+00:00 $WIMWV,64.3,R,1.69,N,A*2C
20220704 010417+00:00 $IIMDA,29.8,I,1.01,B,13.8,C,,C,91.4,,,C,,T,,M,,N,,M*1F
20220704 010417+00:00 $HCHDT,149.4,T*21
20220704 010417+00:00 $GPRMC,010412,A,4938.8998,N,12605.6100,W,0,24,040722,12.2,E,A,V*70
20220704 010417+00:00 $WIMWV,61,R,0.8,N,A*02
20220704 010419+00:00 $IIMDA,29.8,I,1.01,B,13.8,C,,C,91.4,,,C,,T,,M,,N,,M*1F
20220704 010419+00:00 $HCHDT,149.4,T*21
20220704 010419+00:00 $GPRMC,010414,A,4938.8998,N,12605.6100,W,0,33,040722,12.2,E,A,V*70
20220704 010419+00:00 $WIMWV,58.5,R,0.49,N,A*26
20220704 010421+00:00 $IIMDA,29.8,I,1.01,B,13.8,C,,C,91.4,,,C,,T,,M,,N,,M*1F
20220704 010421+00:00 $HCHDT,149.4,T*21
20220704 010421+00:00 $GPRMC,010416,A,4938.8998,N,12605.6100,W,0,38,040722,12.2,E,A,V*79
20220704 010421+00:00 $WIMWV,215.9,R,0.29,N,A*17
20220704 010423+00:00 $IIMDA,29.8,I,1.01,B,13.8,C,,C,91.4,,,C,,T,,M,,N,,M*1F
20220704 010423+00:00 $HCHDT,149.3,T*26
20220704 010423+00:00 $GPRMC,010418,A,4938.8998,N,12605.6100,W,0,42,040722,12.2,E,A,V*7A
20220704 010423+00:00 $WIMWV,83.7,R,1.4,N,A*1A
20220704 010425+00:00 $IIMDA,29.8,I,1.01,B,13.8,C,,C,91.4,,,C,,T,,M,,N,,M*1F
20220704 010425+00:00 $HCHDT,149.3,T*26
20220704 010425+00:00 $GPRMC,010420,A,4938.8998,N,12605.6100,W,0,46,040722,12.2,E,A,V*75
20220704 010425+00:00 $WIMWV,310.09,R,0.39,N,A*22
20220704 010427+00:00 $IIMDA,29.8,I,1.01,B,13.8,C,,C,91.4,,,C,,T,,M,,N,,M*1F
20220704 010427+00:00 $HCHDT,149.2,T*27
20220704 010427+00:00 $GPRMC,010422,A,4938.8998,N,12605.6100,W,0,49,040722,12.2,E,A,V*78
20220704 010427+00:00 $WIMWV,342.29,R,0.7,N,A*1A
20220704 010429+00:00 $IIMDA,29.8,I,1.01,B,13.8,C,,C,91.5,,,C,,T,,M,,N,,M*1E
20220704 010429+00:00 $HCHDT,149.3,T*26
20220704 010429+00:00 $GPRMC,010424,A,4938.8998,N,12605.6100,W,0,50,040722,12.2,E,A,V*76
20220704 010429+00:00 $WIMWV,36.59,R,0.49,N,A*17
20220704 010431+00:00 $IIMDA,29.8,I,1.01,B,13.8,C,,C,91.4,,,C,,T,,M,,N,,M*1F
20220704 010431+00:00 $HCHDT,149.3,T*26
20220704 010431+00:00 $GPRMC,010426,A,4938.8998,N,12605.6100,W,0,50,040722,12.2,E,A,V*74
20220704 010431+00:00 $WIMWV,138.59,R,0.39,N,A*2F
20220704 010433+00:00 $IIMDA,29.8,I,1.01,B,13.8,C,,C,91.4,,,C,,T,,M,,N,,M*1F
20220704 010433+00:00 $HCHDT,149.3,T*26
20220704 010433+00:00 $GPRMC,010428,A,4938.8998,N,12605.6100,W,0,51,040722,12.2,E,A,V*7B
20220704 010433+00:00 $WIMWV,330.09,R,0.39,N,A*20
20220704 010435+00:00 $IIMDA,29.8,I,1.01,B,13.8,C,,C,91.4,,,C,,T,,M,,N,,M*1F
20220704 010435+00:00 $HCHDT,149.3,T*26
20220704 010435+00:00 $GPRMC,010430,A,4938.8998,N,12605.6100,W,0,53,040722,12.2,E,A,V*70
20220704 010435+00:00 $WIMWV,327.99,R,0.7,N,A*12
20220704 010437+00:00 $IIMDA,29.8,I,1.01,B,13.8,C,,C,91.4,,,C,,T,,M,,N,,M*1F
20220704 010437+00:00 $HCHDT,149.4,T*21
20220704 010437+00:00 $GPRMC,010432,A,4938.8998,N,12605.6100,W,0,56,040722,12.2,E,A,V*77
20220704 010437+00:00 $WIMWV,284.69,R,0.7,N,A*15
20220704 010439+00:00 $IIMDA,29.8,I,1.01,B,13.8,C,,C,91.4,,,C,,T,,M,,N,,M*1F
20220704 010439+00:00 $HCHDT,149.4,T*21
20220704 010439+00:00 $GPRMC,010434,A,4938.8998,N,12605.6100,W,0,66,040722,12.2,E,A,V*72
20220704 010439+00:00 $WIMWV,301.89,R,0.39,N,A*2A
20220704 010441+00:00 $IIMDA,29.8,I,1.01,B,13.8,C,,C,91.4,,,C,,T,,M,,N,,M*1F
20220704 010441+00:00 $HCHDT,149.4,T*21
20220704 010441+00:00 $GPRMC,010436,A,4938.8998,N,12605.6100,W,0,91,040722,12.2,E,A,V*78
20220704 010441+00:00 $WIMWV,91.7,R,0.49,N,A*21
20220704 010443+00:00 $IIMDA,29.9,I,1.011,B,13.8,C,,C,91.5,,,C,,T,,M,,N,,M*2E
20220704 010443+00:00 $HCHDT,149.4,T*21
20220704 010443+00:00 $GPRMC,010438,A,4938.8998,N,12605.6100,W,0,121,040722,12.2,E,A,V*4C
20220704 010443+00:00 $WIMWV,119.9,R,0.49,N,A*1E
20220704 010445+00:00 $IIMDA,29.8,I,1.01,B,13.8,C,,C,91.4,,,C,,T,,M,,N,,M*1F
20220704 010445+00:00 $HCHDT,149.5,T*20
20220704 010445+00:00 $GPRMC,010440,A,4938.8998,N,12605.6100,W,0,152,040722,12.2,E,A,V*47
20220704 010445+00:00 $WIMWV,213.3,R,0.8,N,A*28
20220704 010447+00:00 $IIMDA,29.8,I,1.01,B,13.8,C,,C,91.5,,,C,,T,,M,,N,,M*1E
20220704 010447+00:00 $HCHDT,149.5,T*20
20220704 010447+00:00 $GPRMC,010442,A,4938.8998,N,12605.6100,W,0,171,040722,12.2,E,A,V*44
20220704 010447+00:00 $WIMWV,347.09,R,0.89,N,A*2B
20220704 010449+00:00 $IIMDA,29.8,I,1.01,B,13.8,C,,C,91.5,,,C,,T,,M,,N,,M*1E
20220704 010449+00:00 $HCHDT,149.6,T*23
20220704 010449+00:00 $GPRMC,010444,A,4938.8998,N,12605.6100,W,0,184,040722,12.2,E,A,V*48
20220704 010449+00:00 $WIMWV,19.6,R,0.49,N,A*20
20220704 010451+00:00 $IIMDA,29.8,I,1.01,B,13.8,C,,C,91.4,,,C,,T,,M,,N,,M*1F
20220704 010451+00:00 $HCHDT,149.7,T*22
20220704 010451+00:00 $GPRMC,010446,A,4938.8998,N,12605.6100,W,0,195,040722,12.2,E,A,V*4A
20220704 010451+00:00 $WIMWV,336.89,R,0.7,N,A*13
20220704 010453+00:00 $IIMDA,29.8,I,1.01,B,13.8,C,,C,91.5,,,C,,T,,M,,N,,M*1E
20220704 010453+00:00 $HCHDT,149.8,T*2D
20220704 010453+00:00 $GPRMC,010448,A,4938.8998,N,12605.6100,W,0,202,040722,12.2,E,A,V*49
20220704 010453+00:00 $WIMWV,14.6,R,0.58,N,A*2D
20220704 010455+00:00 $IIMDA,29.8,I,1.01,B,13.8,C,,C,91.4,,,C,,T,,M,,N,,M*1F
20220704 010455+00:00 $HCHDT,149.8,T*2D
20220704 010455+00:00 $GPRMC,010450,A,4938.8998,N,12605.6100,W,0,209,040722,12.2,E,A,V*4B
20220704 010455+00:00 $WIMWV,24.2,R,1.19,N,A*2E
20220704 010457+00:00 $IIMDA,29.8,I,1.01,B,13.8,C,,C,91.5,,,C,,T,,M,,N,,M*1E
20220704 010457+00:00 $HCHDT,149.8,T*2D
20220704 010457+00:00 $GPRMC,010452,A,4938.8998,N,12605.6100,W,0,214,040722,12.2,E,A,V*45
20220704 010457+00:00 $WIMWV,15.9,R,0.8,N,A*16
20220704 010459+00:00 $IIMDA,29.8,I,1.01,B,13.8,C,,C,91.5,,,C,,T,,M,,N,,M*1E
20220704 010459+00:00 $HCHDT,149.9,T*2C
20220704 010459+00:00 $GPRMC,010454,A,4938.8998,N,12605.6100,W,0,217,040722,12.2,E,A,V*40
20220704 010459+00:00 $WIMWV,30.7,R,0.29,N,A*2C
20220704 010501+00:00 $IIMDA,29.8,I,1.01,B,13.8,C,,C,91.5,,,C,,T,,M,,N,,M*1E
20220704 010501+00:00 $HCHDT,149.9,T*2C
20220704 010501+00:00 $GPRMC,010456,A,4938.8998,N,12605.6100,W,0,219,040722,12.2,E,A,V*4C
20220704 010501+00:00 $WIMWV,294.09,R,0.58,N,A*28
20220704 010503+00:00 $IIMDA,29.8,I,1.01,B,13.8,C,,C,91.5,,,C,,T,,M,,N,,M*1E
20220704 010503+00:00 $HCHDT,149.9,T*2C
20220704 010503+00:00 $GPRMC,010458,A,4938.8998,N,12605.6100,W,0,220,040722,12.2,E,A,V*48
20220704 010503+00:00 $WIMWV,0.19,R,0.29,N,A*20
20220704 010505+00:00 $IIMDA,29.8,I,1.01,B,13.8,C,,C,91.5,,,C,,T,,M,,N,,M*1E
20220704 010505+00:00 $HCHDT,149.9,T*2C
20220704 010505+00:00 $GPRMC,010500,A,4938.8998,N,12605.6100,W,0,220,040722,12.2,E,A,V*44
20220704 010505+00:00 $WIMWV,31,R,0.39,N,A*35
20220704 010507+00:00 $IIMDA,29.8,I,1.01,B,13.8,C,,C,91.5,,,C,,T,,M,,N,,M*1E
20220704 010507+00:00 $HCHDT,149.9,T*2C
20220704 010507+00:00 $GPRMC,010502,A,4938.8998,N,12605.6100,W,0,221,040722,12.2,E,A,V*47
20220704 010507+00:00 $WIMWV,300.39,R,0.49,N,A*27
20220704 010509+00:00 $IIMDA,29.8,I,1.01,B,13.8,C,,C,91.5,,,C,,T,,M,,N,,M*1E
20220704 010509+00:00 $HCHDT,149.9,T*2C
20220704 010509+00:00 $GPRMC,010504,A,4938.8998,N,12605.6100,W,0,221,040722,12.2,E,A,V*41
20220704 010509+00:00 $WIMWV,292.59,R,0.89,N,A*27
20220704 010511+00:00 $IIMDA,29.8,I,1.01,B,13.8,C,,C,91.5,,,C,,T,,M,,N,,M*1E
20220704 010511+00:00 $HCHDT,149.8,T*2D
20220704 010511+00:00 $GPRMC,010506,A,4938.8998,N,12605.6100,W,0,221,040722,12.2,E,A,V*43
20220704 010511+00:00 $WIMWV,337.59,R,0.58,N,A*25
20220704 010513+00:00 $IIMDA,29.8,I,1.01,B,13.8,C,,C,91.5,,,C,,T,,M,,N,,M*1E
20220704 010513+00:00 $HCHDT,149.7,T*22
20220704 010513+00:00 $GPRMC,010508,A,4938.8998,N,12605.6100,W,0,222,040722,12.2,E,A,V*4E
20220704 010513+00:00 $WIMWV,28.3,R,0.58,N,A*27
20220704 010515+00:00 $IIMDA,29.8,I,1.01,B,13.8,C,,C,91.5,,,C,,T,,M,,N,,M*1E
20220704 010515+00:00 $HCHDT,149.7,T*22
20220704 010515+00:00 $GPRMC,010510,A,4938.8998,N,12605.6100,W,0,225,040722,12.2,E,A,V*40
20220704 010515+00:00 $WIMWV,238.59,R,0.49,N,A*2B
20220704 010517+00:00 $IIMDA,29.8,I,1.01,B,13.8,C,,C,91.5,,,C,,T,,M,,N,,M*1E
20220704 010517+00:00 $HCHDT,149.5,T*20
20220704 010517+00:00 $GPRMC,010512,A,4938.8998,N,12605.6100,W,0,228,040722,12.2,E,A,V*4F
20220704 010517+00:00 $WIMWV,244.49,R,0.58,N,A*21
20220704 010519+00:00 $IIMDA,29.8,I,1.01,B,13.8,C,,C,91.5,,,C,,T,,M,,N,,M*1E
20220704 010519+00:00 $HCHDT,149.3,T*26
20220704 010519+00:00 $GPRMC,010514,A,4938.8998,N,12605.6100,W,0,239,040722,12.2,E,A,V*49
20220704 010519+00:00 $WIMWV,285.49,R,1.19,N,A*28
20220704 010521+00:00 $IIMDA,29.8,I,1.01,B,13.8,C,,C,91.5,,,C,,T,,M,,N,,M*1E
20220704 010521+00:00 $HCHDT,149.2,T*27
20220704 010521+00:00 $GPRMC,010516,A,4938.8998,N,12605.6100,W,0,251,040722,12.2,E,A,V*45
20220704 010521+00:00 $WIMWV,333.59,R,0.99,N,A*2C
20220704 010523+00:00 $IIMDA,29.8,I,1.01,B,13.8,C,,C,91.5,,,C,,T,,M,,N,,M*1E
20220704 010523+00:00 $HCHDT,149.1,T*24
20220704 010523+00:00 $GPRMC,010518,A,4938.8998,N,12605.6100,W,0,258,040722,12.2,E,A,V*42
20220704 010523+00:00 $WIMWV,269.99,R,0.58,N,A*23
20220704 010525+00:00 $IIMDA,29.8,I,1.01,B,13.8,C,,C,91.5,,,C,,T,,M,,N,,M*1E
20220704 010525+00:00 $HCHDT,149,T*3B
20220704 010525+00:00 $GPRMC,010520,A,4938.8998,N,12605.6100,W,0,266,040722,12.2,E,A,V*44
20220704 010525+00:00 $WIMWV,15.1,R,0.89,N,A*27
20220704 010527+00:00 $IIMDA,29.9,I,1.011,B,13.8,C,,C,91.5,,,C,,T,,M,,N,,M*2E
20220704 010527+00:00 $HCHDT,148.8,T*2C
20220704 010527+00:00 $GPRMC,010522,A,4938.8998,N,12605.6100,W,0,286,040722,12.2,E,A,V*48
20220704 010527+00:00 $WIMWV,27.4,R,0.58,N,A*2F
20220704 010529+00:00 $IIMDA,29.9,I,1.011,B,13.8,C,,C,91.5,,,C,,T,,M,,N,,M*2E
20220704 010529+00:00 $HCHDT,148.8,T*2C
20220704 010529+00:00 $GPRMC,010524,A,4938.8998,N,12605.6100,W,0,308,040722,12.2,E,A,V*49
20220704 010529+00:00 $WIMWV,324.89,R,0.39,N,A*2D
20220704 010531+00:00 $IIMDA,29.8,I,1.01,B,13.8,C,,C,91.5,,,C,,T,,M,,N,,M*1E
20220704 010531+00:00 $HCHDT,148.7,T*23
20220704 010531+00:00 $GPRMC,010526,A,4938.8998,N,12605.6100,W,0,331,040722,12.2,E,A,V*41
20220704 010531+00:00 $WIMWV,330.99,R,0.49,N,A*2E
20220704 010533+00:00 $IIMDA,29.8,I,1.01,B,13.8,C,,C,91.5,,,C,,T,,M,,N,,M*1E
20220704 010533+00:00 $HCHDT,148.6,T*22
20220704 010533+00:00 $GPRMC,010528,A,4938.8998,N,12605.6100,W,0,357,040722,12.2,E,A,V*4F
20220704 010533+00:00 $WIMWV,62.6,R,0.49,N,A*2C
20220704 010535+00:00 $IIMDA,29.8,I,1.01,B,13.8,C,,C,91.5,,,C,,T,,M,,N,,M*1E
20220704 010535+00:00 $HCHDT,148.6,T*22
20220704 010535+00:00 $GPRMC,010530,A,4938.8998,N,12605.6100,W,0,16,040722,12.2,E,A,V*70
20220704 010535+00:00 $WIMWV,8.7,R,0.8,N,A*24
20220704 010537+00:00 $IIMDA,29.8,I,1.01,B,13.8,C,,C,91.5,,,C,,T,,M,,N,,M*1E
20220704 010537+00:00 $HCHDT,148.6,T*22
20220704 010537+00:00 $GPRMC,010532,A,4938.8998,N,12605.6100,W,0,27,040722,12.2,E,A,V*70
20220704 010537+00:00 $WIMWV,23.7,R,0.8,N,A*1D
20220704 010539+00:00 $IIMDA,29.8,I,1.01,B,13.8,C,,C,91.5,,,C,,T,,M,,N,,M*1E
20220704 010539+00:00 $HCHDT,148.5,T*21
20220704 010539+00:00 $GPRMC,010534,A,4938.8998,N,12605.6100,W,0,33,040722,12.2,E,A,V*73
20220704 010539+00:00 $WIMWV,0.19,R,0.19,N,A*23
20220704 010541+00:00 $IIMDA,29.8,I,1.01,B,13.8,C,,C,91.5,,,C,,T,,M,,N,,M*1E
20220704 010541+00:00 $HCHDT,148.6,T*22
20220704 010541+00:00 $GPRMC,010536,A,4938.8998,N,12605.6100,W,0,36,040722,12.2,E,A,V*74
20220704 010541+00:00 $WIMWV,27,R,1.28,N,A*33
20220704 010543+00:00 $IIMDA,29.9,I,1.011,B,13.8,C,,C,91.6,,,C,,T,,M,,N,,M*2D
20220704 010543+00:00 $HCHDT,148.6,T*22
20220704 010543+00:00 $GPRMC,010538,A,4938.8998,N,12605.6100,W,0,39,040722,12.2,E,A,V*75
20220704 010543+00:00 $WIMWV,329.69,R,0.8,N,A*1C
20220704 010545+00:00 $IIMDA,29.9,I,1.011,B,13.8,C,,C,91.6,,,C,,T,,M,,N,,M*2D
20220704 010545+00:00 $HCHDT,148.7,T*23
20220704 010545+00:00 $GPRMC,010540,A,4938.8998,N,12605.6100,W,0,42,040722,12.2,E,A,V*76
20220704 010545+00:00 $WIMWV,313.59,R,0.7,N,A*19
20220704 010547+00:00 $IIMDA,29.8,I,1.01,B,13.8,C,,C,91.6,,,C,,T,,M,,N,,M*1D
20220704 010547+00:00 $HCHDT,148.8,T*2C
20220704 010547+00:00 $GPRMC,010542,A,4938.8998,N,12605.6100,W,0,44,040722,12.2,E,A,V*72
20220704 010547+00:00 $WIMWV,54.8,R,0.39,N,A*20
20220704 010549+00:00 $IIMDA,29.8,I,1.01,B,13.8,C,,C,91.6,,,C,,T,,M,,N,,M*1D
20220704 010549+00:00 $HCHDT,148.8,T*2C
20220704 010549+00:00 $GPRMC,010544,A,4938.8998,N,12605.6100,W,0,48,040722,12.2,E,A,V*78
20220704 010549+00:00 $WIMWV,100.19,R,1.19,N,A*23
20220704 010551+00:00 $IIMDA,29.8,I,1.01,B,13.8,C,,C,91.6,,,C,,T,,M,,N,,M*1D
20220704 010551+00:00 $HCHDT,148.9,T*2D
20220704 010551+00:00 $GPRMC,010546,A,4938.8998,N,12605.6100,W,0,51,040722,12.2,E,A,V*72
20220704 010551+00:00 $WIMWV,91.7,R,0.7,N,A*1B
20220704 010553+00:00 $IIMDA,29.8,I,1.01,B,13.8,C,,C,91.6,,,C,,T,,M,,N,,M*1D
20220704 010553+00:00 $HCHDT,149,T*3B
20220704 010553+00:00 $GPRMC,010548,A,4938.8998,N,12605.6100,W,0,54,040722,12.2,E,A,V*79
20220704 010553+00:00 $WIMWV,91.7,R,0.58,N,A*21
20220704 010555+00:00 $IIMDA,29.8,I,1.01,B,13.8,C,,C,91.6,,,C,,T,,M,,N,,M*1D
20220704 010555+00:00 $HCHDT,149.1,T*24
20220704 010555+00:00 $GPRMC,010550,A,4938.8998,N,12605.6100,W,0,56,040722,12.2,E,A,V*72
20220704 010555+00:00 $WIMWV,91.7,R,0.89,N,A*2D
20220704 010557+00:00 $IIMDA,29.8,I,1.01,B,13.8,C,,C,91.6,,,C,,T,,M,,N,,M*1D
20220704 010557+00:00 $HCHDT,149.2,T*27
20220704 010557+00:00 $GPRMC,010552,A,4938.8998,N,12605.6100,W,0,57,040722,12.2,E,A,V*71
20220704 010557+00:00 $WIMWV,53.3,R,1.28,N,A*2D
20220704 010559+00:00 $IIMDA,29.8,I,1.01,B,13.8,C,,C,91.6,,,C,,T,,M,,N,,M*1D
20220704 010559+00:00 $HCHDT,149.3,T*26
20220704 010559+00:00 $GPRMC,010554,A,4938.8998,N,12605.6100,W,0,54,040722,12.2,E,A,V*74
20220704 010559+00:00 $WIMWV,66.5,R,1.19,N,A*2F
20220704 010601+00:00 $IIMDA,29.8,I,1.01,B,13.8,C,,C,91.6,,,C,,T,,M,,N,,M*1D
20220704 010601+00:00 $HCHDT,149.4,T*21
20220704 010601+00:00 $GPRMC,010556,A,4938.8998,N,12605.6100,W,0,49,040722,12.2,E,A,V*7A
20220704 010601+00:00 $WIMWV,28.4,R,0.49,N,A*20
20220704 010603+00:00 $IIMDA,29.8,I,1.01,B,13.8,C,,C,91.6,,,C,,T,,M,,N,,M*1D
20220704 010603+00:00 $HCHDT,149.4,T*21
20220704 010603+00:00 $GPRMC,010558,A,4938.8998,N,12605.6100,W,0,26,040722,12.2,E,A,V*7D
20220704 010603+00:00 $WIMWV,61.6,R,1.59,N,A*2F
20220704 010605+00:00 $IIMDA,29.8,I,1.01,B,13.8,C,,C,91.6,,,C,,T,,M,,N,,M*1D
20220704 010605+00:00 $HCHDT,149.5,T*20
20220704 010605+00:00 $GPRMC,010600,A,4938.8998,N,12605.6100,W,0,339,040722,12.2,E,A,V*4E
20220704 010605+00:00 $WIMWV,53.7,R,1.79,N,A*2D
20220704 010607+00:00 $IIMDA,29.8,I,1.01,B,13.8,C,,C,91.6,,,C,,T,,M,,N,,M*1D
20220704 010607+00:00 $HCHDT,149.5,T*20
20220704 010607+00:00 $GPRMC,010602,A,4938.8998,N,12605.6100,W,0,296,040722,12.2,E,A,V*48
20220704 010607+00:00 $WIMWV,73.3,R,0.8,N,A*1C
20220704 010609+00:00 $IIMDA,29.8,I,1.01,B,13.8,C,,C,91.6,,,C,,T,,M,,N,,M*1D
20220704 010609+00:00 $HCHDT,149.6,T*23
20220704 010609+00:00 $GPRMC,010604,A,4938.8998,N,12605.6100,W,0,272,040722,12.2,E,A,V*44
20220704 010609+00:00 $WIMWV,45.19,R,1.59,N,A*17
20220704 010611+00:00 $IIMDA,29.8,I,1.01,B,13.8,C,,C,91.6,,,C,,T,,M,,N,,M*1D
20220704 010611+00:00 $HCHDT,149.6,T*23
20220704 010611+00:00 $GPRMC,010606,A,4938.8998,N,12605.6100,W,0,254,040722,12.2,E,A,V*42
20220704 010611+00:00 $WIMWV,86.2,R,1.69,N,A*21
20220704 010613+00:00 $IIMDA,29.8,I,1.01,B,13.8,C,,C,91.6,,,C,,T,,M,,N,,M*1D
20220704 010613+00:00 $HCHDT,149.7,T*22
20220704 010613+00:00 $GPRMC,010608,A,4938.8998,N,12605.6100,W,0,239,040722,12.2,E,A,V*47
20220704 010613+00:00 $WIMWV,53.7,R,1.59,N,A*2F
20220704 010615+00:00 $IIMDA,29.8,I,1.01,B,13.8,C,,C,91.5,,,C,,T,,M,,N,,M*1E
20220704 010615+00:00 $HCHDT,149.7,T*22
20220704 010615+00:00 $GPRMC,010610,A,4938.8998,N,12605.6100,W,0,229,040722,12.2,E,A,V*4F
20220704 010615+00:00 $WIMWV,44.7,R,1.28,N,A*2F
20220704 010617+00:00 $IIMDA,29.8,I,1.01,B,13.8,C,,C,91.6,,,C,,T,,M,,N,,M*1D
20220704 010617+00:00 $HCHDT,149.8,T*2D
20220704 010617+00:00 $GPRMC,010612,A,4938.8998,N,12605.6100,W,0,222,040722,12.2,E,A,V*46
20220704 010617+00:00 $WIMWV,30.6,R,1.28,N,A*2D
20220704 010619+00:00 $IIMDA,29.8,I,1.01,B,13.8,C,,C,91.5,,,C,,T,,M,,N,,M*1E
20220704 010619+00:00 $HCHDT,149.8,T*2D
20220704 010619+00:00 $GPRMC,010614,A,4938.8998,N,12605.6100,W,0,216,040722,12.2,E,A,V*47
20220704 010619+00:00 $WIMWV,34.39,R,1.79,N,A*11
20220704 010621+00:00 $IIMDA,29.8,I,1.01,B,13.8,C,,C,91.6,,,C,,T,,M,,N,,M*1D
20220704 010621+00:00 $HCHDT,149.8,T*2D
20220704 010621+00:00 $GPRMC,010616,A,4938.8998,N,12605.6100,W,0,211,040722,12.2,E,A,V*42
20220704 010621+00:00 $WIMWV,115.39,R,1.19,N,A*25
20220704 010623+00:00 $IIMDA,29.8,I,1.01,B,13.8,C,,C,91.6,,,C,,T,,M,,N,,M*1D
20220704 010623+00:00 $HCHDT,149.8,T*2D
20220704 010623+00:00 $GPRMC,010618,A,4938.8998,N,12605.6100,W,0,202,040722,12.2,E,A,V*4E
20220704 010623+00:00 $WIMWV,74,R,0.58,N,A*33
20220704 010625+00:00 $IIMDA,29.8,I,1.01,B,13.8,C,,C,91.6,,,C,,T,,M,,N,,M*1D
20220704 010625+00:00 $HCHDT,149.7,T*22
20220704 010625+00:00 $GPRMC,010620,A,4938.8998,N,12605.6100,W,0,190,040722,12.2,E,A,V*4D
20220704 010625+00:00 $WIMWV,118.89,R,0.29,N,A*21
20220704 010627+00:00 $IIMDA,29.8,I,1.01,B,13.8,C,,C,91.6,,,C,,T,,M,,N,,M*1D
20220704 010627+00:00 $HCHDT,149.7,T*22
20220704 010627+00:00 $GPRMC,010622,A,4938.8998,N,12605.6100,W,0,177,040722,12.2,E,A,V*46
20220704 010627+00:00 $WIMWV,91.7,R,0.19,N,A*24
20220704 010629+00:00 $IIMDA,29.8,I,1.01,B,13.8,C,,C,91.5,,,C,,T,,M,,N,,M*1E
20220704 010629+00:00 $HCHDT,149.7,T*22
20220704 010629+00:00 $GPRMC,010624,A,4938.8998,N,12605.6100,W,0,163,040722,12.2,E,A,V*45
20220704 010629+00:00 $WIMWV,243.79,R,0.58,N,A*25
20220704 010631+00:00 $IIMDA,29.8,I,1.01,B,13.8,C,,C,91.6,,,C,,T,,M,,N,,M*1D
20220704 010631+00:00 $HCHDT,149.6,T*23
20220704 010631+00:00 $GPRMC,010626,A,4938.8998,N,12605.6100,W,0,151,040722,12.2,E,A,V*46
20220704 010631+00:00 $WIMWV,269.99,R,0.29,N,A*25
20220704 010633+00:00 $IIMDA,29.8,I,1.01,B,13.8,C,,C,91.5,,,C,,T,,M,,N,,M*1E
20220704 010633+00:00 $HCHDT,149.5,T*20
20220704 010633+00:00 $GPRMC,010628,A,4938.8998,N,12605.6100,W,0,139,040722,12.2,E,A,V*46
20220704 010633+00:00 $WIMWV,262.79,R,0.99,N,A*2B
20220704 010635+00:00 $IIMDA,29.8,I,1.01,B,13.8,C,,C,91.5,,,C,,T,,M,,N,,M*1E
20220704 010635+00:00 $HCHDT,149.4,T*21
20220704 010635+00:00 $GPRMC,010630,A,4938.8998,N,12605.6100,W,0,124,040722,12.2,E,A,V*43
20220704 010635+00:00 $WIMWV,299.09,R,0.49,N,A*25
20220704 010637+00:00 $IIMDA,29.8,I,1.01,B,13.8,C,,C,91.5,,,C,,T,,M,,N,,M*1E
20220704 010637+00:00 $HCHDT,149.3,T*26
20220704 010637+00:00 $GPRMC,010632,A,4938.8998,N,12605.6100,W,0,108,040722,12.2,E,A,V*4F
20220704 010637+00:00 $WIMWV,243.59,R,0.58,N,A*27
20220704 010639+00:00 $IIMDA,29.8,I,1.01,B,13.8,C,,C,91.5,,,C,,T,,M,,N,,M*1E
20220704 010639+00:00 $HCHDT,149.2,T*27
20220704 010639+00:00 $GPRMC,010634,A,4938.8998,N,12605.6100,W,0,94,040722,12.2,E,A,V*7D
20220704 010639+00:00 $WIMWV,300.49,R,0.8,N,A*15
20220704 010641+00:00 $IIMDA,29.8,I,1.01,B,13.8,C,,C,91.5,,,C,,T,,M,,N,,M*1E
20220704 010641+00:00 $HCHDT,149.1,T*24
20220704 010641+00:00 $GPRMC,010636,A,4938.8998,N,12605.6100,W,0,81,040722,12.2,E,A,V*7B
20220704 010641+00:00 $WIMWV,46.4,R,0.39,N,A*2F
20220704 010643+00:00 $IIMDA,29.8,I,1.01,B,13.8,C,,C,91.6,,,C,,T,,M,,N,,M*1D
20220704 010643+00:00 $HCHDT,149,T*3B
20220704 010643+00:00 $GPRMC,010638,A,4938.8998,N,12605.6100,W,0,70,040722,12.2,E,A,V*7B
20220704 010643+00:00 $WIMWV,241.69,R,0.49,N,A*26
20220704 010645+00:00 $IIMDA,29.9,I,1.011,B,13.8,C,,C,91.6,,,C,,T,,M,,N,,M*2D
20220704 010645+00:00 $HCHDT,148.9,T*2D
20220704 010645+00:00 $GPRMC,010640,A,4938.8998,N,12605.6100,W,0,62,040722,12.2,E,A,V*77
20220704 010645+00:00 $WIMWV,212.29,R,0.7,N,A*1E
20220704 010647+00:00 $IIMDA,29.8,I,1.01,B,13.8,C,,C,91.6,,,C,,T,,M,,N,,M*1D
20220704 010647+00:00 $HCHDT,148.8,T*2C
20220704 010647+00:00 $GPRMC,010642,A,4938.8998,N,12605.6100,W,0,54,040722,12.2,E,A,V*70
20220704 010647+00:00 $WIMWV,112.6,R,0.39,N,A*1D
20220704 010649+00:00 $IIMDA,29.8,I,1.01,B,13.8,C,,C,91.6,,,C,,T,,M,,N,,M*1D
20220704 010649+00:00 $HCHDT,148.9,T*2D
20220704 010649+00:00 $GPRMC,010644,A,4938.8998,N,12605.6100,W,0,45,040722,12.2,E,A,V*76
20220704 010649+00:00 $WIMWV,112.79,R,0.7,N,A*18
20220704 010651+00:00 $IIMDA,29.8,I,1.01,B,13.8,C,,C,91.6,,,C,,T,,M,,N,,M*1D
20220704 010651+00:00 $HCHDT,148.9,T*2D
20220704 010651+00:00 $GPRMC,010646,A,4938.8998,N,12605.6100,W,0,36,040722,12.2,E,A,V*70
20220704 010651+00:00 $WIMWV,163.2,R,0.58,N,A*18
20220704 010653+00:00 $IIMDA,29.8,I,1.01,B,13.8,C,,C,91.6,,,C,,T,,M,,N,,M*1D
20220704 010653+00:00 $HCHDT,149,T*3B
20220704 010653+00:00 $GPRMC,010648,A,4938.8998,N,12605.6100,W,0,27,040722,12.2,E,A,V*7E
20220704 010653+00:00 $WIMWV,74.5,R,0.8,N,A*1D
20220704 010655+00:00 $IIMDA,29.8,I,1.01,B,13.8,C,,C,91.6,,,C,,T,,M,,N,,M*1D
20220704 010655+00:00 $HCHDT,149.2,T*27
20220704 010655+00:00 $GPRMC,010650,A,4938.8998,N,12605.6100,W,0,17,040722,12.2,E,A,V*74
20220704 010655+00:00 $WIMWV,232.79,R,0.89,N,A*2F
20220704 010657+00:00 $IIMDA,29.8,I,1.01,B,13.8,C,,C,91.6,,,C,,T,,M,,N,,M*1D
20220704 010657+00:00 $HCHDT,149.2,T*27
20220704 010657+00:00 $GPRMC,010652,A,4938.8998,N,12605.6100,W,0,1,040722,12.2,E,A,V*41
20220704 010657+00:00 $WIMWV,130.1,R,0.29,N,A*1B
20220704 010659+00:00 $IIMDA,29.8,I,1.01,B,13.8,C,,C,91.6,,,C,,T,,M,,N,,M*1D
20220704 010659+00:00 $HCHDT,149.3,T*26
20220704 010659+00:00 $GPRMC,010654,A,4938.8998,N,12605.6100,W,0,337,040722,12.2,E,A,V*41
20220704 010659+00:00 $WIMWV,69.49,R,0.7,N,A*26
20220704 010701+00:00 $IIMDA,29.8,I,1.01,B,13.8,C,,C,91.6,,,C,,T,,M,,N,,M*1D
20220704 010701+00:00 $HCHDT,149.4,T*21
20220704 010701+00:00 $GPRMC,010656,A,4938.8998,N,12605.6100,W,0,305,040722,12.2,E,A,V*42
20220704 010701+00:00 $WIMWV,350.79,R,0.99,N,A*2B
20220704 010703+00:00 $IIMDA,29.8,I,1.01,B,13.8,C,,C,91.6,,,C,,T,,M,,N,,M*1D
20220704 010703+00:00 $HCHDT,149.5,T*20
20220704 010703+00:00 $GPRMC,010658,A,4938.8998,N,12605.6100,W,0,282,040722,12.2,E,A,V*42
20220704 010703+00:00 $WIMWV,313.79,R,1.09,N,A*24
20220704 010705+00:00 $IIMDA,29.8,I,1.01,B,13.8,C,,C,91.6,,,C,,T,,M,,N,,M*1D
20220704 010705+00:00 $HCHDT,149.5,T*20
20220704 010705+00:00 $GPRMC,010700,A,4938.8998,N,12605.6100,W,0,268,040722,12.2,E,A,V*4A
20220704 010705+00:00 $WIMWV,221.49,R,0.29,N,A*24
20220704 010707+00:00 $IIMDA,29.8,I,1.01,B,13.8,C,,C,91.6,,,C,,T,,M,,N,,M*1D
20220704 010707+00:00 $HCHDT,149.6,T*23
20220704 010707+00:00 $GPRMC,010702,A,4938.8998,N,12605.6100,W,0,260,040722,12.2,E,A,V*40
20220704 010707+00:00 $WIMWV,55.1,R,1.19,N,A*2B
20220704 010709+00:00 $IIMDA,29.8,I,1.01,B,13.8,C,,C,91.6,,,C,,T,,M,,N,,M*1D
20220704 010709+00:00 $HCHDT,149.6,T*23
20220704 010709+00:00 $GPRMC,010704,A,4938.8998,N,12605.6100,W,0,256,040722,12.2,E,A,V*43
20220704 010709+00:00 $WIMWV,82.09,R,0.99,N,A*10
20220704 010711+00:00 $IIMDA,29.8,I,1.01,B,13.8,C,,C,91.6,,,C,,T,,M,,N,,M*1D
20220704 010711+00:00 $HCHDT,149.7,T*22
20220704 010711+00:00 $GPRMC,010706,A,4938.8998,N,12605.6100,W,0,253,040722,12.2,E,A,V*44
20220704 010711+00:00 $WIMWV,123.09,R,1.19,N,A*23
20220704 010713+00:00 $IIMDA,29.8,I,1.01,B,13.8,C,,C,91.6,,,C,,T,,M,,N,,M*1D
20220704 010713+00:00 $HCHDT,149.7,T*22
20220704 010713+00:00 $GPRMC,010708,A,4938.8998,N,12605.6100,W,0,250,040722,12.2,E,A,V*49
20220704 010713+00:00 $WIMWV,116.6,R,0.7,N,A*24
20220704 010715+00:00 $IIMDA,29.8,I,1.01,B,13.8,C,,C,91.6,,,C,,T,,M,,N,,M*1D
20220704 010715+00:00 $HCHDT,149.7,T*22
20220704 010715+00:00 $GPRMC,010710,A,4938.8998,N,12605.6100,W,0,250,040722,12.2,E,A,V*40
20220704 010715+00:00 $WIMWV,0.19,R,0.19,N,A*23
20220704 010717+00:00 $IIMDA,29.8,I,1.01,B,13.8,C,,C,91.6,,,C,,T,,M,,N,,M*1D
20220704 010717+00:00 $HCHDT,149.7,T*22
20220704 010717+00:00 $GPRMC,010712,A,4938.8998,N,12605.6100,W,0,251,040722,12.2,E,A,V*43
20220704 010717+00:00 $WIMWV,91.7,R,0.19,N,A*24
20220704 010719+00:00 $IIMDA,29.8,I,1.01,B,13.8,C,,C,91.6,,,C,,T,,M,,N,,M*1D
20220704 010719+00:00 $HCHDT,149.7,T*22
20220704 010719+00:00 $GPRMC,010714,A,4938.8998,N,12605.6100,W,0,249,040722,12.2,E,A,V*4C
20220704 010719+00:00 $WIMWV,111.8,R,0.8,N,A*22
20220704 010721+00:00 $IIMDA,29.8,I,1.01,B,13.8,C,,C,91.7,,,C,,T,,M,,N,,M*1C
20220704 010721+00:00 $HCHDT,149.8,T*2D
20220704 010721+00:00 $GPRMC,010716,A,4938.8998,N,12605.6100,W,0,248,040722,12.2,E,A,V*4F
20220704 010721+00:00 $WIMWV,72.99,R,1.19,N,A*1F
20220704 010723+00:00 $IIMDA,29.8,I,1.01,B,13.8,C,,C,91.6,,,C,,T,,M,,N,,M*1D
20220704 010723+00:00 $HCHDT,149.7,T*22
20220704 010723+00:00 $GPRMC,010718,A,4938.8998,N,12605.6100,W,0,247,040722,12.2,E,A,V*4E
20220704 010723+00:00 $WIMWV,74.3,R,0.89,N,A*22
20220704 010725+00:00 $IIMDA,29.8,I,1.01,B,13.8,C,,C,91.7,,,C,,T,,M,,N,,M*1C
20220704 010725+00:00 $HCHDT,149.7,T*22
20220704 010725+00:00 $GPRMC,010720,A,4938.8998,N,12605.6100,W,0,244,040722,12.2,E,A,V*46
20220704 010725+00:00 $WIMWV,159.69,R,0.8,N,A*19
20220704 010727+00:00 $IIMDA,29.8,I,1.01,B,13.8,C,,C,91.6,,,C,,T,,M,,N,,M*1D
20220704 010727+00:00 $HCHDT,149.8,T*2D
20220704 010727+00:00 $GPRMC,010722,A,4938.8998,N,12605.6100,W,0,241,040722,12.2,E,A,V*41
20220704 010727+00:00 $WIMWV,139.8,R,0.99,N,A*10
20220704 010729+00:00 $IIMDA,29.8,I,1.01,B,13.8,C,,C,91.7,,,C,,T,,M,,N,,M*1C
20220704 010729+00:00 $HCHDT,149.7,T*22
20220704 010729+00:00 $GPRMC,010724,A,4938.8998,N,12605.6100,W,0,237,040722,12.2,E,A,V*46
20220704 010729+00:00 $WIMWV,49.5,R,0.39,N,A*21
20220704 010731+00:00 $IIMDA,29.9,I,1.011,B,13.8,C,,C,91.7,,,C,,T,,M,,N,,M*2C
20220704 010731+00:00 $HCHDT,149.7,T*22
20220704 010731+00:00 $GPRMC,010726,A,4938.8998,N,12605.6100,W,0,234,040722,12.2,E,A,V*47
20220704 010731+00:00 $WIMWV,105.69,R,0.58,N,A*25
20220704 010733+00:00 $IIMDA,29.9,I,1.011,B,13.8,C,,C,91.7,,,C,,T,,M,,N,,M*2C
20220704 010733+00:00 $HCHDT,149.7,T*22
20220704 010733+00:00 $GPRMC,010728,A,4938.8998,N,12605.6100,W,0,231,040722,12.2,E,A,V*4C
20220704 010733+00:00 $WIMWV,187.79,R,1.09,N,A*2B
20220704 010735+00:00 $IIMDA,29.9,I,1.011,B,13.8,C,,C,91.7,,,C,,T,,M,,N,,M*2C
20220704 010735+00:00 $HCHDT,149.7,T*22
20220704 010735+00:00 $GPRMC,010730,A,4938.8998,N,12605.6100,W,0,228,040722,12.2,E,A,V*4D
20220704 010735+00:00 $WIMWV,117.5,R,0.8,N,A*29
20220704 010737+00:00 $IIMDA,29.8,I,1.01,B,13.8,C,,C,91.7,,,C,,T,,M,,N,,M*1C
20220704 010737+00:00 $HCHDT,149.6,T*23
20220704 010737+00:00 $GPRMC,010732,A,4938.8998,N,12605.6100,W,0,227,040722,12.2,E,A,V*40
20220704 010737+00:00 $WIMWV,129.99,R,0.58,N,A*24
20220704 010739+00:00 $IIMDA,29.9,I,1.011,B,13.8,C,,C,91.7,,,C,,T,,M,,N,,M*2C
20220704 010739+00:00 $HCHDT,149.5,T*20
20220704 010739+00:00 $GPRMC,010734,A,4938.8998,N,12605.6100,W,0,225,040722,12.2,E,A,V*44
20220704 010739+00:00 $WIMWV,138.59,R,1.09,N,A*2D
20220704 010741+00:00 $IIMDA,29.8,I,1.01,B,13.8,C,,C,91.7,,,C,,T,,M,,N,,M*1C
20220704 010741+00:00 $HCHDT,149.3,T*26
20220704 010741+00:00 $GPRMC,010736,A,4938.8998,N,12605.6100,W,0,224,040722,12.2,E,A,V*47
20220704 010741+00:00 $WIMWV,119.7,R,0.89,N,A*1C
20220704 010743+00:00 $IIMDA,29.8,I,1.01,B,13.9,C,,C,91.7,,,C,,T,,M,,N,,M*1D
20220704 010743+00:00 $HCHDT,149.1,T*24
20220704 010743+00:00 $GPRMC,010738,A,4938.8998,N,12605.6100,W,0,224,040722,12.2,E,A,V*49
20220704 010743+00:00 $WIMWV,73.4,R,0.8,N,A*1B
20220704 010745+00:00 $IIMDA,29.9,I,1.011,B,13.9,C,,C,91.7,,,C,,T,,M,,N,,M*2D
20220704 010745+00:00 $HCHDT,149,T*3B
20220704 010745+00:00 $GPRMC,010740,A,4938.8998,N,12605.6100,W,0,240,040722,12.2,E,A,V*44
20220704 010745+00:00 $WIMWV,180.6,R,0.7,N,A*2B
20220704 010747+00:00 $IIMDA,29.8,I,1.01,B,13.9,C,,C,91.7,,,C,,T,,M,,N,,M*1D
20220704 010747+00:00 $HCHDT,148.9,T*2D
20220704 010747+00:00 $GPRMC,010742,A,4938.8998,N,12605.6100,W,0,257,040722,12.2,E,A,V*40
20220704 010747+00:00 $WIMWV,91.7,R,0.29,N,A*27
20220704 010749+00:00 $IIMDA,29.8,I,1.01,B,13.9,C,,C,91.8,,,C,,T,,M,,N,,M*12
20220704 010749+00:00 $HCHDT,148.7,T*23
20220704 010749+00:00 $GPRMC,010744,A,4938.8998,N,12605.6100,W,0,277,040722,12.2,E,A,V*44
20220704 010749+00:00 $WIMWV,49.5,R,0.39,N,A*21
