20220705 030000+00:00 $IIMDA,29.9,I,1.013,B,12.2,C,,C,90.4,,,C,,T,,M,,N,,M*27
20220705 030000+00:00 $HCHDT,336.8,T*27
20220705 030000+00:00 $GPRMC,025956,A,4833.1596,N,12311.7696,W,9.41,344,050722,11.7,E,A,V*63
20220705 030000+00:00 $WIMWV,23.5,R,3.69,N,A*2B
20220705 030002+00:00 $IIMDA,29.9,I,1.013,B,12.2,C,,C,90.4,,,C,,T,,M,,N,,M*27
20220705 030002+00:00 $HCHDT,336.7,T*28
20220705 030002+00:00 $GPRMC,025958,A,4833.1698,N,12311.7696,W,9.41,344,050722,11.7,E,A,V*60
20220705 030002+00:00 $WIMWV,30.4,R,3.79,N,A*29
20220705 030004+00:00 $IIMDA,29.9,I,1.013,B,12.2,C,,C,90.4,,,C,,T,,M,,N,,M*27
20220705 030004+00:00 $HCHDT,336.7,T*28
20220705 030004+00:00 $GPRMC,030000,A,4833.1698,N,12311.7798,W,9.41,344,050722,11.7,E,A,V*6F
20220705 030004+00:00 $WIMWV,32.5,R,4.78,N,A*2C
20220705 030006+00:00 $IIMDA,29.9,I,1.013,B,12.2,C,,C,90.4,,,C,,T,,M,,N,,M*27
20220705 030006+00:00 $HCHDT,336.7,T*28
20220705 030006+00:00 $GPRMC,030002,A,4833.1800,N,12311.7798,W,9.41,344,050722,11.7,E,A,V*62
20220705 030006+00:00 $WIMWV,34.39,R,5.29,N,A*10
20220705 030008+00:00 $IIMDA,29.9,I,1.013,B,12.2,C,,C,90.4,,,C,,T,,M,,N,,M*27
20220705 030008+00:00 $HCHDT,336.7,T*28
20220705 030008+00:00 $GPRMC,030004,A,4833.1800,N,12311.7798,W,9.41,344,050722,11.7,E,A,V*64
20220705 030008+00:00 $WIMWV,33.29,R,5.7,N,A*2A
20220705 030010+00:00 $IIMDA,29.9,I,1.013,B,12.2,C,,C,90.4,,,C,,T,,M,,N,,M*27
20220705 030010+00:00 $HCHDT,336.7,T*28
20220705 030010+00:00 $GPRMC,030006,A,4833.1896,N,12311.7798,W,9.41,344,050722,11.7,E,A,V*69
20220705 030010+00:00 $WIMWV,34.6,R,5.6,N,A*11
20220705 030012+00:00 $IIMDA,29.9,I,1.013,B,12.2,C,,C,90.4,,,C,,T,,M,,N,,M*27
20220705 030012+00:00 $HCHDT,336.7,T*28
20220705 030012+00:00 $GPRMC,030008,A,4833.1896,N,12311.7900,W,9.41,344,050722,11.7,E,A,V*68
20220705 030012+00:00 $WIMWV,33.09,R,5.19,N,A*17
20220705 030014+00:00 $IIMDA,29.9,I,1.013,B,12.2,C,,C,90.4,,,C,,T,,M,,N,,M*27
20220705 030014+00:00 $HCHDT,336.7,T*28
20220705 030014+00:00 $GPRMC,030010,A,4833.1998,N,12311.7900,W,9.41,344,050722,11.7,E,A,V*6E
20220705 030014+00:00 $WIMWV,38.1,R,5.7,N,A*1B
20220705 030016+00:00 $IIMDA,29.9,I,1.013,B,12.2,C,,C,90.4,,,C,,T,,M,,N,,M*27
20220705 030016+00:00 $HCHDT,336.6,T*29
20220705 030016+00:00 $GPRMC,030012,A,4833.1998,N,12311.7900,W,9.51,345,050722,11.7,E,A,V*6C
20220705 030016+00:00 $WIMWV,34.39,R,5.29,N,A*10
20220705 030018+00:00 $IIMDA,29.9,I,1.013,B,12.2,C,,C,90.4,,,C,,T,,M,,N,,M*27
20220705 030018+00:00 $HCHDT,336.6,T*29
20220705 030018+00:00 $GPRMC,030014,A,4833.2100,N,12311.7900,W,9.51,345,050722,11.7,E,A,V*60
20220705 030018+00:00 $WIMWV,34.6,R,5.7,N,A*10
20220705 030020+00:00 $IIMDA,29.9,I,1.013,B,12.2,C,,C,90.4,,,C,,T,,M,,N,,M*27
20220705 030020+00:00 $HCHDT,336.5,T*2A
20220705 030020+00:00 $GPRMC,030016,A,4833.2100,N,12311.7900,W,9.51,345,050722,11.7,E,A,V*62
20220705 030020+00:00 $WIMWV,31.5,R,4.78,N,A*2F
20220705 030022+00:00 $IIMDA,29.9,I,1.013,B,12.2,C,,C,90.4,,,C,,T,,M,,N,,M*27
20220705 030022+00:00 $HCHDT,336.2,T*2D
20220705 030022+00:00 $GPRMC,030018,A,4833.2196,N,12311.7996,W,9.51,345,050722,11.7,E,A,V*6C
20220705 030022+00:00 $WIMWV,38.39,R,5.29,N,A*1C
20220705 030024+00:00 $IIMDA,29.9,I,1.013,B,12.2,C,,C,90.4,,,C,,T,,M,,N,,M*27
20220705 030024+00:00 $HCHDT,336,T*31
20220705 030024+00:00 $GPRMC,030020,A,4833.2196,N,12311.7996,W,9.51,344,050722,11.7,E,A,V*66
20220705 030024+00:00 $WIMWV,30.19,R,4.9,N,A*25
20220705 030026+00:00 $IIMDA,29.9,I,1.013,B,12.2,C,,C,90.4,,,C,,T,,M,,N,,M*27
20220705 030026+00:00 $HCHDT,335.6,T*2A
20220705 030026+00:00 $GPRMC,030022,A,4833.2298,N,12311.7996,W,9.51,344,050722,11.7,E,A,V*69
20220705 030026+00:00 $WIMWV,26.69,R,3.69,N,A*14
20220705 030028+00:00 $IIMDA,29.9,I,1.013,B,12.2,C,,C,90.4,,,C,,T,,M,,N,,M*27
20220705 030028+00:00 $HCHDT,335.5,T*29
20220705 030028+00:00 $GPRMC,030024,A,4833.2298,N,12311.7996,W,9.51,344,050722,11.7,E,A,V*6F
20220705 030028+00:00 $WIMWV,8.2,R,5,N,A*32
20220705 030030+00:00 $IIMDA,29.9,I,1.013,B,12.2,C,,C,90.4,,,C,,T,,M,,N,,M*27
20220705 030030+00:00 $HCHDT,335.4,T*28
20220705 030030+00:00 $GPRMC,030026,A,4833.2400,N,12311.7996,W,9.51,344,050722,11.7,E,A,V*6A
20220705 030030+00:00 $WIMWV,30.19,R,3.69,N,A*14
20220705 030032+00:00 $IIMDA,29.9,I,1.013,B,12.2,C,,C,90.4,,,C,,T,,M,,N,,M*27
20220705 030032+00:00 $HCHDT,335.6,T*2A
20220705 030032+00:00 $GPRMC,030028,A,4833.2400,N,12311.8098,W,9.41,344,050722,11.7,E,A,V*6D
20220705 030032+00:00 $WIMWV,30.7,R,3.98,N,A*25
20220705 030034+00:00 $IIMDA,29.9,I,1.013,B,12.2,C,,C,90.3,,,C,,T,,M,,N,,M*20
20220705 030034+00:00 $HCHDT,335.7,T*2B
20220705 030034+00:00 $GPRMC,030030,A,4833.2496,N,12311.8098,W,9.41,343,050722,11.7,E,A,V*6C
20220705 030034+00:00 $WIMWV,28.4,R,3.69,N,A*21
20220705 030036+00:00 $IIMDA,29.9,I,1.013,B,12.2,C,,C,90.3,,,C,,T,,M,,N,,M*20
20220705 030036+00:00 $HCHDT,335.9,T*25
20220705 030036+00:00 $GPRMC,030032,A,4833.2496,N,12311.8098,W,9.41,343,050722,11.7,E,A,V*6E
20220705 030036+00:00 $WIMWV,9.6,R,2.49,N,A*13
20220705 030038+00:00 $IIMDA,29.9,I,1.013,B,12.2,C,,C,90.3,,,C,,T,,M,,N,,M*20
20220705 030038+00:00 $HCHDT,336.1,T*2E
20220705 030038+00:00 $GPRMC,030034,A,4833.2598,N,12311.8098,W,9.41,343,050722,11.7,E,A,V*67
20220705 030038+00:00 $WIMWV,18.5,R,2.8,N,A*15
20220705 030040+00:00 $IIMDA,29.9,I,1.013,B,12.2,C,,C,90.4,,,C,,T,,M,,N,,M*27
20220705 030040+00:00 $HCHDT,336.3,T*2C
20220705 030040+00:00 $GPRMC,030036,A,4833.2598,N,12311.8200,W,9.41,343,050722,11.7,E,A,V*66
20220705 030040+00:00 $WIMWV,22.2,R,3.19,N,A*2A
20220705 030042+00:00 $IIMDA,29.9,I,1.013,B,12.2,C,,C,90.3,,,C,,T,,M,,N,,M*20
20220705 030042+00:00 $HCHDT,336.5,T*2A
20220705 030042+00:00 $GPRMC,030038,A,4833.2700,N,12311.8200,W,9.41,343,050722,11.7,E,A,V*6B
20220705 030042+00:00 $WIMWV,27.99,R,3.79,N,A*1B
20220705 030044+00:00 $IIMDA,29.9,I,1.013,B,12.2,C,,C,90.4,,,C,,T,,M,,N,,M*27
20220705 030044+00:00 $HCHDT,336.6,T*29
20220705 030044+00:00 $GPRMC,030040,A,4833.2700,N,12311.8200,W,9.41,343,050722,11.7,E,A,V*64
20220705 030044+00:00 $WIMWV,22.3,R,2.68,N,A*2C
20220705 030046+00:00 $IIMDA,29.9,I,1.013,B,12.2,C,,C,90.3,,,C,,T,,M,,N,,M*20
20220705 030046+00:00 $HCHDT,336.8,T*27
20220705 030046+00:00 $GPRMC,030042,A,4833.2796,N,12311.8200,W,9.41,344,050722,11.7,E,A,V*6E
20220705 030046+00:00 $WIMWV,26.1,R,2.99,N,A*24
20220705 030048+00:00 $IIMDA,29.9,I,1.013,B,12.2,C,,C,90.3,,,C,,T,,M,,N,,M*20
20220705 030048+00:00 $HCHDT,336.8,T*27
20220705 030048+00:00 $GPRMC,030044,A,4833.2796,N,12311.8200,W,9.41,344,050722,11.7,E,A,V*68
20220705 030048+00:00 $WIMWV,26.89,R,3.79,N,A*1B
20220705 030050+00:00 $IIMDA,29.9,I,1.013,B,12.2,C,,C,90.3,,,C,,T,,M,,N,,M*20
20220705 030050+00:00 $HCHDT,336.9,T*26
20220705 030050+00:00 $GPRMC,030046,A,4833.2898,N,12311.8296,W,9.41,344,050722,11.7,E,A,V*64
20220705 030050+00:00 $WIMWV,12.79,R,3.69,N,A*12
20220705 030052+00:00 $IIMDA,29.9,I,1.013,B,12.2,C,,C,90.4,,,C,,T,,M,,N,,M*27
20220705 030052+00:00 $HCHDT,337,T*30
20220705 030052+00:00 $GPRMC,030048,A,4833.2898,N,12311.8296,W,9.41,344,050722,11.7,E,A,V*6A
20220705 030052+00:00 $WIMWV,13.4,R,3.5,N,A*13
20220705 030054+00:00 $IIMDA,29.9,I,1.013,B,12.2,C,,C,90.3,,,C,,T,,M,,N,,M*20
20220705 030054+00:00 $HCHDT,336.9,T*26
20220705 030054+00:00 $GPRMC,030050,A,4833.3000,N,12311.8296,W,9.41,344,050722,11.7,E,A,V*6B
20220705 030054+00:00 $WIMWV,348.39,R,3.29,N,A*2E
20220705 030056+00:00 $IIMDA,29.9,I,1.013,B,12.2,C,,C,90.3,,,C,,T,,M,,N,,M*20
20220705 030056+00:00 $HCHDT,337,T*30
20220705 030056+00:00 $GPRMC,030052,A,4833.3000,N,12311.8296,W,9.41,344,050722,11.7,E,A,V*69
20220705 030056+00:00 $WIMWV,0.19,R,2.59,N,A*25
20220705 030058+00:00 $IIMDA,29.9,I,1.013,B,12.2,C,,C,90.3,,,C,,T,,M,,N,,M*20
20220705 030058+00:00 $HCHDT,337,T*30
20220705 030058+00:00 $GPRMC,030054,A,4833.3096,N,12311.8398,W,9.41,344,050722,11.7,E,A,V*6F
20220705 030058+00:00 $WIMWV,22.69,R,3.69,N,A*10
20220705 030100+00:00 $IIMDA,29.9,I,1.013,B,12.2,C,,C,90.3,,,C,,T,,M,,N,,M*20
20220705 030100+00:00 $HCHDT,337.1,T*2F
20220705 030100+00:00 $GPRMC,030056,A,4833.3096,N,12311.8398,W,9.41,344,050722,11.7,E,A,V*6D
20220705 030100+00:00 $WIMWV,5,R,4.39,N,A*06
20220705 030102+00:00 $IIMDA,29.9,I,1.013,B,12.2,C,,C,90.3,,,C,,T,,M,,N,,M*20
20220705 030102+00:00 $HCHDT,337.1,T*2F
20220705 030102+00:00 $GPRMC,030058,A,4833.3198,N,12311.8398,W,9.41,344,050722,11.7,E,A,V*6C
20220705 030102+00:00 $WIMWV,23.4,R,3.69,N,A*2A
20220705 030104+00:00 $IIMDA,29.9,I,1.013,B,12.2,C,,C,90.3,,,C,,T,,M,,N,,M*20
20220705 030104+00:00 $HCHDT,337.1,T*2F
20220705 030104+00:00 $GPRMC,030100,A,4833.3198,N,12311.8398,W,9.41,344,050722,11.7,E,A,V*60
20220705 030104+00:00 $WIMWV,10.4,R,1.98,N,A*26
20220705 030106+00:00 $IIMDA,29.9,I,1.013,B,12.2,C,,C,90.3,,,C,,T,,M,,N,,M*20
20220705 030106+00:00 $HCHDT,337,T*30
20220705 030106+00:00 $GPRMC,030102,A,4833.3300,N,12311.8398,W,9.41,344,050722,11.7,E,A,V*61
20220705 030106+00:00 $WIMWV,350.69,R,2.9,N,A*11
20220705 030108+00:00 $IIMDA,29.9,I,1.013,B,12.2,C,,C,90.3,,,C,,T,,M,,N,,M*20
20220705 030108+00:00 $HCHDT,337,T*30
20220705 030108+00:00 $GPRMC,030104,A,4833.3300,N,12311.8500,W,9.41,344,050722,11.7,E,A,V*60
20220705 030108+00:00 $WIMWV,337.89,R,2.49,N,A*2A
20220705 030110+00:00 $IIMDA,29.9,I,1.013,B,12.2,C,,C,90.3,,,C,,T,,M,,N,,M*20
20220705 030110+00:00 $HCHDT,336.9,T*26
20220705 030110+00:00 $GPRMC,030106,A,4833.3396,N,12311.8500,W,9.29,344,050722,11.7,E,A,V*63
20220705 030110+00:00 $WIMWV,351.39,R,3.19,N,A*25
20220705 030112+00:00 $IIMDA,29.9,I,1.013,B,12.2,C,,C,90.3,,,C,,T,,M,,N,,M*20
20220705 030112+00:00 $HCHDT,336.9,T*26
20220705 030112+00:00 $GPRMC,030108,A,4833.3396,N,12311.8500,W,9.29,344,050722,11.7,E,A,V*6D
20220705 030112+00:00 $WIMWV,15.6,R,1.89,N,A*21
20220705 030114+00:00 $IIMDA,29.9,I,1.013,B,12.2,C,,C,90.3,,,C,,T,,M,,N,,M*20
20220705 030114+00:00 $HCHDT,336.9,T*26
20220705 030114+00:00 $GPRMC,030110,A,4833.3498,N,12311.8500,W,9.29,344,050722,11.7,E,A,V*6D
20220705 030114+00:00 $WIMWV,356.29,R,4.2,N,A*1E
20220705 030116+00:00 $IIMDA,29.9,I,1.013,B,12.2,C,,C,90.3,,,C,,T,,M,,N,,M*20
20220705 030116+00:00 $HCHDT,336.9,T*26
20220705 030116+00:00 $GPRMC,030112,A,4833.3498,N,12311.8596,W,9.29,344,050722,11.7,E,A,V*60
20220705 030116+00:00 $WIMWV,9.9,R,1.89,N,A*13
20220705 030118+00:00 $IIMDA,29.9,I,1.013,B,12.2,C,,C,90.3,,,C,,T,,M,,N,,M*20
20220705 030118+00:00 $HCHDT,337,T*30
20220705 030118+00:00 $GPRMC,030114,A,4833.3600,N,12311.8596,W,9.29,344,050722,11.7,E,A,V*65
20220705 030118+00:00 $WIMWV,51.19,R,0.7,N,A*28
20220705 030120+00:00 $IIMDA,29.9,I,1.013,B,12.2,C,,C,90.3,,,C,,T,,M,,N,,M*20
20220705 030120+00:00 $HCHDT,337,T*30
20220705 030120+00:00 $GPRMC,030116,A,4833.3600,N,12311.8596,W,9.29,344,050722,11.7,E,A,V*67
20220705 030120+00:00 $WIMWV,17.9,R,2.9,N,A*17
20220705 030122+00:00 $IIMDA,29.9,I,1.013,B,12.2,C,,C,90.3,,,C,,T,,M,,N,,M*20
20220705 030122+00:00 $HCHDT,337,T*30
20220705 030122+00:00 $GPRMC,030118,A,4833.3696,N,12311.8596,W,9.29,344,050722,11.7,E,A,V*66
20220705 030122+00:00 $WIMWV,6.2,R,2.1,N,A*24
20220705 030124+00:00 $IIMDA,29.9,I,1.013,B,12.2,C,,C,90.2,,,C,,T,,M,,N,,M*21
20220705 030124+00:00 $HCHDT,336.9,T*26
20220705 030124+00:00 $GPRMC,030120,A,4833.3696,N,12311.8596,W,9.19,344,050722,11.7,E,A,V*6E
20220705 030124+00:00 $WIMWV,341.09,R,2.49,N,A*23
20220705 030126+00:00 $IIMDA,29.9,I,1.013,B,12.2,C,,C,90.3,,,C,,T,,M,,N,,M*20
20220705 030126+00:00 $HCHDT,337,T*30
20220705 030126+00:00 $GPRMC,030122,A,4833.3798,N,12311.8698,W,9.19,344,050722,11.7,E,A,V*6E
20220705 030126+00:00 $WIMWV,4.5,R,4.2,N,A*24
20220705 030128+00:00 $IIMDA,29.9,I,1.013,B,12.2,C,,C,90.3,,,C,,T,,M,,N,,M*20
20220705 030128+00:00 $HCHDT,337,T*30
20220705 030128+00:00 $GPRMC,030124,A,4833.3798,N,12311.8698,W,9.29,344,050722,11.7,E,A,V*6B
20220705 030128+00:00 $WIMWV,356.79,R,3.19,N,A*26
20220705 030130+00:00 $IIMDA,29.9,I,1.013,B,12.2,C,,C,90.3,,,C,,T,,M,,N,,M*20
20220705 030130+00:00 $HCHDT,337,T*30
20220705 030130+00:00 $GPRMC,030126,A,4833.3900,N,12311.8698,W,9.29,343,050722,11.7,E,A,V*61
20220705 030130+00:00 $WIMWV,6,R,2.1,N,A*38
20220705 030132+00:00 $IIMDA,29.9,I,1.013,B,12.2,C,,C,90.3,,,C,,T,,M,,N,,M*20
20220705 030132+00:00 $HCHDT,337,T*30
20220705 030132+00:00 $GPRMC,030128,A,4833.3900,N,12311.8698,W,9.29,343,050722,11.7,E,A,V*6F
20220705 030132+00:00 $WIMWV,357.29,R,3.5,N,A*1F
20220705 030134+00:00 $IIMDA,29.9,I,1.013,B,12.2,C,,C,90.3,,,C,,T,,M,,N,,M*20
20220705 030134+00:00 $HCHDT,337.1,T*2F
20220705 030134+00:00 $GPRMC,030130,A,4833.3996,N,12311.8800,W,9.29,343,050722,11.7,E,A,V*66
20220705 030134+00:00 $WIMWV,29.09,R,2.1,N,A*22
20220705 030136+00:00 $IIMDA,29.9,I,1.013,B,12.2,C,,C,90.2,,,C,,T,,M,,N,,M*21
20220705 030136+00:00 $HCHDT,337.1,T*2F
20220705 030136+00:00 $GPRMC,030132,A,4833.3996,N,12311.8800,W,9.29,343,050722,11.7,E,A,V*64
20220705 030136+00:00 $WIMWV,13.5,R,2.59,N,A*2A
20220705 030138+00:00 $IIMDA,29.9,I,1.013,B,12.2,C,,C,90.2,,,C,,T,,M,,N,,M*21
20220705 030138+00:00 $HCHDT,337.4,T*2A
20220705 030138+00:00 $GPRMC,030134,A,4833.4098,N,12311.8800,W,9.29,343,050722,11.7,E,A,V*62
20220705 030138+00:00 $WIMWV,21,R,2.39,N,A*36
20220705 030140+00:00 $IIMDA,29.9,I,1.013,B,12.2,C,,C,90.2,,,C,,T,,M,,N,,M*21
20220705 030140+00:00 $HCHDT,337.6,T*28
20220705 030140+00:00 $GPRMC,030136,A,4833.4098,N,12311.8800,W,9.19,343,050722,11.7,E,A,V*63
20220705 030140+00:00 $WIMWV,333.89,R,2.29,N,A*28
20220705 030142+00:00 $IIMDA,29.9,I,1.013,B,12.2,C,,C,90.2,,,C,,T,,M,,N,,M*21
20220705 030142+00:00 $HCHDT,337.8,T*26
20220705 030142+00:00 $GPRMC,030138,A,4833.4200,N,12311.8800,W,9.19,344,050722,11.7,E,A,V*69
20220705 030142+00:00 $WIMWV,5.3,R,3.38,N,A*1D
20220705 030144+00:00 $IIMDA,29.9,I,1.013,B,12.2,C,,C,90.2,,,C,,T,,M,,N,,M*21
20220705 030144+00:00 $HCHDT,337.9,T*27
20220705 030144+00:00 $GPRMC,030140,A,4833.4200,N,12311.8896,W,9.19,344,050722,11.7,E,A,V*69
20220705 030144+00:00 $WIMWV,6.5,R,2.8,N,A*2A
20220705 030146+00:00 $IIMDA,29.9,I,1.013,B,12.2,C,,C,90.2,,,C,,T,,M,,N,,M*21
20220705 030146+00:00 $HCHDT,337.9,T*27
20220705 030146+00:00 $GPRMC,030142,A,4833.4296,N,12311.8896,W,9.19,344,050722,11.7,E,A,V*64
20220705 030146+00:00 $WIMWV,9.2,R,3.5,N,A*2E
20220705 030148+00:00 $IIMDA,29.9,I,1.013,B,12.2,C,,C,90.2,,,C,,T,,M,,N,,M*21
20220705 030148+00:00 $HCHDT,338.1,T*20
20220705 030148+00:00 $GPRMC,030144,A,4833.4296,N,12311.8896,W,9.19,344,050722,11.7,E,A,V*62
20220705 030148+00:00 $WIMWV,4.6,R,3.69,N,A*1D
20220705 030150+00:00 $IIMDA,29.9,I,1.013,B,12.2,C,,C,90.2,,,C,,T,,M,,N,,M*21
20220705 030150+00:00 $HCHDT,338.2,T*23
20220705 030150+00:00 $GPRMC,030146,A,4833.4398,N,12311.8896,W,9.19,344,050722,11.7,E,A,V*6F
20220705 030150+00:00 $WIMWV,4.5,R,3.19,N,A*19
20220705 030152+00:00 $IIMDA,29.9,I,1.013,B,12.2,C,,C,90.2,,,C,,T,,M,,N,,M*21
20220705 030152+00:00 $HCHDT,338.3,T*22
20220705 030152+00:00 $GPRMC,030148,A,4833.4398,N,12311.8896,W,9.19,344,050722,11.7,E,A,V*61
20220705 030152+00:00 $WIMWV,10.79,R,3.38,N,A*14
20220705 030154+00:00 $IIMDA,29.9,I,1.013,B,12.2,C,,C,90.2,,,C,,T,,M,,N,,M*21
20220705 030154+00:00 $HCHDT,338.1,T*20
20220705 030154+00:00 $GPRMC,030150,A,4833.4500,N,12311.8998,W,9.19,345,050722,11.7,E,A,V*61
20220705 030154+00:00 $WIMWV,2.9,R,3.89,N,A*1A
20220705 030156+00:00 $IIMDA,29.9,I,1.013,B,12.2,C,,C,90.2,,,C,,T,,M,,N,,M*21
20220705 030156+00:00 $HCHDT,337.9,T*27
20220705 030156+00:00 $GPRMC,030152,A,4833.4500,N,12311.8998,W,9.19,345,050722,11.7,E,A,V*63
20220705 030156+00:00 $WIMWV,16,R,3.38,N,A*32
20220705 030158+00:00 $IIMDA,29.9,I,1.013,B,12.2,C,,C,90.2,,,C,,T,,M,,N,,M*21
20220705 030158+00:00 $HCHDT,337.8,T*26
20220705 030158+00:00 $GPRMC,030154,A,4833.4596,N,12311.8998,W,9.1,345,050722,11.7,E,A,V*53
20220705 030158+00:00 $WIMWV,5,R,3.69,N,A*04
20220705 030200+00:00 $IIMDA,29.9,I,1.013,B,12.2,C,,C,90.2,,,C,,T,,M,,N,,M*21
20220705 030200+00:00 $HCHDT,337.7,T*29
20220705 030200+00:00 $GPRMC,030156,A,4833.4596,N,12311.8998,W,9.1,345,050722,11.7,E,A,V*51
20220705 030200+00:00 $WIMWV,4.39,R,3.6,N,A*18
20220705 030202+00:00 $IIMDA,29.9,I,1.013,B,12.2,C,,C,90.2,,,C,,T,,M,,N,,M*21
20220705 030202+00:00 $HCHDT,337.6,T*28
20220705 030202+00:00 $GPRMC,030158,A,4833.4698,N,12311.8998,W,9.1,345,050722,11.7,E,A,V*52
20220705 030202+00:00 $WIMWV,10.3,R,3.38,N,A*29
20220705 030204+00:00 $IIMDA,29.9,I,1.013,B,12.2,C,,C,90.2,,,C,,T,,M,,N,,M*21
20220705 030204+00:00 $HCHDT,337.6,T*28
20220705 030204+00:00 $GPRMC,030200,A,4833.4698,N,12311.9100,W,9.1,345,050722,11.7,E,A,V*54
20220705 030204+00:00 $WIMWV,17.1,R,2.1,N,A*17
20220705 030206+00:00 $IIMDA,29.9,I,1.013,B,12.2,C,,C,90.2,,,C,,T,,M,,N,,M*21
20220705 030206+00:00 $HCHDT,337.5,T*2B
20220705 030206+00:00 $GPRMC,030202,A,4833.4800,N,12311.9100,W,9.1,344,050722,11.7,E,A,V*58
20220705 030206+00:00 $WIMWV,24.2,R,2.68,N,A*2B
20220705 030208+00:00 $IIMDA,29.9,I,1.013,B,12.2,C,,C,90.2,,,C,,T,,M,,N,,M*21
20220705 030208+00:00 $HCHDT,337.5,T*2B
20220705 030208+00:00 $GPRMC,030204,A,4833.4800,N,12311.9100,W,9.1,344,050722,11.7,E,A,V*5E
20220705 030208+00:00 $WIMWV,10.4,R,2.9,N,A*1D
20220705 030210+00:00 $IIMDA,29.9,I,1.013,B,12.2,C,,C,90.2,,,C,,T,,M,,N,,M*21
20220705 030210+00:00 $HCHDT,337.6,T*28
20220705 030210+00:00 $GPRMC,030206,A,4833.4896,N,12311.9100,W,9.1,344,050722,11.7,E,A,V*53
20220705 030210+00:00 $WIMWV,5,R,2.68,N,A*04
20220705 030212+00:00 $IIMDA,29.9,I,1.013,B,12.2,C,,C,90.2,,,C,,T,,M,,N,,M*21
20220705 030212+00:00 $HCHDT,337.5,T*2B
20220705 030212+00:00 $GPRMC,030208,A,4833.4896,N,12311.9100,W,9.1,344,050722,11.7,E,A,V*5D
20220705 030212+00:00 $WIMWV,16.6,R,2.9,N,A*19
20220705 030214+00:00 $IIMDA,29.9,I,1.013,B,12.2,C,,C,90.2,,,C,,T,,M,,N,,M*21
20220705 030214+00:00 $HCHDT,337.6,T*28
20220705 030214+00:00 $GPRMC,030210,A,4833.4998,N,12311.9196,W,9.1,344,050722,11.7,E,A,V*54
20220705 030214+00:00 $WIMWV,358.99,R,3.5,N,A*1B
20220705 030216+00:00 $IIMDA,29.9,I,1.013,B,12.2,C,,C,90.2,,,C,,T,,M,,N,,M*21
20220705 030216+00:00 $HCHDT,337.6,T*28
20220705 030216+00:00 $GPRMC,030212,A,4833.4998,N,12311.9196,W,9.1,344,050722,11.7,E,A,V*56
20220705 030216+00:00 $WIMWV,20.9,R,2.68,N,A*24
20220705 030218+00:00 $IIMDA,29.9,I,1.013,B,12.2,C,,C,90.2,,,C,,T,,M,,N,,M*21
20220705 030218+00:00 $HCHDT,337.6,T*28
20220705 030218+00:00 $GPRMC,030214,A,4833.5100,N,12311.9196,W,9.1,344,050722,11.7,E,A,V*58
20220705 030218+00:00 $WIMWV,354.59,R,1.98,N,A*2D
20220705 030220+00:00 $IIMDA,29.9,I,1.013,B,12.2,C,,C,90.2,,,C,,T,,M,,N,,M*21
20220705 030220+00:00 $HCHDT,337.6,T*28
20220705 030220+00:00 $GPRMC,030216,A,4833.5100,N,12311.9196,W,9.1,344,050722,11.7,E,A,V*5A
20220705 030220+00:00 $WIMWV,355.89,R,3.79,N,A*2C
20220705 030222+00:00 $IIMDA,29.9,I,1.013,B,12.2,C,,C,90.2,,,C,,T,,M,,N,,M*21
20220705 030222+00:00 $HCHDT,337.5,T*2B
20220705 030222+00:00 $GPRMC,030218,A,4833.5100,N,12311.9298,W,9.1,344,050722,11.7,E,A,V*59
20220705 030222+00:00 $WIMWV,10.7,R,2.8,N,A*1F
20220705 030224+00:00 $IIMDA,29.9,I,1.013,B,12.2,C,,C,90.2,,,C,,T,,M,,N,,M*21
20220705 030224+00:00 $HCHDT,337.6,T*28
20220705 030224+00:00 $GPRMC,030220,A,4833.5196,N,12311.9298,W,9,344,050722,11.7,E,A,V*42
20220705 030224+00:00 $WIMWV,6.5,R,2.49,N,A*1F
20220705 030226+00:00 $IIMDA,29.9,I,1.013,B,12.2,C,,C,90.2,,,C,,T,,M,,N,,M*21
20220705 030226+00:00 $HCHDT,337.6,T*28
20220705 030226+00:00 $GPRMC,030222,A,4833.5196,N,12311.9298,W,9,344,050722,11.7,E,A,V*40
20220705 030226+00:00 $WIMWV,15.3,R,2.59,N,A*2A
20220705 030228+00:00 $IIMDA,29.9,I,1.013,B,12.2,C,,C,90.2,,,C,,T,,M,,N,,M*21
20220705 030228+00:00 $HCHDT,337.7,T*29
20220705 030228+00:00 $GPRMC,030224,A,4833.5298,N,12311.9298,W,9,344,050722,11.7,E,A,V*4B
20220705 030228+00:00 $WIMWV,6.39,R,2.49,N,A*20
20220705 030230+00:00 $IIMDA,29.9,I,1.013,B,12.2,C,,C,90.2,,,C,,T,,M,,N,,M*21
20220705 030230+00:00 $HCHDT,337.9,T*27
20220705 030230+00:00 $GPRMC,030226,A,4833.5298,N,12311.9298,W,9,344,050722,11.7,E,A,V*49
20220705 030230+00:00 $WIMWV,349.49,R,1.89,N,A*20
20220705 030232+00:00 $IIMDA,29.9,I,1.013,B,12.2,C,,C,90.2,,,C,,T,,M,,N,,M*21
20220705 030232+00:00 $HCHDT,338.2,T*23
20220705 030232+00:00 $GPRMC,030228,A,4833.5400,N,12311.9400,W,9,344,050722,11.7,E,A,V*47
20220705 030232+00:00 $WIMWV,356.69,R,3.5,N,A*1A
20220705 030234+00:00 $IIMDA,29.9,I,1.013,B,12.2,C,,C,90.2,,,C,,T,,M,,N,,M*21
20220705 030234+00:00 $HCHDT,338.3,T*22
20220705 030234+00:00 $GPRMC,030230,A,4833.5400,N,12311.9400,W,9,344,050722,11.7,E,A,V*4E
20220705 030234+00:00 $WIMWV,3.6,R,2.9,N,A*2D
20220705 030236+00:00 $IIMDA,29.9,I,1.013,B,12.2,C,,C,90.2,,,C,,T,,M,,N,,M*21
20220705 030236+00:00 $HCHDT,338.5,T*24
20220705 030236+00:00 $GPRMC,030232,A,4833.5496,N,12311.9400,W,9,344,050722,11.7,E,A,V*43
20220705 030236+00:00 $WIMWV,11.4,R,3.69,N,A*2B
20220705 030238+00:00 $IIMDA,29.9,I,1.013,B,12.2,C,,C,90.2,,,C,,T,,M,,N,,M*21
20220705 030238+00:00 $HCHDT,338.6,T*27
20220705 030238+00:00 $GPRMC,030234,A,4833.5496,N,12311.9400,W,9,344,050722,11.7,E,A,V*45
20220705 030238+00:00 $WIMWV,358.79,R,4.3,N,A*14
20220705 030240+00:00 $IIMDA,29.9,I,1.013,B,12.2,C,,C,90.2,,,C,,T,,M,,N,,M*21
20220705 030240+00:00 $HCHDT,338.7,T*26
20220705 030240+00:00 $GPRMC,030236,A,4833.5598,N,12311.9400,W,8.9,344,050722,11.7,E,A,V*5E
20220705 030240+00:00 $WIMWV,4,R,2.68,N,A*05
20220705 030242+00:00 $IIMDA,29.9,I,1.013,B,12.2,C,,C,90.2,,,C,,T,,M,,N,,M*21
20220705 030242+00:00 $HCHDT,338.8,T*29
20220705 030242+00:00 $GPRMC,030238,A,4833.5598,N,12311.9496,W,8.9,344,050722,11.7,E,A,V*5F
20220705 030242+00:00 $WIMWV,5.3,R,3.19,N,A*1E
20220705 030244+00:00 $IIMDA,29.9,I,1.013,B,12.2,C,,C,90.1,,,C,,T,,M,,N,,M*22
20220705 030244+00:00 $HCHDT,338.8,T*29
20220705 030244+00:00 $GPRMC,030240,A,4833.5700,N,12311.9496,W,8.9,344,050722,11.7,E,A,V*53
20220705 030244+00:00 $WIMWV,355.99,R,1.59,N,A*2D
20220705 030246+00:00 $IIMDA,29.9,I,1.013,B,12.2,C,,C,90.2,,,C,,T,,M,,N,,M*21
20220705 030246+00:00 $HCHDT,338.7,T*26
20220705 030246+00:00 $GPRMC,030242,A,4833.5700,N,12311.9496,W,8.9,344,050722,11.7,E,A,V*51
20220705 030246+00:00 $WIMWV,0.19,R,3.29,N,A*23
20220705 030248+00:00 $IIMDA,29.9,I,1.013,B,12.2,C,,C,90.2,,,C,,T,,M,,N,,M*21
20220705 030248+00:00 $HCHDT,338.6,T*27
20220705 030248+00:00 $GPRMC,030244,A,4833.5796,N,12311.9496,W,8.9,344,050722,11.7,E,A,V*58
20220705 030248+00:00 $WIMWV,356.29,R,2.39,N,A*20
20220705 030250+00:00 $IIMDA,29.9,I,1.013,B,12.2,C,,C,90.1,,,C,,T,,M,,N,,M*22
20220705 030250+00:00 $HCHDT,338.4,T*25
20220705 030250+00:00 $GPRMC,030246,A,4833.5796,N,12311.9496,W,8.9,344,050722,11.7,E,A,V*5A
20220705 030250+00:00 $WIMWV,354.49,R,1.28,N,A*27
20220705 030252+00:00 $IIMDA,29.9,I,1.013,B,12.2,C,,C,90.2,,,C,,T,,M,,N,,M*21
20220705 030252+00:00 $HCHDT,338.2,T*23
20220705 030252+00:00 $GPRMC,030248,A,4833.5898,N,12311.9598,W,8.9,344,050722,11.7,E,A,V*5A
20220705 030252+00:00 $WIMWV,350.79,R,2.68,N,A*27
20220705 030254+00:00 $IIMDA,29.9,I,1.013,B,12.2,C,,C,90.2,,,C,,T,,M,,N,,M*21
20220705 030254+00:00 $HCHDT,338.1,T*20
20220705 030254+00:00 $GPRMC,030250,A,4833.5898,N,12311.9598,W,8.9,344,050722,11.7,E,A,V*53
20220705 030254+00:00 $WIMWV,348.79,R,2.49,N,A*2D
20220705 030256+00:00 $IIMDA,29.9,I,1.013,B,12.3,C,,C,90.1,,,C,,T,,M,,N,,M*23
20220705 030256+00:00 $HCHDT,337.9,T*27
20220705 030256+00:00 $GPRMC,030252,A,4833.6000,N,12311.9598,W,8.9,344,050722,11.7,E,A,V*5B
20220705 030256+00:00 $WIMWV,356.29,R,2.99,N,A*2A
20220705 030258+00:00 $IIMDA,29.9,I,1.013,B,12.3,C,,C,90.1,,,C,,T,,M,,N,,M*23
20220705 030258+00:00 $HCHDT,337.9,T*27
20220705 030258+00:00 $GPRMC,030254,A,4833.6000,N,12311.9598,W,8.9,344,050722,11.7,E,A,V*5D
20220705 030258+00:00 $WIMWV,3.9,R,3.29,N,A*11
20220705 030300+00:00 $IIMDA,29.9,I,1.013,B,12.3,C,,C,90.1,,,C,,T,,M,,N,,M*23
20220705 030300+00:00 $HCHDT,337.8,T*26
20220705 030300+00:00 $GPRMC,030256,A,4833.6096,N,12311.9598,W,8.9,344,050722,11.7,E,A,V*50
20220705 030300+00:00 $WIMWV,13.89,R,2.2,N,A*20
20220705 030302+00:00 $IIMDA,29.9,I,1.013,B,12.3,C,,C,90.1,,,C,,T,,M,,N,,M*23
20220705 030302+00:00 $HCHDT,337.9,T*27
20220705 030302+00:00 $GPRMC,030258,A,4833.6096,N,12311.9700,W,8.9,343,050722,11.7,E,A,V*5A
20220705 030302+00:00 $WIMWV,339.79,R,1.69,N,A*2A
20220705 030304+00:00 $IIMDA,29.9,I,1.013,B,12.3,C,,C,90.2,,,C,,T,,M,,N,,M*20
20220705 030304+00:00 $HCHDT,338.1,T*20
20220705 030304+00:00 $GPRMC,030300,A,4833.6096,N,12311.9700,W,8.9,343,050722,11.7,E,A,V*56
20220705 030304+00:00 $WIMWV,353.39,R,3.09,N,A*26
20220705 030306+00:00 $IIMDA,29.9,I,1.013,B,12.3,C,,C,90.2,,,C,,T,,M,,N,,M*20
20220705 030306+00:00 $HCHDT,338.4,T*25
20220705 030306+00:00 $GPRMC,030302,A,4833.6198,N,12311.9700,W,8.9,343,050722,11.7,E,A,V*5B
20220705 030306+00:00 $WIMWV,29.79,R,2.1,N,A*25
20220705 030308+00:00 $IIMDA,29.9,I,1.013,B,12.3,C,,C,90.1,,,C,,T,,M,,N,,M*23
20220705 030308+00:00 $HCHDT,338.5,T*24
20220705 030308+00:00 $GPRMC,030304,A,4833.6198,N,12311.9700,W,8.9,343,050722,11.7,E,A,V*5D
20220705 030308+00:00 $WIMWV,14.8,R,2.68,N,A*22
20220705 030310+00:00 $IIMDA,29.9,I,1.013,B,12.3,C,,C,90.1,,,C,,T,,M,,N,,M*23
20220705 030310+00:00 $HCHDT,338.7,T*26
20220705 030310+00:00 $GPRMC,030306,A,4833.6300,N,12311.9796,W,8.9,343,050722,11.7,E,A,V*53
20220705 030310+00:00 $WIMWV,4,R,3.09,N,A*03
20220705 030312+00:00 $IIMDA,29.9,I,1.013,B,12.3,C,,C,90.2,,,C,,T,,M,,N,,M*20
20220705 030312+00:00 $HCHDT,338.8,T*29
20220705 030312+00:00 $GPRMC,030308,A,4833.6300,N,12311.9796,W,8.9,344,050722,11.7,E,A,V*5A
20220705 030312+00:00 $WIMWV,17.4,R,2.1,N,A*12
20220705 030314+00:00 $IIMDA,29.9,I,1.013,B,12.3,C,,C,90.1,,,C,,T,,M,,N,,M*23
20220705 030314+00:00 $HCHDT,338.8,T*29
20220705 030314+00:00 $GPRMC,030310,A,4833.6396,N,12311.9796,W,8.9,344,050722,11.7,E,A,V*5C
20220705 030314+00:00 $WIMWV,9,R,2.59,N,A*0A
20220705 030316+00:00 $IIMDA,29.9,I,1.013,B,12.3,C,,C,90.1,,,C,,T,,M,,N,,M*23
20220705 030316+00:00 $HCHDT,338.9,T*28
20220705 030316+00:00 $GPRMC,030312,A,4833.6396,N,12311.9796,W,8.9,344,050722,11.7,E,A,V*5E
20220705 030316+00:00 $WIMWV,5.7,R,2.39,N,A*19
20220705 030318+00:00 $IIMDA,29.9,I,1.013,B,12.3,C,,C,90.1,,,C,,T,,M,,N,,M*23
20220705 030318+00:00 $HCHDT,339.1,T*21
20220705 030318+00:00 $GPRMC,030314,A,4833.6498,N,12311.9796,W,8.9,344,050722,11.7,E,A,V*51
20220705 030318+00:00 $WIMWV,357.99,R,3.69,N,A*2E
20220705 030320+00:00 $IIMDA,29.9,I,1.013,B,12.3,C,,C,90.1,,,C,,T,,M,,N,,M*23
20220705 030320+00:00 $HCHDT,339.2,T*22
20220705 030320+00:00 $GPRMC,030316,A,4833.6498,N,12311.9898,W,8.9,344,050722,11.7,E,A,V*52
20220705 030320+00:00 $WIMWV,8,R,3.19,N,A*0E
20220705 030322+00:00 $IIMDA,29.9,I,1.013,B,12.3,C,,C,90.1,,,C,,T,,M,,N,,M*23
20220705 030322+00:00 $HCHDT,339.2,T*22
20220705 030322+00:00 $GPRMC,030318,A,4833.6600,N,12311.9898,W,8.9,345,050722,11.7,E,A,V*5E
20220705 030322+00:00 $WIMWV,2.1,R,3.69,N,A*1C
20220705 030324+00:00 $IIMDA,29.9,I,1.013,B,12.3,C,,C,90.1,,,C,,T,,M,,N,,M*23
20220705 030324+00:00 $HCHDT,339.4,T*24
20220705 030324+00:00 $GPRMC,030320,A,4833.6600,N,12311.9898,W,9,345,050722,11.7,E,A,V*43
20220705 030324+00:00 $WIMWV,0.19,R,3.19,N,A*20
20220705 030326+00:00 $IIMDA,29.9,I,1.013,B,12.3,C,,C,90.1,,,C,,T,,M,,N,,M*23
20220705 030326+00:00 $HCHDT,339.3,T*23
20220705 030326+00:00 $GPRMC,030322,A,4833.6696,N,12311.9898,W,9,345,050722,11.7,E,A,V*4E
20220705 030326+00:00 $WIMWV,3.8,R,2.68,N,A*14
20220705 030328+00:00 $IIMDA,29.9,I,1.013,B,12.3,C,,C,90.1,,,C,,T,,M,,N,,M*23
20220705 030328+00:00 $HCHDT,339.2,T*22
20220705 030328+00:00 $GPRMC,030324,A,4833.6696,N,12311.9898,W,9,345,050722,11.7,E,A,V*48
20220705 030328+00:00 $WIMWV,0.19,R,2.8,N,A*11
20220705 030330+00:00 $IIMDA,29.9,I,1.013,B,12.3,C,,C,90.1,,,C,,T,,M,,N,,M*23
20220705 030330+00:00 $HCHDT,339.1,T*21
20220705 030330+00:00 $GPRMC,030326,A,4833.6798,N,12311.9898,W,9,345,050722,11.7,E,A,V*45
20220705 030330+00:00 $WIMWV,344.89,R,1.98,N,A*21
20220705 030332+00:00 $IIMDA,29.9,I,1.013,B,12.3,C,,C,90.1,,,C,,T,,M,,N,,M*23
20220705 030332+00:00 $HCHDT,338.9,T*28
20220705 030332+00:00 $GPRMC,030328,A,4833.6798,N,12312.0000,W,9,345,050722,11.7,E,A,V*48
20220705 030332+00:00 $WIMWV,336.69,R,1.28,N,A*21
20220705 030334+00:00 $IIMDA,29.9,I,1.013,B,12.3,C,,C,90.1,,,C,,T,,M,,N,,M*23
20220705 030334+00:00 $HCHDT,338.8,T*29
20220705 030334+00:00 $GPRMC,030330,A,4833.6900,N,12312.0000,W,9,345,050722,11.7,E,A,V*4E
20220705 030334+00:00 $WIMWV,12.4,R,2.1,N,A*17
20220705 030336+00:00 $IIMDA,29.9,I,1.013,B,12.3,C,,C,90.1,,,C,,T,,M,,N,,M*23
20220705 030336+00:00 $HCHDT,338.5,T*24
20220705 030336+00:00 $GPRMC,030332,A,4833.6900,N,12312.0000,W,9,345,050722,11.7,E,A,V*4C
20220705 030336+00:00 $WIMWV,355.09,R,3.5,N,A*1F
20220705 030338+00:00 $IIMDA,29.9,I,1.013,B,12.3,C,,C,90.1,,,C,,T,,M,,N,,M*23
20220705 030338+00:00 $HCHDT,338.3,T*22
20220705 030338+00:00 $GPRMC,030334,A,4833.6996,N,12312.0000,W,9,345,050722,11.7,E,A,V*45
20220705 030338+00:00 $WIMWV,0.19,R,3.38,N,A*23
20220705 030340+00:00 $IIMDA,29.9,I,1.013,B,12.3,C,,C,90.1,,,C,,T,,M,,N,,M*23
20220705 030340+00:00 $HCHDT,338.2,T*23
20220705 030340+00:00 $GPRMC,030336,A,4833.6996,N,12312.0000,W,9,345,050722,11.7,E,A,V*47
20220705 030340+00:00 $WIMWV,6.5,R,3.29,N,A*18
20220705 030342+00:00 $IIMDA,29.9,I,1.013,B,12.3,C,,C,90.1,,,C,,T,,M,,N,,M*23
20220705 030342+00:00 $HCHDT,338,T*3F
20220705 030342+00:00 $GPRMC,030338,A,4833.7098,N,12312.0096,W,9,345,050722,11.7,E,A,V*40
20220705 030342+00:00 $WIMWV,355.29,R,2.49,N,A*24
20220705 030344+00:00 $IIMDA,29.9,I,1.013,B,12.3,C,,C,90.1,,,C,,T,,M,,N,,M*23
20220705 030344+00:00 $HCHDT,337.9,T*27
20220705 030344+00:00 $GPRMC,030340,A,4833.7098,N,12312.0096,W,9,345,050722,11.7,E,A,V*4F
20220705 030344+00:00 $WIMWV,355.19,R,3.09,N,A*22
20220705 030346+00:00 $IIMDA,29.9,I,1.013,B,12.3,C,,C,90.1,,,C,,T,,M,,N,,M*23
20220705 030346+00:00 $HCHDT,337.8,T*26
20220705 030346+00:00 $GPRMC,030342,A,4833.7200,N,12312.0096,W,9,345,050722,11.7,E,A,V*4E
20220705 030346+00:00 $WIMWV,348.19,R,2.8,N,A*1E
20220705 030348+00:00 $IIMDA,29.9,I,1.013,B,12.3,C,,C,90.1,,,C,,T,,M,,N,,M*23
20220705 030348+00:00 $HCHDT,337.7,T*29
20220705 030348+00:00 $GPRMC,030344,A,4833.7200,N,12312.0096,W,9,344,050722,11.7,E,A,V*49
20220705 030348+00:00 $WIMWV,291.49,R,0.7,N,A*13
20220705 030350+00:00 $IIMDA,29.9,I,1.013,B,12.3,C,,C,90.1,,,C,,T,,M,,N,,M*23
20220705 030350+00:00 $HCHDT,337.6,T*28
20220705 030350+00:00 $GPRMC,030346,A,4833.7296,N,12312.0096,W,9,344,050722,11.7,E,A,V*44
20220705 030350+00:00 $WIMWV,0.19,R,2.39,N,A*23
20220705 030352+00:00 $IIMDA,29.9,I,1.013,B,12.3,C,,C,90.1,,,C,,T,,M,,N,,M*23
20220705 030352+00:00 $HCHDT,337.5,T*2B
20220705 030352+00:00 $GPRMC,030348,A,4833.7296,N,12312.0198,W,9,344,050722,11.7,E,A,V*45
20220705 030352+00:00 $WIMWV,354.19,R,1.5,N,A*1D
20220705 030354+00:00 $IIMDA,29.9,I,1.013,B,12.3,C,,C,90.1,,,C,,T,,M,,N,,M*23
20220705 030354+00:00 $HCHDT,337.5,T*2B
20220705 030354+00:00 $GPRMC,030350,A,4833.7296,N,12312.0198,W,9,344,050722,11.7,E,A,V*4C
20220705 030354+00:00 $WIMWV,8.79,R,1.89,N,A*25
20220705 030356+00:00 $IIMDA,29.9,I,1.013,B,12.3,C,,C,90.1,,,C,,T,,M,,N,,M*23
20220705 030356+00:00 $HCHDT,337.6,T*28
20220705 030356+00:00 $GPRMC,030352,A,4833.7398,N,12312.0198,W,9,344,050722,11.7,E,A,V*41
20220705 030356+00:00 $WIMWV,8.7,R,2.29,N,A*15
20220705 030358+00:00 $IIMDA,29.9,I,1.013,B,12.3,C,,C,90.1,,,C,,T,,M,,N,,M*23
20220705 030358+00:00 $HCHDT,337.8,T*26
20220705 030358+00:00 $GPRMC,030354,A,4833.7398,N,12312.0198,W,9,344,050722,11.7,E,A,V*47
20220705 030358+00:00 $WIMWV,7.1,R,1.89,N,A*15
20220705 030400+00:00 $IIMDA,29.9,I,1.013,B,12.3,C,,C,90.1,,,C,,T,,M,,N,,M*23
20220705 030400+00:00 $HCHDT,337.8,T*26
20220705 030400+00:00 $GPRMC,030356,A,4833.7500,N,12312.0198,W,9,344,050722,11.7,E,A,V*42
20220705 030400+00:00 $WIMWV,3.5,R,3.09,N,A*1F
20220705 030402+00:00 $IIMDA,29.9,I,1.013,B,12.3,C,,C,90.1,,,C,,T,,M,,N,,M*23
20220705 030402+00:00 $HCHDT,337.8,T*26
20220705 030402+00:00 $GPRMC,030358,A,4833.7500,N,12312.0300,W,9,344,050722,11.7,E,A,V*4F
20220705 030402+00:00 $WIMWV,0.19,R,3.29,N,A*23
20220705 030404+00:00 $IIMDA,29.9,I,1.013,B,12.3,C,,C,90.1,,,C,,T,,M,,N,,M*23
20220705 030404+00:00 $HCHDT,337.9,T*27
20220705 030404+00:00 $GPRMC,030400,A,4833.7596,N,12312.0300,W,9,344,050722,11.7,E,A,V*4A
20220705 030404+00:00 $WIMWV,6.39,R,2.1,N,A*1C
20220705 030406+00:00 $IIMDA,29.9,I,1.013,B,12.3,C,,C,90.1,,,C,,T,,M,,N,,M*23
20220705 030406+00:00 $HCHDT,338,T*3F
20220705 030406+00:00 $GPRMC,030402,A,4833.7596,N,12312.0300,W,9.1,344,050722,11.7,E,A,V*57
20220705 030406+00:00 $WIMWV,358.29,R,2.68,N,A*2A
20220705 030408+00:00 $IIMDA,29.9,I,1.013,B,12.3,C,,C,90.1,,,C,,T,,M,,N,,M*23
20220705 030408+00:00 $HCHDT,338,T*3F
20220705 030408+00:00 $GPRMC,030404,A,4833.7698,N,12312.0300,W,9.1,344,050722,11.7,E,A,V*5C
20220705 030408+00:00 $WIMWV,338.39,R,1.69,N,A*2F
20220705 030410+00:00 $IIMDA,29.9,I,1.013,B,12.3,C,,C,90.1,,,C,,T,,M,,N,,M*23
20220705 030410+00:00 $HCHDT,338.1,T*20
20220705 030410+00:00 $GPRMC,030406,A,4833.7698,N,12312.0396,W,9.1,344,050722,11.7,E,A,V*51
20220705 030410+00:00 $WIMWV,4.6,R,2.9,N,A*2A
20220705 030412+00:00 $IIMDA,29.9,I,1.013,B,12.3,C,,C,90.1,,,C,,T,,M,,N,,M*23
20220705 030412+00:00 $HCHDT,338,T*3F
20220705 030412+00:00 $GPRMC,030408,A,4833.7800,N,12312.0396,W,9.1,344,050722,11.7,E,A,V*50
20220705 030412+00:00 $WIMWV,345.79,R,3.98,N,A*2D
20220705 030414+00:00 $IIMDA,29.9,I,1.013,B,12.3,C,,C,90.1,,,C,,T,,M,,N,,M*23
20220705 030414+00:00 $HCHDT,338,T*3F
20220705 030414+00:00 $GPRMC,030410,A,4833.7800,N,12312.0396,W,9.1,344,050722,11.7,E,A,V*59
20220705 030414+00:00 $WIMWV,334.39,R,2.99,N,A*2F
20220705 030416+00:00 $IIMDA,29.9,I,1.013,B,12.3,C,,C,90,,,C,,T,,M,,N,,M*3C
20220705 030416+00:00 $HCHDT,338.1,T*20
20220705 030416+00:00 $GPRMC,030412,A,4833.7896,N,12312.0396,W,9.1,345,050722,11.7,E,A,V*55
20220705 030416+00:00 $WIMWV,355.19,R,3.29,N,A*20
20220705 030418+00:00 $IIMDA,29.9,I,1.013,B,12.3,C,,C,90.1,,,C,,T,,M,,N,,M*23
20220705 030418+00:00 $HCHDT,338,T*3F
20220705 030418+00:00 $GPRMC,030414,A,4833.7896,N,12312.0396,W,9.1,345,050722,11.7,E,A,V*53
20220705 030418+00:00 $WIMWV,350.59,R,1.79,N,A*26
20220705 030420+00:00 $IIMDA,29.9,I,1.013,B,12.3,C,,C,90,,,C,,T,,M,,N,,M*3C
20220705 030420+00:00 $HCHDT,338,T*3F
20220705 030420+00:00 $GPRMC,030416,A,4833.7998,N,12312.0498,W,9.1,345,050722,11.7,E,A,V*57
20220705 030420+00:00 $WIMWV,26.69,R,2.2,N,A*28
20220705 030422+00:00 $IIMDA,29.9,I,1.013,B,12.3,C,,C,90,,,C,,T,,M,,N,,M*3C
20220705 030422+00:00 $HCHDT,338.1,T*20
20220705 030422+00:00 $GPRMC,030418,A,4833.7998,N,12312.0498,W,9.1,345,050722,11.7,E,A,V*59
20220705 030422+00:00 $WIMWV,354.39,R,3.38,N,A*23
20220705 030424+00:00 $IIMDA,29.9,I,1.013,B,12.3,C,,C,90,,,C,,T,,M,,N,,M*3C
20220705 030424+00:00 $HCHDT,338.1,T*20
20220705 030424+00:00 $GPRMC,030420,A,4833.8100,N,12312.0498,W,9.1,345,050722,11.7,E,A,V*54
20220705 030424+00:00 $WIMWV,357.59,R,3.38,N,A*26
20220705 030426+00:00 $IIMDA,29.9,I,1.013,B,12.3,C,,C,90,,,C,,T,,M,,N,,M*3C
20220705 030426+00:00 $HCHDT,338.1,T*20
20220705 030426+00:00 $GPRMC,030422,A,4833.8100,N,12312.0498,W,9.1,345,050722,11.7,E,A,V*56
20220705 030426+00:00 $WIMWV,349.79,R,1.89,N,A*23
20220705 030428+00:00 $IIMDA,29.9,I,1.013,B,12.3,C,,C,90,,,C,,T,,M,,N,,M*3C
20220705 030428+00:00 $HCHDT,338.1,T*20
20220705 030428+00:00 $GPRMC,030424,A,4833.8196,N,12312.0498,W,9.1,345,050722,11.7,E,A,V*5F
20220705 030428+00:00 $WIMWV,2.8,R,3.09,N,A*13
20220705 030430+00:00 $IIMDA,29.9,I,1.013,B,12.3,C,,C,90,,,C,,T,,M,,N,,M*3C
20220705 030430+00:00 $HCHDT,338,T*3F
20220705 030430+00:00 $GPRMC,030426,A,4833.8196,N,12312.0600,W,9.1,345,050722,11.7,E,A,V*5E
20220705 030430+00:00 $WIMWV,5.3,R,3.19,N,A*1E
20220705 030432+00:00 $IIMDA,29.9,I,1.013,B,12.3,C,,C,90,,,C,,T,,M,,N,,M*3C
20220705 030432+00:00 $HCHDT,337.9,T*27
20220705 030432+00:00 $GPRMC,030428,A,4833.8298,N,12312.0600,W,9.1,345,050722,11.7,E,A,V*5D
20220705 030432+00:00 $WIMWV,28.6,R,1.59,N,A*22
20220705 030434+00:00 $IIMDA,29.9,I,1.013,B,12.3,C,,C,90,,,C,,T,,M,,N,,M*3C
20220705 030434+00:00 $HCHDT,337.8,T*26
20220705 030434+00:00 $GPRMC,030430,A,4833.8298,N,12312.0600,W,9.1,345,050722,11.7,E,A,V*54
20220705 030434+00:00 $WIMWV,353.59,R,2.59,N,A*24
20220705 030436+00:00 $IIMDA,29.9,I,1.013,B,12.3,C,,C,90,,,C,,T,,M,,N,,M*3C
20220705 030436+00:00 $HCHDT,337.6,T*28
20220705 030436+00:00 $GPRMC,030432,A,4833.8400,N,12312.0600,W,9.1,345,050722,11.7,E,A,V*51
20220705 030436+00:00 $WIMWV,353.79,R,3.79,N,A*25
20220705 030438+00:00 $IIMDA,29.9,I,1.013,B,12.3,C,,C,90,,,C,,T,,M,,N,,M*3C
20220705 030438+00:00 $HCHDT,337.5,T*2B
20220705 030438+00:00 $GPRMC,030434,A,4833.8400,N,12312.0600,W,9.1,344,050722,11.7,E,A,V*56
20220705 030438+00:00 $WIMWV,351.29,R,1.79,N,A*20
20220705 030440+00:00 $IIMDA,29.9,I,1.013,B,12.3,C,,C,90,,,C,,T,,M,,N,,M*3C
20220705 030440+00:00 $HCHDT,337.5,T*2B
20220705 030440+00:00 $GPRMC,030436,A,4833.8496,N,12312.0696,W,9.1,344,050722,11.7,E,A,V*54
20220705 030440+00:00 $WIMWV,357.19,R,3.29,N,A*22
20220705 030442+00:00 $IIMDA,29.9,I,1.013,B,12.3,C,,C,90,,,C,,T,,M,,N,,M*3C
20220705 030442+00:00 $HCHDT,337.5,T*2B
20220705 030442+00:00 $GPRMC,030438,A,4833.8496,N,12312.0696,W,9.19,344,050722,11.7,E,A,V*63
20220705 030442+00:00 $WIMWV,0.19,R,2.9,N,A*10
20220705 030444+00:00 $IIMDA,29.9,I,1.013,B,12.3,C,,C,89.9,,,C,,T,,M,,N,,M*23
20220705 030444+00:00 $HCHDT,337.5,T*2B
20220705 030444+00:00 $GPRMC,030440,A,4833.8598,N,12312.0696,W,9.19,344,050722,11.7,E,A,V*63
20220705 030444+00:00 $WIMWV,19.6,R,2.39,N,A*25
20220705 030446+00:00 $IIMDA,29.9,I,1.013,B,12.3,C,,C,89.9,,,C,,T,,M,,N,,M*23
20220705 030446+00:00 $HCHDT,337.7,T*29
20220705 030446+00:00 $GPRMC,030442,A,4833.8598,N,12312.0696,W,9.19,344,050722,11.7,E,A,V*61
20220705 030446+00:00 $WIMWV,356.39,R,2.68,N,A*25
20220705 030448+00:00 $IIMDA,29.9,I,1.013,B,12.3,C,,C,90,,,C,,T,,M,,N,,M*3C
20220705 030448+00:00 $HCHDT,337.8,T*26
20220705 030448+00:00 $GPRMC,030444,A,4833.8700,N,12312.0696,W,9.19,344,050722,11.7,E,A,V*64
20220705 030448+00:00 $WIMWV,340.59,R,2.1,N,A*1B
20220705 030450+00:00 $IIMDA,29.9,I,1.013,B,12.3,C,,C,89.9,,,C,,T,,M,,N,,M*23
20220705 030450+00:00 $HCHDT,338,T*3F
20220705 030450+00:00 $GPRMC,030446,A,4833.8700,N,12312.0798,W,9.19,344,050722,11.7,E,A,V*69
20220705 030450+00:00 $WIMWV,333.89,R,2.8,N,A*1B
20220705 030452+00:00 $IIMDA,29.9,I,1.013,B,12.3,C,,C,90,,,C,,T,,M,,N,,M*3C
20220705 030452+00:00 $HCHDT,338.1,T*20
20220705 030452+00:00 $GPRMC,030448,A,4833.8796,N,12312.0798,W,9.19,344,050722,11.7,E,A,V*68
20220705 030452+00:00 $WIMWV,329.89,R,2.99,N,A*28
20220705 030454+00:00 $IIMDA,29.9,I,1.013,B,12.3,C,,C,89.9,,,C,,T,,M,,N,,M*23
20220705 030454+00:00 $HCHDT,338.2,T*23
20220705 030454+00:00 $GPRMC,030450,A,4833.8796,N,12312.0798,W,9.19,344,050722,11.7,E,A,V*61
20220705 030454+00:00 $WIMWV,12.9,R,2.1,N,A*1A
20220705 030456+00:00 $IIMDA,29.9,I,1.013,B,12.3,C,,C,89.9,,,C,,T,,M,,N,,M*23
20220705 030456+00:00 $HCHDT,338.3,T*22
20220705 030456+00:00 $GPRMC,030452,A,4833.8898,N,12312.0798,W,9.19,344,050722,11.7,E,A,V*62
20220705 030456+00:00 $WIMWV,351.09,R,2.99,N,A*2F
20220705 030458+00:00 $IIMDA,29.9,I,1.013,B,12.3,C,,C,89.9,,,C,,T,,M,,N,,M*23
20220705 030458+00:00 $HCHDT,338.5,T*24
20220705 030458+00:00 $GPRMC,030454,A,4833.8898,N,12312.0798,W,9.19,344,050722,11.7,E,A,V*64
20220705 030458+00:00 $WIMWV,6.9,R,3.19,N,A*17
20220705 030500+00:00 $IIMDA,29.9,I,1.013,B,12.3,C,,C,89.9,,,C,,T,,M,,N,,M*23
20220705 030500+00:00 $HCHDT,338.8,T*29
20220705 030500+00:00 $GPRMC,030456,A,4833.9000,N,12312.0900,W,9.19,344,050722,11.7,E,A,V*61
20220705 030500+00:00 $WIMWV,3.1,R,3.29,N,A*19
20220705 030502+00:00 $IIMDA,29.9,I,1.013,B,12.3,C,,C,89.9,,,C,,T,,M,,N,,M*23
20220705 030502+00:00 $HCHDT,338.9,T*28
20220705 030502+00:00 $GPRMC,030458,A,4833.9000,N,12312.0900,W,9.19,344,050722,11.7,E,A,V*6F
20220705 030502+00:00 $WIMWV,19.5,R,2.29,N,A*27
20220705 030504+00:00 $IIMDA,29.9,I,1.013,B,12.3,C,,C,89.9,,,C,,T,,M,,N,,M*23
20220705 030504+00:00 $HCHDT,339.1,T*21
20220705 030504+00:00 $GPRMC,030500,A,4833.9096,N,12312.0900,W,9.19,345,050722,11.7,E,A,V*6D
20220705 030504+00:00 $WIMWV,3.1,R,3.29,N,A*19
20220705 030506+00:00 $IIMDA,29.9,I,1.013,B,12.3,C,,C,89.9,,,C,,T,,M,,N,,M*23
20220705 030506+00:00 $HCHDT,339.4,T*24
20220705 030506+00:00 $GPRMC,030502,A,4833.9096,N,12312.0900,W,9.19,345,050722,11.7,E,A,V*6F
20220705 030506+00:00 $WIMWV,2.4,R,2.99,N,A*17
20220705 030508+00:00 $IIMDA,29.9,I,1.013,B,12.3,C,,C,89.9,,,C,,T,,M,,N,,M*23
20220705 030508+00:00 $HCHDT,339.6,T*26
20220705 030508+00:00 $GPRMC,030504,A,4833.9198,N,12312.0900,W,9.19,345,050722,11.7,E,A,V*66
20220705 030508+00:00 $WIMWV,18.29,R,2.49,N,A*1E
20220705 030510+00:00 $IIMDA,29.9,I,1.013,B,12.3,C,,C,89.9,,,C,,T,,M,,N,,M*23
20220705 030510+00:00 $HCHDT,339.6,T*26
20220705 030510+00:00 $GPRMC,030506,A,4833.9198,N,12312.0996,W,9.19,345,050722,11.7,E,A,V*6B
20220705 030510+00:00 $WIMWV,2.9,R,3.79,N,A*15
20220705 030512+00:00 $IIMDA,29.9,I,1.013,B,12.3,C,,C,89.9,,,C,,T,,M,,N,,M*23
20220705 030512+00:00 $HCHDT,339.5,T*25
20220705 030512+00:00 $GPRMC,030508,A,4833.9300,N,12312.0996,W,9.19,346,050722,11.7,E,A,V*65
20220705 030512+00:00 $WIMWV,22.2,R,2.39,N,A*29
20220705 030514+00:00 $IIMDA,29.9,I,1.013,B,12.3,C,,C,89.9,,,C,,T,,M,,N,,M*23
20220705 030514+00:00 $HCHDT,339.3,T*23
20220705 030514+00:00 $GPRMC,030510,A,4833.9300,N,12312.0996,W,9.19,346,050722,11.7,E,A,V*6C
20220705 030514+00:00 $WIMWV,13.5,R,2.59,N,A*2A
20220705 030516+00:00 $IIMDA,29.9,I,1.013,B,12.3,C,,C,89.9,,,C,,T,,M,,N,,M*23
20220705 030516+00:00 $HCHDT,339,T*3E
20220705 030516+00:00 $GPRMC,030512,A,4833.9396,N,12312.0996,W,9.19,346,050722,11.7,E,A,V*61
20220705 030516+00:00 $WIMWV,21.1,R,2.9,N,A*1A
20220705 030518+00:00 $IIMDA,29.9,I,1.013,B,12.3,C,,C,89.9,,,C,,T,,M,,N,,M*23
20220705 030518+00:00 $HCHDT,338.6,T*27
20220705 030518+00:00 $GPRMC,030514,A,4833.9396,N,12312.0996,W,9.19,346,050722,11.7,E,A,V*67
20220705 030518+00:00 $WIMWV,6.5,R,3.29,N,A*18
20220705 030520+00:00 $IIMDA,29.9,I,1.013,B,12.3,C,,C,89.9,,,C,,T,,M,,N,,M*23
20220705 030520+00:00 $HCHDT,338.1,T*20
20220705 030520+00:00 $GPRMC,030516,A,4833.9498,N,12312.1098,W,9.19,346,050722,11.7,E,A,V*6A
20220705 030520+00:00 $WIMWV,8.79,R,1.98,N,A*25
20220705 030522+00:00 $IIMDA,29.9,I,1.013,B,12.3,C,,C,89.8,,,C,,T,,M,,N,,M*22
20220705 030522+00:00 $HCHDT,337.6,T*28
20220705 030522+00:00 $GPRMC,030518,A,4833.9498,N,12312.1098,W,9.19,346,050722,11.7,E,A,V*64
20220705 030522+00:00 $WIMWV,348.09,R,3.69,N,A*29
20220705 030524+00:00 $IIMDA,29.9,I,1.013,B,12.3,C,,C,89.9,,,C,,T,,M,,N,,M*23
20220705 030524+00:00 $HCHDT,337.2,T*2C
20220705 030524+00:00 $GPRMC,030520,A,4833.9600,N,12312.1098,W,9.19,346,050722,11.7,E,A,V*6C
20220705 030524+00:00 $WIMWV,0.19,R,3.38,N,A*23
20220705 030526+00:00 $IIMDA,29.9,I,1.013,B,12.3,C,,C,89.8,,,C,,T,,M,,N,,M*22
20220705 030526+00:00 $HCHDT,336.8,T*27
20220705 030526+00:00 $GPRMC,030522,A,4833.9600,N,12312.1098,W,9.19,346,050722,11.7,E,A,V*6E
20220705 030526+00:00 $WIMWV,9,R,2.39,N,A*0C
20220705 030528+00:00 $IIMDA,29.9,I,1.013,B,12.3,C,,C,89.9,,,C,,T,,M,,N,,M*23
20220705 030528+00:00 $HCHDT,336.5,T*2A
20220705 030528+00:00 $GPRMC,030524,A,4833.9696,N,12312.1098,W,9.19,345,050722,11.7,E,A,V*64
20220705 030528+00:00 $WIMWV,16.09,R,2.9,N,A*26
20220705 030530+00:00 $IIMDA,29.9,I,1.013,B,12.3,C,,C,89.8,,,C,,T,,M,,N,,M*22
20220705 030530+00:00 $HCHDT,336.4,T*2B
20220705 030530+00:00 $GPRMC,030526,A,4833.9696,N,12312.1200,W,9.19,345,050722,11.7,E,A,V*65
20220705 030530+00:00 $WIMWV,354.49,R,3.5,N,A*1A
20220705 030532+00:00 $IIMDA,29.9,I,1.013,B,12.3,C,,C,89.8,,,C,,T,,M,,N,,M*22
20220705 030532+00:00 $HCHDT,336.4,T*2B
20220705 030532+00:00 $GPRMC,030528,A,4833.9798,N,12312.1200,W,9.19,345,050722,11.7,E,A,V*64
20220705 030532+00:00 $WIMWV,356.69,R,3.6,N,A*19
20220705 030534+00:00 $IIMDA,29.9,I,1.013,B,12.3,C,,C,89.9,,,C,,T,,M,,N,,M*23
20220705 030534+00:00 $HCHDT,336.5,T*2A
20220705 030534+00:00 $GPRMC,030530,A,4833.9798,N,12312.1200,W,9.19,345,050722,11.7,E,A,V*6D
20220705 030534+00:00 $WIMWV,351.89,R,2.59,N,A*2B
20220705 030536+00:00 $IIMDA,29.9,I,1.013,B,12.3,C,,C,89.8,,,C,,T,,M,,N,,M*22
20220705 030536+00:00 $HCHDT,336.6,T*29
20220705 030536+00:00 $GPRMC,030532,A,4833.9798,N,12312.1200,W,9.19,344,050722,11.7,E,A,V*6E
20220705 030536+00:00 $WIMWV,350.59,R,2.39,N,A*21
20220705 030538+00:00 $IIMDA,29.9,I,1.013,B,12.3,C,,C,89.8,,,C,,T,,M,,N,,M*22
20220705 030538+00:00 $HCHDT,336.8,T*27
20220705 030538+00:00 $GPRMC,030534,A,4833.9900,N,12312.1200,W,9.19,344,050722,11.7,E,A,V*67
20220705 030538+00:00 $WIMWV,356.49,R,3.09,N,A*24
20220705 030540+00:00 $IIMDA,29.9,I,1.013,B,12.3,C,,C,89.8,,,C,,T,,M,,N,,M*22
20220705 030540+00:00 $HCHDT,336.9,T*26
20220705 030540+00:00 $GPRMC,030536,A,4833.9900,N,12312.1296,W,9.19,344,050722,11.7,E,A,V*6A
20220705 030540+00:00 $WIMWV,356.29,R,2.9,N,A*13
20220705 030542+00:00 $IIMDA,29.9,I,1.013,B,12.3,C,,C,89.8,,,C,,T,,M,,N,,M*22
20220705 030542+00:00 $HCHDT,336.9,T*26
20220705 030542+00:00 $GPRMC,030538,A,4833.9996,N,12312.1296,W,9.29,344,050722,11.7,E,A,V*68
20220705 030542+00:00 $WIMWV,5.7,R,2.99,N,A*13
20220705 030544+00:00 $IIMDA,29.9,I,1.013,B,12.3,C,,C,89.8,,,C,,T,,M,,N,,M*22
20220705 030544+00:00 $HCHDT,336.9,T*26
20220705 030544+00:00 $GPRMC,030540,A,4833.9996,N,12312.1296,W,9.29,344,050722,11.7,E,A,V*67
20220705 030544+00:00 $WIMWV,18,R,1.98,N,A*34
20220705 030546+00:00 $IIMDA,29.9,I,1.013,B,12.3,C,,C,89.8,,,C,,T,,M,,N,,M*22
20220705 030546+00:00 $HCHDT,336.8,T*27
20220705 030546+00:00 $GPRMC,030542,A,4834.0098,N,12312.1296,W,9.29,344,050722,11.7,E,A,V*6C
20220705 030546+00:00 $WIMWV,352.39,R,3.79,N,A*20
20220705 030548+00:00 $IIMDA,29.9,I,1.013,B,12.3,C,,C,89.8,,,C,,T,,M,,N,,M*22
20220705 030548+00:00 $HCHDT,336.7,T*28
20220705 030548+00:00 $GPRMC,030544,A,4834.0098,N,12312.1296,W,9.29,344,050722,11.7,E,A,V*6A
20220705 030548+00:00 $WIMWV,0.19,R,3.19,N,A*20
20220705 030550+00:00 $IIMDA,29.9,I,1.013,B,12.3,C,,C,89.8,,,C,,T,,M,,N,,M*22
20220705 030550+00:00 $HCHDT,336.6,T*29
20220705 030550+00:00 $GPRMC,030546,A,4834.0200,N,12312.1398,W,9.29,344,050722,11.7,E,A,V*64
20220705 030550+00:00 $WIMWV,3,R,2.59,N,A*00
20220705 030552+00:00 $IIMDA,29.9,I,1.013,B,12.3,C,,C,89.8,,,C,,T,,M,,N,,M*22
20220705 030552+00:00 $HCHDT,336.5,T*2A
20220705 030552+00:00 $GPRMC,030548,A,4834.0200,N,12312.1398,W,9.29,344,050722,11.7,E,A,V*6A
20220705 030552+00:00 $WIMWV,347.19,R,2.29,N,A*22
20220705 030554+00:00 $IIMDA,29.9,I,1.013,B,12.3,C,,C,89.8,,,C,,T,,M,,N,,M*22
20220705 030554+00:00 $HCHDT,336.5,T*2A
20220705 030554+00:00 $GPRMC,030550,A,4834.0296,N,12312.1398,W,9.29,344,050722,11.7,E,A,V*6C
20220705 030554+00:00 $WIMWV,9.2,R,2.39,N,A*10
20220705 030556+00:00 $IIMDA,29.9,I,1.013,B,12.3,C,,C,89.8,,,C,,T,,M,,N,,M*22
20220705 030556+00:00 $HCHDT,336.7,T*28
20220705 030556+00:00 $GPRMC,030552,A,4834.0296,N,12312.1398,W,9.29,344,050722,11.7,E,A,V*6E
20220705 030556+00:00 $WIMWV,356.69,R,2.49,N,A*23
20220705 030558+00:00 $IIMDA,29.9,I,1.013,B,12.3,C,,C,89.8,,,C,,T,,M,,N,,M*22
20220705 030558+00:00 $HCHDT,336.8,T*27
20220705 030558+00:00 $GPRMC,030554,A,4834.0398,N,12312.1500,W,9.19,344,050722,11.7,E,A,V*63
20220705 030558+00:00 $WIMWV,347.59,R,2.68,N,A*23
20220705 030600+00:00 $IIMDA,29.9,I,1.013,B,12.3,C,,C,89.8,,,C,,T,,M,,N,,M*22
20220705 030600+00:00 $HCHDT,336.9,T*26
20220705 030600+00:00 $GPRMC,030556,A,4834.0398,N,12312.1500,W,9.19,344,050722,11.7,E,A,V*61
20220705 030600+00:00 $WIMWV,4.5,R,2.59,N,A*1C
20220705 030602+00:00 $IIMDA,29.9,I,1.013,B,12.3,C,,C,89.8,,,C,,T,,M,,N,,M*22
20220705 030602+00:00 $HCHDT,336.8,T*27
20220705 030602+00:00 $GPRMC,030558,A,4834.0500,N,12312.1500,W,9.19,344,050722,11.7,E,A,V*68
20220705 030602+00:00 $WIMWV,354.99,R,2.29,N,A*28
20220705 030604+00:00 $IIMDA,29.9,I,1.013,B,12.3,C,,C,89.7,,,C,,T,,M,,N,,M*2D
20220705 030604+00:00 $HCHDT,336.5,T*2A
20220705 030604+00:00 $GPRMC,030600,A,4834.0500,N,12312.1500,W,9.19,344,050722,11.7,E,A,V*66
20220705 030604+00:00 $WIMWV,354.49,R,3.19,N,A*27
20220705 030606+00:00 $IIMDA,29.9,I,1.013,B,12.3,C,,C,89.7,,,C,,T,,M,,N,,M*2D
20220705 030606+00:00 $HCHDT,336.4,T*2B
20220705 030606+00:00 $GPRMC,030602,A,4834.0596,N,12312.1500,W,9.19,344,050722,11.7,E,A,V*6B
20220705 030606+00:00 $WIMWV,0.19,R,1.79,N,A*24
20220705 030608+00:00 $IIMDA,29.9,I,1.013,B,12.3,C,,C,89.7,,,C,,T,,M,,N,,M*2D
20220705 030608+00:00 $HCHDT,336.3,T*2C
20220705 030608+00:00 $GPRMC,030604,A,4834.0596,N,12312.1596,W,9.19,344,050722,11.7,E,A,V*62
20220705 030608+00:00 $WIMWV,356.49,R,2.59,N,A*20
20220705 030610+00:00 $IIMDA,29.9,I,1.013,B,12.3,C,,C,89.7,,,C,,T,,M,,N,,M*2D
20220705 030610+00:00 $HCHDT,336,T*31
20220705 030610+00:00 $GPRMC,030606,A,4834.0698,N,12312.1596,W,9.19,344,050722,11.7,E,A,V*6D
20220705 030610+00:00 $WIMWV,358.39,R,3.5,N,A*11
20220705 030612+00:00 $IIMDA,29.9,I,1.013,B,12.3,C,,C,89.7,,,C,,T,,M,,N,,M*2D
20220705 030612+00:00 $HCHDT,335.7,T*2B
20220705 030612+00:00 $GPRMC,030608,A,4834.0698,N,12312.1596,W,9.19,344,050722,11.7,E,A,V*63
20220705 030612+00:00 $WIMWV,4.6,R,3.19,N,A*1A
20220705 030614+00:00 $IIMDA,29.9,I,1.013,B,12.3,C,,C,89.7,,,C,,T,,M,,N,,M*2D
20220705 030614+00:00 $HCHDT,335.5,T*29
20220705 030614+00:00 $GPRMC,030610,A,4834.0800,N,12312.1596,W,9.29,344,050722,11.7,E,A,V*66
20220705 030614+00:00 $WIMWV,0.19,R,2.59,N,A*25
20220705 030616+00:00 $IIMDA,29.9,I,1.013,B,12.3,C,,C,89.7,,,C,,T,,M,,N,,M*2D
20220705 030616+00:00 $HCHDT,335.3,T*2F
20220705 030616+00:00 $GPRMC,030612,A,4834.0800,N,12312.1596,W,9.29,344,050722,11.7,E,A,V*64
20220705 030616+00:00 $WIMWV,349.29,R,2.8,N,A*1C
20220705 030618+00:00 $IIMDA,29.9,I,1.013,B,12.3,C,,C,89.7,,,C,,T,,M,,N,,M*2D
20220705 030618+00:00 $HCHDT,335.1,T*2D
20220705 030618+00:00 $GPRMC,030614,A,4834.0896,N,12312.1698,W,9.29,344,050722,11.7,E,A,V*60
20220705 030618+00:00 $WIMWV,6.3,R,2.59,N,A*18
20220705 030620+00:00 $IIMDA,29.9,I,1.013,B,12.3,C,,C,89.7,,,C,,T,,M,,N,,M*2D
20220705 030620+00:00 $HCHDT,335,T*32
20220705 030620+00:00 $GPRMC,030616,A,4834.0896,N,12312.1698,W,9.29,344,050722,11.7,E,A,V*62
20220705 030620+00:00 $WIMWV,358.79,R,3.29,N,A*2B
20220705 030622+00:00 $IIMDA,29.9,I,1.013,B,12.3,C,,C,89.7,,,C,,T,,M,,N,,M*2D
20220705 030622+00:00 $HCHDT,334.9,T*24
20220705 030622+00:00 $GPRMC,030618,A,4834.0998,N,12312.1698,W,9.29,344,050722,11.7,E,A,V*63
20220705 030622+00:00 $WIMWV,325.59,R,2.99,N,A*29
20220705 030624+00:00 $IIMDA,29.9,I,1.013,B,12.3,C,,C,89.7,,,C,,T,,M,,N,,M*2D
20220705 030624+00:00 $HCHDT,335,T*32
20220705 030624+00:00 $GPRMC,030620,A,4834.0998,N,12312.1698,W,9.29,344,050722,11.7,E,A,V*68
20220705 030624+00:00 $WIMWV,0.19,R,2.49,N,A*24
20220705 030626+00:00 $IIMDA,29.9,I,1.013,B,12.3,C,,C,89.7,,,C,,T,,M,,N,,M*2D
20220705 030626+00:00 $HCHDT,335.1,T*2D
20220705 030626+00:00 $GPRMC,030622,A,4834.1100,N,12312.1698,W,9.29,344,050722,11.7,E,A,V*62
20220705 030626+00:00 $WIMWV,355.99,R,2.59,N,A*2E
20220705 030628+00:00 $IIMDA,29.9,I,1.013,B,12.3,C,,C,89.6,,,C,,T,,M,,N,,M*2C
20220705 030628+00:00 $HCHDT,335.3,T*2F
20220705 030628+00:00 $GPRMC,030624,A,4834.1100,N,12312.1800,W,9.29,343,050722,11.7,E,A,V*6C
20220705 030628+00:00 $WIMWV,10,R,1.28,N,A*37
20220705 030630+00:00 $IIMDA,29.9,I,1.013,B,12.3,C,,C,89.7,,,C,,T,,M,,N,,M*2D
20220705 030630+00:00 $HCHDT,335.6,T*2A
20220705 030630+00:00 $GPRMC,030626,A,4834.1196,N,12312.1800,W,9.29,343,050722,11.7,E,A,V*61
20220705 030630+00:00 $WIMWV,342.29,R,2.49,N,A*22
20220705 030632+00:00 $IIMDA,29.9,I,1.013,B,12.3,C,,C,89.7,,,C,,T,,M,,N,,M*2D
20220705 030632+00:00 $HCHDT,335.9,T*25
20220705 030632+00:00 $GPRMC,030628,A,4834.1196,N,12312.1800,W,9.29,343,050722,11.7,E,A,V*6F
20220705 030632+00:00 $WIMWV,352.99,R,2.2,N,A*17
20220705 030634+00:00 $IIMDA,29.9,I,1.013,B,12.3,C,,C,89.7,,,C,,T,,M,,N,,M*2D
20220705 030634+00:00 $HCHDT,336.3,T*2C
20220705 030634+00:00 $GPRMC,030630,A,4834.1298,N,12312.1800,W,9.19,343,050722,11.7,E,A,V*68
20220705 030634+00:00 $WIMWV,3,R,3.29,N,A*06
20220705 030636+00:00 $IIMDA,29.9,I,1.013,B,12.3,C,,C,89.7,,,C,,T,,M,,N,,M*2D
20220705 030636+00:00 $HCHDT,337,T*30
20220705 030636+00:00 $GPRMC,030632,A,4834.1298,N,12312.1896,W,9.29,344,050722,11.7,E,A,V*61
20220705 030636+00:00 $WIMWV,25.7,R,2.29,N,A*2A
20220705 030638+00:00 $IIMDA,29.9,I,1.013,B,12.3,C,,C,89.7,,,C,,T,,M,,N,,M*2D
20220705 030638+00:00 $HCHDT,337.6,T*28
20220705 030638+00:00 $GPRMC,030634,A,4834.1400,N,12312.1896,W,9.29,344,050722,11.7,E,A,V*60
20220705 030638+00:00 $WIMWV,7.69,R,2.49,N,A*24
20220705 030640+00:00 $IIMDA,29.9,I,1.013,B,12.3,C,,C,89.7,,,C,,T,,M,,N,,M*2D
20220705 030640+00:00 $HCHDT,338.1,T*20
20220705 030640+00:00 $GPRMC,030636,A,4834.1400,N,12312.1896,W,9.29,345,050722,11.7,E,A,V*63
20220705 030640+00:00 $WIMWV,9.1,R,1.89,N,A*1B
20220705 030642+00:00 $IIMDA,29.9,I,1.013,B,12.3,C,,C,89.7,,,C,,T,,M,,N,,M*2D
20220705 030642+00:00 $HCHDT,338.5,T*24
20220705 030642+00:00 $GPRMC,030638,A,4834.1496,N,12312.1896,W,9.29,345,050722,11.7,E,A,V*62
20220705 030642+00:00 $WIMWV,349.79,R,2.39,N,A*2B
20220705 030644+00:00 $IIMDA,29.9,I,1.013,B,12.3,C,,C,89.6,,,C,,T,,M,,N,,M*2C
20220705 030644+00:00 $HCHDT,338.7,T*26
20220705 030644+00:00 $GPRMC,030640,A,4834.1496,N,12312.1896,W,9.29,346,050722,11.7,E,A,V*6E
20220705 030644+00:00 $WIMWV,13.6,R,2.49,N,A*28
20220705 030646+00:00 $IIMDA,29.9,I,1.013,B,12.3,C,,C,89.6,,,C,,T,,M,,N,,M*2C
20220705 030646+00:00 $HCHDT,338.8,T*29
20220705 030646+00:00 $GPRMC,030642,A,4834.1598,N,12312.1896,W,9.29,346,050722,11.7,E,A,V*63
20220705 030646+00:00 $WIMWV,14,R,2.2,N,A*08
20220705 030648+00:00 $IIMDA,29.9,I,1.013,B,12.3,C,,C,89.6,,,C,,T,,M,,N,,M*2C
20220705 030648+00:00 $HCHDT,338.7,T*26
20220705 030648+00:00 $GPRMC,030644,A,4834.1598,N,12312.1998,W,9.41,347,050722,11.7,E,A,V*65
20220705 030648+00:00 $WIMWV,17.1,R,2.68,N,A*28
20220705 030650+00:00 $IIMDA,29.9,I,1.013,B,12.3,C,,C,89.7,,,C,,T,,M,,N,,M*2D
20220705 030650+00:00 $HCHDT,338.5,T*24
20220705 030650+00:00 $GPRMC,030646,A,4834.1700,N,12312.1998,W,9.41,347,050722,11.7,E,A,V*64
20220705 030650+00:00 $WIMWV,25.59,R,2.59,N,A*16
20220705 030652+00:00 $IIMDA,29.9,I,1.013,B,12.3,C,,C,89.7,,,C,,T,,M,,N,,M*2D
20220705 030652+00:00 $HCHDT,337.8,T*26
20220705 030652+00:00 $GPRMC,030648,A,4834.1700,N,12312.1998,W,9.41,348,050722,11.7,E,A,V*65
20220705 030652+00:00 $WIMWV,15.3,R,2.59,N,A*2A
20220705 030654+00:00 $IIMDA,29.9,I,1.013,B,12.3,C,,C,89.6,,,C,,T,,M,,N,,M*2C
20220705 030654+00:00 $HCHDT,337,T*30
20220705 030654+00:00 $GPRMC,030650,A,4834.1796,N,12312.1998,W,9.41,348,050722,11.7,E,A,V*63
20220705 030654+00:00 $WIMWV,26.4,R,2.49,N,A*2C
20220705 030656+00:00 $IIMDA,29.9,I,1.013,B,12.3,C,,C,89.6,,,C,,T,,M,,N,,M*2C
20220705 030656+00:00 $HCHDT,336.1,T*2E
20220705 030656+00:00 $GPRMC,030652,A,4834.1796,N,12312.1998,W,9.41,348,050722,11.7,E,A,V*61
20220705 030656+00:00 $WIMWV,18.8,R,2.1,N,A*11
20220705 030658+00:00 $IIMDA,29.9,I,1.013,B,12.3,C,,C,89.6,,,C,,T,,M,,N,,M*2C
20220705 030658+00:00 $HCHDT,335.2,T*2E
20220705 030658+00:00 $GPRMC,030654,A,4834.1898,N,12312.1998,W,9.41,348,050722,11.7,E,A,V*66
20220705 030658+00:00 $WIMWV,23.7,R,2.29,N,A*2C
20220705 030700+00:00 $IIMDA,29.9,I,1.013,B,12.3,C,,C,89.6,,,C,,T,,M,,N,,M*2C
20220705 030700+00:00 $HCHDT,334.7,T*2A
20220705 030700+00:00 $GPRMC,030656,A,4834.1898,N,12312.2100,W,9.41,347,050722,11.7,E,A,V*61
20220705 030700+00:00 $WIMWV,20.4,R,1.98,N,A*25
20220705 030702+00:00 $IIMDA,29.9,I,1.013,B,12.3,C,,C,89.6,,,C,,T,,M,,N,,M*2C
20220705 030702+00:00 $HCHDT,334.3,T*2E
20220705 030702+00:00 $GPRMC,030658,A,4834.2000,N,12312.2100,W,9.41,347,050722,11.7,E,A,V*65
20220705 030702+00:00 $WIMWV,3.7,R,3.09,N,A*1D
20220705 030704+00:00 $IIMDA,29.9,I,1.013,B,12.3,C,,C,89.6,,,C,,T,,M,,N,,M*2C
20220705 030704+00:00 $HCHDT,334,T*33
20220705 030704+00:00 $GPRMC,030700,A,4834.2000,N,12312.2100,W,9.29,346,050722,11.7,E,A,V*66
20220705 030704+00:00 $WIMWV,7.1,R,2.49,N,A*1A
20220705 030706+00:00 $IIMDA,29.9,I,1.013,B,12.3,C,,C,89.6,,,C,,T,,M,,N,,M*2C
20220705 030706+00:00 $HCHDT,334.1,T*2C
20220705 030706+00:00 $GPRMC,030702,A,4834.2096,N,12312.2100,W,9.29,345,050722,11.7,E,A,V*68
20220705 030706+00:00 $WIMWV,6.1,R,2.2,N,A*24
20220705 030708+00:00 $IIMDA,29.9,I,1.013,B,12.3,C,,C,89.6,,,C,,T,,M,,N,,M*2C
20220705 030708+00:00 $HCHDT,334.5,T*28
20220705 030708+00:00 $GPRMC,030704,A,4834.2096,N,12312.2196,W,9.29,345,050722,11.7,E,A,V*61
20220705 030708+00:00 $WIMWV,4.39,R,3.09,N,A*27
20220705 030710+00:00 $IIMDA,29.9,I,1.013,B,12.3,C,,C,89.6,,,C,,T,,M,,N,,M*2C
20220705 030710+00:00 $HCHDT,335.1,T*2D
20220705 030710+00:00 $GPRMC,030706,A,4834.2198,N,12312.2196,W,9.29,344,050722,11.7,E,A,V*6D
20220705 030710+00:00 $WIMWV,20.1,R,2.2,N,A*10
20220705 030712+00:00 $IIMDA,29.9,I,1.013,B,12.3,C,,C,89.6,,,C,,T,,M,,N,,M*2C
20220705 030712+00:00 $HCHDT,335.6,T*2A
20220705 030712+00:00 $GPRMC,030708,A,4834.2198,N,12312.2196,W,9.29,344,050722,11.7,E,A,V*63
20220705 030712+00:00 $WIMWV,8.1,R,2.29,N,A*13
20220705 030714+00:00 $IIMDA,29.9,I,1.013,B,12.3,C,,C,89.6,,,C,,T,,M,,N,,M*2C
20220705 030714+00:00 $HCHDT,336.1,T*2E
20220705 030714+00:00 $GPRMC,030710,A,4834.2300,N,12312.2196,W,9.29,344,050722,11.7,E,A,V*69
20220705 030714+00:00 $WIMWV,32.5,R,1.89,N,A*27
20220705 030716+00:00 $IIMDA,29.9,I,1.013,B,12.3,C,,C,89.6,,,C,,T,,M,,N,,M*2C
20220705 030716+00:00 $HCHDT,336.6,T*29
20220705 030716+00:00 $GPRMC,030712,A,4834.2300,N,12312.2196,W,9.29,344,050722,11.7,E,A,V*6B
20220705 030716+00:00 $WIMWV,21.39,R,1.98,N,A*1A
20220705 030718+00:00 $IIMDA,29.9,I,1.013,B,12.3,C,,C,89.5,,,C,,T,,M,,N,,M*2F
20220705 030718+00:00 $HCHDT,337.1,T*2F
20220705 030718+00:00 $GPRMC,030714,A,4834.2396,N,12312.2298,W,9.29,344,050722,11.7,E,A,V*6F
20220705 030718+00:00 $WIMWV,9.6,R,2.59,N,A*12
20220705 030720+00:00 $IIMDA,29.9,I,1.013,B,12.3,C,,C,89.5,,,C,,T,,M,,N,,M*2F
20220705 030720+00:00 $HCHDT,337.5,T*2B
20220705 030720+00:00 $GPRMC,030716,A,4834.2396,N,12312.2298,W,9.29,345,050722,11.7,E,A,V*6C
20220705 030720+00:00 $WIMWV,5.9,R,2.49,N,A*10
20220705 030722+00:00 $IIMDA,29.9,I,1.013,B,12.3,C,,C,89.6,,,C,,T,,M,,N,,M*2C
20220705 030722+00:00 $HCHDT,337.8,T*26
20220705 030722+00:00 $GPRMC,030718,A,4834.2498,N,12312.2298,W,9.29,345,050722,11.7,E,A,V*6B
20220705 030722+00:00 $WIMWV,10.7,R,2.49,N,A*2A
20220705 030724+00:00 $IIMDA,29.9,I,1.013,B,12.3,C,,C,89.6,,,C,,T,,M,,N,,M*2C
20220705 030724+00:00 $HCHDT,337.8,T*26
20220705 030724+00:00 $GPRMC,030720,A,4834.2498,N,12312.2298,W,9.41,345,050722,11.7,E,A,V*6E
20220705 030724+00:00 $WIMWV,7.8,R,2.59,N,A*12
20220705 030726+00:00 $IIMDA,29.9,I,1.013,B,12.3,C,,C,89.6,,,C,,T,,M,,N,,M*2C
20220705 030726+00:00 $HCHDT,337.6,T*28
20220705 030726+00:00 $GPRMC,030722,A,4834.2600,N,12312.2298,W,9.41,346,050722,11.7,E,A,V*6C
20220705 030726+00:00 $WIMWV,2.6,R,2.8,N,A*2D
20220705 030728+00:00 $IIMDA,29.9,I,1.013,B,12.3,C,,C,89.6,,,C,,T,,M,,N,,M*2C
20220705 030728+00:00 $HCHDT,337.1,T*2F
20220705 030728+00:00 $GPRMC,030724,A,4834.2600,N,12312.2400,W,9.41,346,050722,11.7,E,A,V*6D
20220705 030728+00:00 $WIMWV,13.1,R,2.2,N,A*10
20220705 030730+00:00 $IIMDA,29.9,I,1.013,B,12.3,C,,C,89.5,,,C,,T,,M,,N,,M*2F
20220705 030730+00:00 $HCHDT,336.4,T*2B
20220705 030730+00:00 $GPRMC,030726,A,4834.2696,N,12312.2400,W,9.41,346,050722,11.7,E,A,V*60
20220705 030730+00:00 $WIMWV,8.1,R,2.29,N,A*13
20220705 030732+00:00 $IIMDA,29.9,I,1.013,B,12.3,C,,C,89.5,,,C,,T,,M,,N,,M*2F
20220705 030732+00:00 $HCHDT,335.9,T*25
20220705 030732+00:00 $GPRMC,030728,A,4834.2696,N,12312.2400,W,9.41,346,050722,11.7,E,A,V*6E
20220705 030732+00:00 $WIMWV,7.69,R,2.59,N,A*25
20220705 030734+00:00 $IIMDA,29.9,I,1.013,B,12.3,C,,C,89.5,,,C,,T,,M,,N,,M*2F
20220705 030734+00:00 $HCHDT,335.3,T*2F
20220705 030734+00:00 $GPRMC,030730,A,4834.2798,N,12312.2400,W,9.41,345,050722,11.7,E,A,V*6B
20220705 030734+00:00 $WIMWV,4.1,R,2.59,N,A*18
20220705 030736+00:00 $IIMDA,29.9,I,1.013,B,12.3,C,,C,89.5,,,C,,T,,M,,N,,M*2F
20220705 030736+00:00 $HCHDT,334.8,T*25
20220705 030736+00:00 $GPRMC,030732,A,4834.2798,N,12312.2400,W,9.41,345,050722,11.7,E,A,V*69
20220705 030736+00:00 $WIMWV,5.3,R,2.49,N,A*1A
20220705 030738+00:00 $IIMDA,29.9,I,1.013,B,12.3,C,,C,89.5,,,C,,T,,M,,N,,M*2F
20220705 030738+00:00 $HCHDT,334.6,T*2B
20220705 030738+00:00 $GPRMC,030734,A,4834.2900,N,12312.2496,W,9.41,345,050722,11.7,E,A,V*6F
20220705 030738+00:00 $WIMWV,4.8,R,2.39,N,A*17
20220705 030740+00:00 $IIMDA,29.9,I,1.013,B,12.3,C,,C,89.5,,,C,,T,,M,,N,,M*2F
20220705 030740+00:00 $HCHDT,334.7,T*2A
20220705 030740+00:00 $GPRMC,030736,A,4834.2900,N,12312.2496,W,9.41,344,050722,11.7,E,A,V*6C
20220705 030740+00:00 $WIMWV,3,R,3.38,N,A*06
20220705 030742+00:00 $IIMDA,29.9,I,1.013,B,12.3,C,,C,89.5,,,C,,T,,M,,N,,M*2F
20220705 030742+00:00 $HCHDT,335.2,T*2E
20220705 030742+00:00 $GPRMC,030738,A,4834.2996,N,12312.2496,W,9.41,344,050722,11.7,E,A,V*6D
20220705 030742+00:00 $WIMWV,0.19,R,2.59,N,A*25
20220705 030744+00:00 $IIMDA,29.9,I,1.013,B,12.3,C,,C,89.5,,,C,,T,,M,,N,,M*2F
20220705 030744+00:00 $HCHDT,335.7,T*2B
