20220704 160000+00:00 $IIMDA,29.9,I,1.012,B,10.8,C,,C,95.8,,,C,,T,,M,,N,,M*27
20220704 160000+00:00 $HCHDT,108.9,T*29
20220704 160000+00:00 $GPRMC,155956,A,4838.9796,N,12507.8600,W,9.1,112,040722,12,E,A,V*4B
20220704 160000+00:00 $WIMWV,47.4,R,12.19,N,A*1F
20220704 160002+00:00 $IIMDA,29.9,I,1.012,B,10.8,C,,C,95.8,,,C,,T,,M,,N,,M*27
20220704 160002+00:00 $HCHDT,109.3,T*22
20220704 160002+00:00 $GPRMC,155958,A,4838.9796,N,12507.8600,W,9.1,112,040722,12,E,A,V*45
20220704 160002+00:00 $WIMWV,45.7,R,13.49,N,A*1A
20220704 160004+00:00 $IIMDA,29.9,I,1.012,B,10.8,C,,C,95.8,,,C,,T,,M,,N,,M*27
20220704 160004+00:00 $HCHDT,108.6,T*26
20220704 160004+00:00 $GPRMC,160000,A,4838.9796,N,12507.8498,W,9.1,112,040722,12,E,A,V*44
20220704 160004+00:00 $WIMWV,44.99,R,12.09,N,A*29
20220704 160006+00:00 $IIMDA,29.9,I,1.012,B,10.8,C,,C,95.8,,,C,,T,,M,,N,,M*27
20220704 160006+00:00 $HCHDT,108.3,T*23
20220704 160006+00:00 $GPRMC,160002,A,4838.9796,N,12507.8396,W,9.1,112,040722,12,E,A,V*4F
20220704 160006+00:00 $WIMWV,45.7,R,11.2,N,A*27
20220704 160008+00:00 $IIMDA,29.9,I,1.012,B,10.8,C,,C,95.8,,,C,,T,,M,,N,,M*27
20220704 160008+00:00 $HCHDT,108.1,T*21
20220704 160008+00:00 $GPRMC,160004,A,4838.9700,N,12507.8396,W,9.1,112,040722,12,E,A,V*46
20220704 160008+00:00 $WIMWV,48,R,12.5,N,A*37
20220704 160010+00:00 $IIMDA,29.9,I,1.012,B,10.8,C,,C,95.8,,,C,,T,,M,,N,,M*27
20220704 160010+00:00 $HCHDT,107.6,T*29
20220704 160010+00:00 $GPRMC,160006,A,4838.9700,N,12507.8300,W,9.1,112,040722,12,E,A,V*4B
20220704 160010+00:00 $WIMWV,51,R,11.59,N,A*05
20220704 160012+00:00 $IIMDA,29.9,I,1.012,B,10.8,C,,C,95.8,,,C,,T,,M,,N,,M*27
20220704 160012+00:00 $HCHDT,108,T*3E
20220704 160012+00:00 $GPRMC,160008,A,4838.9700,N,12507.8198,W,9.1,112,040722,12,E,A,V*46
20220704 160012+00:00 $WIMWV,49.3,R,13.39,N,A*15
20220704 160014+00:00 $IIMDA,29.9,I,1.012,B,10.8,C,,C,95.8,,,C,,T,,M,,N,,M*27
20220704 160014+00:00 $HCHDT,108.2,T*22
20220704 160014+00:00 $GPRMC,160010,A,4838.9700,N,12507.8198,W,9.1,111,040722,12,E,A,V*4C
20220704 160014+00:00 $WIMWV,41.1,R,11.29,N,A*1C
20220704 160016+00:00 $IIMDA,29.9,I,1.012,B,10.8,C,,C,95.8,,,C,,T,,M,,N,,M*27
20220704 160016+00:00 $HCHDT,108.2,T*22
20220704 160016+00:00 $GPRMC,160012,A,4838.9700,N,12507.8096,W,9.1,111,040722,12,E,A,V*41
20220704 160016+00:00 $WIMWV,49.19,R,13.08,N,A*2C
20220704 160018+00:00 $IIMDA,29.9,I,1.012,B,10.8,C,,C,95.8,,,C,,T,,M,,N,,M*27
20220704 160018+00:00 $HCHDT,108.4,T*24
20220704 160018+00:00 $GPRMC,160014,A,4838.9598,N,12507.8000,W,9.1,111,040722,12,E,A,V*4B
20220704 160018+00:00 $WIMWV,51.5,R,13.2,N,A*22
20220704 160020+00:00 $IIMDA,29.9,I,1.012,B,10.8,C,,C,95.9,,,C,,T,,M,,N,,M*26
20220704 160020+00:00 $HCHDT,108.5,T*25
20220704 160020+00:00 $GPRMC,160016,A,4838.9598,N,12507.7898,W,9.1,111,040722,12,E,A,V*4F
20220704 160020+00:00 $WIMWV,46.7,R,12.6,N,A*23
20220704 160022+00:00 $IIMDA,29.9,I,1.012,B,10.8,C,,C,95.8,,,C,,T,,M,,N,,M*27
20220704 160022+00:00 $HCHDT,108.7,T*27
20220704 160022+00:00 $GPRMC,160018,A,4838.9598,N,12507.7898,W,9.1,111,040722,12,E,A,V*41
20220704 160022+00:00 $WIMWV,46.5,R,12.5,N,A*22
20220704 160024+00:00 $IIMDA,29.9,I,1.012,B,10.8,C,,C,95.8,,,C,,T,,M,,N,,M*27
20220704 160024+00:00 $HCHDT,108.6,T*26
20220704 160024+00:00 $GPRMC,160020,A,4838.9598,N,12507.7796,W,9.1,111,040722,12,E,A,V*4B
20220704 160024+00:00 $WIMWV,46,R,12.29,N,A*07
20220704 160026+00:00 $IIMDA,29.9,I,1.012,B,10.8,C,,C,95.8,,,C,,T,,M,,N,,M*27
20220704 160026+00:00 $HCHDT,108.4,T*24
20220704 160026+00:00 $GPRMC,160022,A,4838.9598,N,12507.7700,W,9.1,111,040722,12,E,A,V*46
20220704 160026+00:00 $WIMWV,47.7,R,12.19,N,A*1C
20220704 160028+00:00 $IIMDA,29.9,I,1.012,B,10.8,C,,C,95.9,,,C,,T,,M,,N,,M*26
20220704 160028+00:00 $HCHDT,108.2,T*22
20220704 160028+00:00 $GPRMC,160024,A,4838.9598,N,12507.7700,W,9.1,111,040722,12,E,A,V*40
20220704 160028+00:00 $WIMWV,48.5,R,13.08,N,A*10
20220704 160030+00:00 $IIMDA,29.9,I,1.012,B,10.8,C,,C,95.8,,,C,,T,,M,,N,,M*27
20220704 160030+00:00 $HCHDT,108.7,T*27
20220704 160030+00:00 $GPRMC,160026,A,4838.9496,N,12507.7598,W,9.1,111,040722,12,E,A,V*4E
20220704 160030+00:00 $WIMWV,48.2,R,12.69,N,A*11
20220704 160032+00:00 $IIMDA,29.9,I,1.012,B,10.8,C,,C,95.8,,,C,,T,,M,,N,,M*27
20220704 160032+00:00 $HCHDT,108.9,T*29
20220704 160032+00:00 $GPRMC,160028,A,4838.9496,N,12507.7496,W,9.1,111,040722,12,E,A,V*4F
20220704 160032+00:00 $WIMWV,48.9,R,12.69,N,A*1A
20220704 160034+00:00 $IIMDA,29.9,I,1.012,B,10.8,C,,C,95.9,,,C,,T,,M,,N,,M*26
20220704 160034+00:00 $HCHDT,108.3,T*23
20220704 160034+00:00 $GPRMC,160030,A,4838.9496,N,12507.7400,W,9.1,111,040722,12,E,A,V*49
20220704 160034+00:00 $WIMWV,47.19,R,12.29,N,A*20
20220704 160036+00:00 $IIMDA,29.9,I,1.012,B,10.8,C,,C,95.8,,,C,,T,,M,,N,,M*27
20220704 160036+00:00 $HCHDT,108,T*3E
20220704 160036+00:00 $GPRMC,160032,A,4838.9496,N,12507.7400,W,9.1,111,040722,12,E,A,V*4B
20220704 160036+00:00 $WIMWV,50.29,R,12.09,N,A*27
20220704 160038+00:00 $IIMDA,29.9,I,1.012,B,10.8,C,,C,95.9,,,C,,T,,M,,N,,M*26
20220704 160038+00:00 $HCHDT,108.2,T*22
20220704 160038+00:00 $GPRMC,160034,A,4838.9496,N,12507.7298,W,9.1,111,040722,12,E,A,V*4A
20220704 160038+00:00 $WIMWV,48.5,R,12.38,N,A*12
20220704 160040+00:00 $IIMDA,29.9,I,1.012,B,10.8,C,,C,95.9,,,C,,T,,M,,N,,M*26
20220704 160040+00:00 $HCHDT,108.1,T*21
20220704 160040+00:00 $GPRMC,160036,A,4838.9400,N,12507.7196,W,9.1,111,040722,12,E,A,V*4A
20220704 160040+00:00 $WIMWV,48,R,12.5,N,A*37
20220704 160042+00:00 $IIMDA,29.9,I,1.012,B,10.8,C,,C,95.9,,,C,,T,,M,,N,,M*26
20220704 160042+00:00 $HCHDT,108,T*3E
20220704 160042+00:00 $GPRMC,160038,A,4838.9400,N,12507.7196,W,9.1,111,040722,12,E,A,V*44
20220704 160042+00:00 $WIMWV,47.7,R,12.38,N,A*1F
20220704 160044+00:00 $IIMDA,29.9,I,1.012,B,10.8,C,,C,95.8,,,C,,T,,M,,N,,M*27
20220704 160044+00:00 $HCHDT,108.6,T*26
20220704 160044+00:00 $GPRMC,160040,A,4838.9400,N,12507.7100,W,9.1,111,040722,12,E,A,V*44
20220704 160044+00:00 $WIMWV,46,R,12.29,N,A*07
20220704 160046+00:00 $IIMDA,29.9,I,1.012,B,10.8,C,,C,95.9,,,C,,T,,M,,N,,M*26
20220704 160046+00:00 $HCHDT,108.6,T*26
20220704 160046+00:00 $GPRMC,160042,A,4838.9400,N,12507.6998,W,9.1,111,040722,12,E,A,V*4E
20220704 160046+00:00 $WIMWV,36.59,R,11.39,N,A*20
20220704 160048+00:00 $IIMDA,29.9,I,1.012,B,10.8,C,,C,95.9,,,C,,T,,M,,N,,M*26
20220704 160048+00:00 $HCHDT,108.2,T*22
20220704 160048+00:00 $GPRMC,160044,A,4838.9400,N,12507.6896,W,9.1,111,040722,12,E,A,V*47
20220704 160048+00:00 $WIMWV,48.9,R,12.5,N,A*20
20220704 160050+00:00 $IIMDA,29.9,I,1.012,B,10.8,C,,C,95.9,,,C,,T,,M,,N,,M*26
20220704 160050+00:00 $HCHDT,108.7,T*27
20220704 160050+00:00 $GPRMC,160046,A,4838.9400,N,12507.6896,W,9.1,111,040722,12,E,A,V*45
20220704 160050+00:00 $WIMWV,46.7,R,12.79,N,A*1B
20220704 160052+00:00 $IIMDA,29.9,I,1.012,B,10.8,C,,C,95.9,,,C,,T,,M,,N,,M*26
20220704 160052+00:00 $HCHDT,108.6,T*26
20220704 160052+00:00 $GPRMC,160048,A,4838.9298,N,12507.6800,W,9.1,111,040722,12,E,A,V*43
20220704 160052+00:00 $WIMWV,48.5,R,10.38,N,A*10
20220704 160054+00:00 $IIMDA,29.9,I,1.012,B,10.8,C,,C,95.9,,,C,,T,,M,,N,,M*26
20220704 160054+00:00 $HCHDT,108.9,T*29
20220704 160054+00:00 $GPRMC,160050,A,4838.9298,N,12507.6698,W,9.1,111,040722,12,E,A,V*45
20220704 160054+00:00 $WIMWV,49.7,R,12.09,N,A*13
20220704 160056+00:00 $IIMDA,29.9,I,1.012,B,10.8,C,,C,95.9,,,C,,T,,M,,N,,M*26
20220704 160056+00:00 $HCHDT,108.6,T*26
20220704 160056+00:00 $GPRMC,160052,A,4838.9298,N,12507.6698,W,9,112,040722,12,E,A,V*5B
20220704 160056+00:00 $WIMWV,47.5,R,12.38,N,A*1D
20220704 160058+00:00 $IIMDA,29.9,I,1.012,B,10.8,C,,C,95.8,,,C,,T,,M,,N,,M*27
20220704 160058+00:00 $HCHDT,108.4,T*24
20220704 160058+00:00 $GPRMC,160054,A,4838.9298,N,12507.6596,W,9,112,040722,12,E,A,V*50
20220704 160058+00:00 $WIMWV,48.2,R,12.19,N,A*16
20220704 160100+00:00 $IIMDA,29.9,I,1.012,B,10.8,C,,C,95.9,,,C,,T,,M,,N,,M*26
20220704 160100+00:00 $HCHDT,108.7,T*27
20220704 160100+00:00 $GPRMC,160056,A,4838.9298,N,12507.6500,W,9,112,040722,12,E,A,V*5D
20220704 160100+00:00 $WIMWV,47.19,R,13.3,N,A*19
20220704 160102+00:00 $IIMDA,29.9,I,1.012,B,10.8,C,,C,95.9,,,C,,T,,M,,N,,M*26
20220704 160102+00:00 $HCHDT,108.6,T*26
20220704 160102+00:00 $GPRMC,160058,A,4838.9196,N,12507.6500,W,9.1,112,040722,12,E,A,V*41
20220704 160102+00:00 $WIMWV,41.89,R,10.98,N,A*27
20220704 160104+00:00 $IIMDA,29.9,I,1.012,B,10.8,C,,C,95.9,,,C,,T,,M,,N,,M*26
20220704 160104+00:00 $HCHDT,108.2,T*22
20220704 160104+00:00 $GPRMC,160100,A,4838.9196,N,12507.6398,W,9.1,112,040722,12,E,A,V*4A
20220704 160104+00:00 $WIMWV,40.9,R,11.99,N,A*1E
20220704 160106+00:00 $IIMDA,29.9,I,1.012,B,10.8,C,,C,95.9,,,C,,T,,M,,N,,M*26
20220704 160106+00:00 $HCHDT,108.3,T*23
20220704 160106+00:00 $GPRMC,160102,A,4838.9196,N,12507.6296,W,9.1,111,040722,12,E,A,V*44
20220704 160106+00:00 $WIMWV,44.5,R,11.59,N,A*1A
20220704 160108+00:00 $IIMDA,29.9,I,1.012,B,10.8,C,,C,95.9,,,C,,T,,M,,N,,M*26
20220704 160108+00:00 $HCHDT,108.3,T*23
20220704 160108+00:00 $GPRMC,160104,A,4838.9196,N,12507.6200,W,9.1,111,040722,12,E,A,V*4D
20220704 160108+00:00 $WIMWV,48,R,11.39,N,A*0B
20220704 160110+00:00 $IIMDA,29.9,I,1.012,B,10.8,C,,C,95.9,,,C,,T,,M,,N,,M*26
20220704 160110+00:00 $HCHDT,108.1,T*21
20220704 160110+00:00 $GPRMC,160106,A,4838.9196,N,12507.6200,W,9.1,111,040722,12,E,A,V*4F
20220704 160110+00:00 $WIMWV,37.9,R,11.68,N,A*10
20220704 160112+00:00 $IIMDA,29.9,I,1.012,B,10.8,C,,C,95.9,,,C,,T,,M,,N,,M*26
20220704 160112+00:00 $HCHDT,108,T*3E
20220704 160112+00:00 $GPRMC,160108,A,4838.9100,N,12507.6098,W,9.1,111,040722,12,E,A,V*4D
20220704 160112+00:00 $WIMWV,45.5,R,11.29,N,A*1C
20220704 160114+00:00 $IIMDA,29.9,I,1.012,B,10.8,C,,C,95.9,,,C,,T,,M,,N,,M*26
20220704 160114+00:00 $HCHDT,108.1,T*21
20220704 160114+00:00 $GPRMC,160110,A,4838.9100,N,12507.5996,W,9,111,040722,12,E,A,V*5F
20220704 160114+00:00 $WIMWV,38.9,R,11.2,N,A*23
20220704 160116+00:00 $IIMDA,29.9,I,1.012,B,10.8,C,,C,95.9,,,C,,T,,M,,N,,M*26
20220704 160116+00:00 $HCHDT,108.2,T*22
20220704 160116+00:00 $GPRMC,160112,A,4838.9100,N,12507.5996,W,9,111,040722,12,E,A,V*5D
20220704 160116+00:00 $WIMWV,31.7,R,10.09,N,A*1E
20220704 160118+00:00 $IIMDA,29.9,I,1.012,B,10.8,C,,C,95.9,,,C,,T,,M,,N,,M*26
20220704 160118+00:00 $HCHDT,108.4,T*24
20220704 160118+00:00 $GPRMC,160114,A,4838.9100,N,12507.5900,W,9,111,040722,12,E,A,V*54
20220704 160118+00:00 $WIMWV,32.7,R,9.99,N,A*2C
20220704 160120+00:00 $IIMDA,29.9,I,1.012,B,10.8,C,,C,95.9,,,C,,T,,M,,N,,M*26
20220704 160120+00:00 $HCHDT,108.8,T*28
20220704 160120+00:00 $GPRMC,160116,A,4838.9100,N,12507.5798,W,9.1,111,040722,12,E,A,V*46
20220704 160120+00:00 $WIMWV,31.5,R,10.38,N,A*1E
20220704 160122+00:00 $IIMDA,29.9,I,1.012,B,10.8,C,,C,95.9,,,C,,T,,M,,N,,M*26
20220704 160122+00:00 $HCHDT,108.4,T*24
20220704 160122+00:00 $GPRMC,160118,A,4838.9100,N,12507.5696,W,9.1,111,040722,12,E,A,V*47
20220704 160122+00:00 $WIMWV,39.4,R,10.09,N,A*15
20220704 160124+00:00 $IIMDA,29.9,I,1.012,B,10.8,C,,C,95.9,,,C,,T,,M,,N,,M*26
20220704 160124+00:00 $HCHDT,108,T*3E
20220704 160124+00:00 $GPRMC,160120,A,4838.8998,N,12507.5696,W,9.1,111,040722,12,E,A,V*44
20220704 160124+00:00 $WIMWV,45.7,R,10.38,N,A*1F
20220704 160126+00:00 $IIMDA,29.9,I,1.012,B,10.8,C,,C,95.9,,,C,,T,,M,,N,,M*26
20220704 160126+00:00 $HCHDT,108.2,T*22
20220704 160126+00:00 $GPRMC,160122,A,4838.8998,N,12507.5600,W,9.1,111,040722,12,E,A,V*49
20220704 160126+00:00 $WIMWV,40.59,R,10.69,N,A*25
20220704 160128+00:00 $IIMDA,29.9,I,1.012,B,10.8,C,,C,95.9,,,C,,T,,M,,N,,M*26
20220704 160128+00:00 $HCHDT,108.6,T*26
20220704 160128+00:00 $GPRMC,160124,A,4838.8998,N,12507.5498,W,9.1,111,040722,12,E,A,V*4C
20220704 160128+00:00 $WIMWV,44.2,R,12.29,N,A*19
20220704 160130+00:00 $IIMDA,29.9,I,1.012,B,10.8,C,,C,95.9,,,C,,T,,M,,N,,M*26
20220704 160130+00:00 $HCHDT,108.7,T*27
20220704 160130+00:00 $GPRMC,160126,A,4838.8998,N,12507.5498,W,9.1,111,040722,12,E,A,V*4E
20220704 160130+00:00 $WIMWV,35.9,R,10.5,N,A*28
20220704 160132+00:00 $IIMDA,29.9,I,1.012,B,10.8,C,,C,95.9,,,C,,T,,M,,N,,M*26
20220704 160132+00:00 $HCHDT,108.2,T*22
20220704 160132+00:00 $GPRMC,160128,A,4838.8998,N,12507.5396,W,9.1,111,040722,12,E,A,V*49
20220704 160132+00:00 $WIMWV,46.99,R,11.39,N,A*2B
20220704 160134+00:00 $IIMDA,29.9,I,1.012,B,10.8,C,,C,96,,,C,,T,,M,,N,,M*32
20220704 160134+00:00 $HCHDT,107.8,T*27
20220704 160134+00:00 $GPRMC,160130,A,4838.8998,N,12507.5300,W,9,111,040722,12,E,A,V*50
20220704 160134+00:00 $WIMWV,44.4,R,10.38,N,A*1D
20220704 160136+00:00 $IIMDA,29.9,I,1.012,B,10.8,C,,C,95.9,,,C,,T,,M,,N,,M*26
20220704 160136+00:00 $HCHDT,107.7,T*28
20220704 160136+00:00 $GPRMC,160132,A,4838.8896,N,12507.5300,W,9,111,040722,12,E,A,V*5D
20220704 160136+00:00 $WIMWV,38.39,R,10.69,N,A*2C
20220704 160138+00:00 $IIMDA,29.9,I,1.012,B,10.8,C,,C,96,,,C,,T,,M,,N,,M*32
20220704 160138+00:00 $HCHDT,107.6,T*29
20220704 160138+00:00 $GPRMC,160134,A,4838.8896,N,12507.5198,W,9,111,040722,12,E,A,V*58
20220704 160138+00:00 $WIMWV,43.5,R,11.49,N,A*1C
20220704 160140+00:00 $IIMDA,29.9,I,1.012,B,10.8,C,,C,96,,,C,,T,,M,,N,,M*32
20220704 160140+00:00 $HCHDT,108,T*3E
20220704 160140+00:00 $GPRMC,160136,A,4838.8896,N,12507.5096,W,9,110,040722,12,E,A,V*54
20220704 160140+00:00 $WIMWV,45.7,R,11.59,N,A*19
20220704 160142+00:00 $IIMDA,29.9,I,1.012,B,10.8,C,,C,96,,,C,,T,,M,,N,,M*32
20220704 160142+00:00 $HCHDT,108.4,T*24
20220704 160142+00:00 $GPRMC,160138,A,4838.8896,N,12507.5000,W,9.1,110,040722,12,E,A,V*4A
20220704 160142+00:00 $WIMWV,43.8,R,11.59,N,A*10
20220704 160144+00:00 $IIMDA,29.9,I,1.012,B,10.8,C,,C,96,,,C,,T,,M,,N,,M*32
20220704 160144+00:00 $HCHDT,108.1,T*21
20220704 160144+00:00 $GPRMC,160140,A,4838.8896,N,12507.5000,W,9,111,040722,12,E,A,V*5B
20220704 160144+00:00 $WIMWV,29.09,R,8.79,N,A*17
20220704 160146+00:00 $IIMDA,29.9,I,1.012,B,10.8,C,,C,96,,,C,,T,,M,,N,,M*32
20220704 160146+00:00 $HCHDT,108,T*3E
20220704 160146+00:00 $GPRMC,160142,A,4838.8800,N,12507.4898,W,9,111,040722,12,E,A,V*5E
20220704 160146+00:00 $WIMWV,44.5,R,11.29,N,A*1D
20220704 160148+00:00 $IIMDA,29.9,I,1.012,B,10.8,C,,C,96,,,C,,T,,M,,N,,M*32
20220704 160148+00:00 $HCHDT,107.8,T*27
20220704 160148+00:00 $GPRMC,160144,A,4838.8800,N,12507.4796,W,9,111,040722,12,E,A,V*59
20220704 160148+00:00 $WIMWV,37.9,R,10.89,N,A*1E
20220704 160150+00:00 $IIMDA,29.9,I,1.012,B,10.8,C,,C,96,,,C,,T,,M,,N,,M*32
20220704 160150+00:00 $HCHDT,107.9,T*26
20220704 160150+00:00 $GPRMC,160146,A,4838.8800,N,12507.4796,W,9,111,040722,12,E,A,V*5B
20220704 160150+00:00 $WIMWV,39.9,R,9.89,N,A*28
20220704 160152+00:00 $IIMDA,29.9,I,1.012,B,10.8,C,,C,96,,,C,,T,,M,,N,,M*32
20220704 160152+00:00 $HCHDT,108.3,T*23
20220704 160152+00:00 $GPRMC,160148,A,4838.8800,N,12507.4700,W,9,110,040722,12,E,A,V*5B
20220704 160152+00:00 $WIMWV,42.1,R,10.28,N,A*1F
20220704 160154+00:00 $IIMDA,29.9,I,1.012,B,10.8,C,,C,96,,,C,,T,,M,,N,,M*32
20220704 160154+00:00 $HCHDT,108.4,T*24
20220704 160154+00:00 $GPRMC,160150,A,4838.8800,N,12507.4598,W,9,110,040722,12,E,A,V*51
20220704 160154+00:00 $WIMWV,36.9,R,10.79,N,A*10
20220704 160156+00:00 $IIMDA,29.9,I,1.012,B,10.8,C,,C,96.1,,,C,,T,,M,,N,,M*2D
20220704 160156+00:00 $HCHDT,107.9,T*26
20220704 160156+00:00 $GPRMC,160152,A,4838.8800,N,12507.4496,W,9,110,040722,12,E,A,V*5C
20220704 160156+00:00 $WIMWV,46.4,R,11.68,N,A*1B
20220704 160158+00:00 $IIMDA,29.9,I,1.012,B,10.8,C,,C,96.1,,,C,,T,,M,,N,,M*2D
20220704 160158+00:00 $HCHDT,107.9,T*26
20220704 160158+00:00 $GPRMC,160154,A,4838.8698,N,12507.4496,W,9.1,110,040722,12,E,A,V*4A
20220704 160158+00:00 $WIMWV,42.79,R,10.79,N,A*24
20220704 160200+00:00 $IIMDA,29.9,I,1.012,B,10.8,C,,C,96,,,C,,T,,M,,N,,M*32
20220704 160200+00:00 $HCHDT,108.4,T*24
20220704 160200+00:00 $GPRMC,160156,A,4838.8698,N,12507.4400,W,9.1,110,040722,12,E,A,V*47
20220704 160200+00:00 $WIMWV,44.2,R,11.29,N,A*1A
20220704 160202+00:00 $IIMDA,29.9,I,1.012,B,10.8,C,,C,96,,,C,,T,,M,,N,,M*32
20220704 160202+00:00 $HCHDT,108.4,T*24
20220704 160202+00:00 $GPRMC,160158,A,4838.8698,N,12507.4298,W,9,110,040722,12,E,A,V*51
20220704 160202+00:00 $WIMWV,41.89,R,10.79,N,A*28
20220704 160204+00:00 $IIMDA,29.9,I,1.012,B,10.8,C,,C,96.1,,,C,,T,,M,,N,,M*2D
20220704 160204+00:00 $HCHDT,108.6,T*26
20220704 160204+00:00 $GPRMC,160200,A,4838.8698,N,12507.4298,W,9,110,040722,12,E,A,V*5F
20220704 160204+00:00 $WIMWV,30.3,R,9.19,N,A*22
20220704 160206+00:00 $IIMDA,29.9,I,1.012,B,10.8,C,,C,96,,,C,,T,,M,,N,,M*32
20220704 160206+00:00 $HCHDT,108.3,T*23
20220704 160206+00:00 $GPRMC,160202,A,4838.8698,N,12507.4196,W,9,111,040722,12,E,A,V*51
20220704 160206+00:00 $WIMWV,37.9,R,10.79,N,A*11
20220704 160208+00:00 $IIMDA,29.9,I,1.012,B,10.8,C,,C,96.1,,,C,,T,,M,,N,,M*2D
20220704 160208+00:00 $HCHDT,108.4,T*24
20220704 160208+00:00 $GPRMC,160204,A,4838.8698,N,12507.4100,W,9,111,040722,12,E,A,V*58
20220704 160208+00:00 $WIMWV,24.8,R,7.39,N,A*20
20220704 160210+00:00 $IIMDA,29.9,I,1.012,B,10.8,C,,C,96.1,,,C,,T,,M,,N,,M*2D
20220704 160210+00:00 $HCHDT,108.7,T*27
20220704 160210+00:00 $GPRMC,160206,A,4838.8596,N,12507.3998,W,9.1,110,040722,12,E,A,V*47
20220704 160210+00:00 $WIMWV,48.4,R,8.18,N,A*2A
20220704 160212+00:00 $IIMDA,29.9,I,1.012,B,10.8,C,,C,96,,,C,,T,,M,,N,,M*32
20220704 160212+00:00 $HCHDT,108.7,T*27
20220704 160212+00:00 $GPRMC,160208,A,4838.8596,N,12507.3998,W,9.1,111,040722,12,E,A,V*48
20220704 160212+00:00 $WIMWV,40.59,R,11.39,N,A*21
20220704 160214+00:00 $IIMDA,29.9,I,1.012,B,10.8,C,,C,96,,,C,,T,,M,,N,,M*32
20220704 160214+00:00 $HCHDT,108.9,T*29
20220704 160214+00:00 $GPRMC,160210,A,4838.8596,N,12507.3896,W,9.1,111,040722,12,E,A,V*4E
20220704 160214+00:00 $WIMWV,30.6,R,9.49,N,A*22
20220704 160216+00:00 $IIMDA,29.9,I,1.012,B,10.8,C,,C,96,,,C,,T,,M,,N,,M*32
20220704 160216+00:00 $HCHDT,109.4,T*25
20220704 160216+00:00 $GPRMC,160212,A,4838.8596,N,12507.3800,W,9,111,040722,12,E,A,V*5C
20220704 160216+00:00 $WIMWV,34.1,R,10.28,N,A*1E
20220704 160218+00:00 $IIMDA,29.9,I,1.012,B,10.8,C,,C,96,,,C,,T,,M,,N,,M*32
20220704 160218+00:00 $HCHDT,109.4,T*25
20220704 160218+00:00 $GPRMC,160214,A,4838.8596,N,12507.3800,W,9,111,040722,12,E,A,V*5A
20220704 160218+00:00 $WIMWV,31.5,R,9.89,N,A*2C
20220704 160220+00:00 $IIMDA,29.9,I,1.012,B,10.8,C,,C,96.1,,,C,,T,,M,,N,,M*2D
20220704 160220+00:00 $HCHDT,109,T*3F
20220704 160220+00:00 $GPRMC,160216,A,4838.8500,N,12507.3698,W,9,111,040722,12,E,A,V*58
20220704 160220+00:00 $WIMWV,32.7,R,9.49,N,A*21
20220704 160222+00:00 $IIMDA,29.9,I,1.012,B,10.8,C,,C,96.1,,,C,,T,,M,,N,,M*2D
20220704 160222+00:00 $HCHDT,108.9,T*29
20220704 160222+00:00 $GPRMC,160218,A,4838.8500,N,12507.3596,W,9,112,040722,12,E,A,V*58
20220704 160222+00:00 $WIMWV,33.29,R,10.69,N,A*26
20220704 160224+00:00 $IIMDA,29.9,I,1.012,B,10.8,C,,C,96.1,,,C,,T,,M,,N,,M*2D
20220704 160224+00:00 $HCHDT,109.1,T*20
20220704 160224+00:00 $GPRMC,160220,A,4838.8500,N,12507.3596,W,9,112,040722,12,E,A,V*53
20220704 160224+00:00 $WIMWV,41.4,R,8.4,N,A*1E
20220704 160226+00:00 $IIMDA,29.9,I,1.012,B,10.8,C,,C,96.1,,,C,,T,,M,,N,,M*2D
20220704 160226+00:00 $HCHDT,109.7,T*26
20220704 160226+00:00 $GPRMC,160222,A,4838.8500,N,12507.3500,W,9,111,040722,12,E,A,V*5D
20220704 160226+00:00 $WIMWV,32.5,R,8.69,N,A*20
20220704 160228+00:00 $IIMDA,29.9,I,1.012,B,10.8,C,,C,96.1,,,C,,T,,M,,N,,M*2D
20220704 160228+00:00 $HCHDT,110.7,T*2E
20220704 160228+00:00 $GPRMC,160224,A,4838.8500,N,12507.3398,W,9,111,040722,12,E,A,V*5C
20220704 160228+00:00 $WIMWV,33.09,R,7.89,N,A*1C
20220704 160230+00:00 $IIMDA,29.9,I,1.012,B,10.8,C,,C,96.1,,,C,,T,,M,,N,,M*2D
20220704 160230+00:00 $HCHDT,111.3,T*2B
20220704 160230+00:00 $GPRMC,160226,A,4838.8500,N,12507.3296,W,9,112,040722,12,E,A,V*52
20220704 160230+00:00 $WIMWV,33.29,R,9.29,N,A*1A
20220704 160232+00:00 $IIMDA,29.9,I,1.012,B,10.8,C,,C,96.1,,,C,,T,,M,,N,,M*2D
20220704 160232+00:00 $HCHDT,111.1,T*29
20220704 160232+00:00 $GPRMC,160228,A,4838.8398,N,12507.3296,W,9,113,040722,12,E,A,V*5A
20220704 160232+00:00 $WIMWV,29.9,R,8.79,N,A*27
20220704 160234+00:00 $IIMDA,29.9,I,1.012,B,10.8,C,,C,96.1,,,C,,T,,M,,N,,M*2D
20220704 160234+00:00 $HCHDT,110.8,T*21
20220704 160234+00:00 $GPRMC,160230,A,4838.8398,N,12507.3200,W,9,113,040722,12,E,A,V*5C
20220704 160234+00:00 $WIMWV,41.1,R,10.19,N,A*1E
20220704 160236+00:00 $IIMDA,29.9,I,1.012,B,10.8,C,,C,96.1,,,C,,T,,M,,N,,M*2D
20220704 160236+00:00 $HCHDT,110.6,T*2F
20220704 160236+00:00 $GPRMC,160232,A,4838.8398,N,12507.3098,W,9,113,040722,12,E,A,V*5D
20220704 160236+00:00 $WIMWV,27.9,R,7.79,N,A*26
20220704 160238+00:00 $IIMDA,29.9,I,1.012,B,10.8,C,,C,96.1,,,C,,T,,M,,N,,M*2D
20220704 160238+00:00 $HCHDT,111.1,T*29
20220704 160238+00:00 $GPRMC,160234,A,4838.8398,N,12507.3098,W,9,113,040722,12,E,A,V*5B
20220704 160238+00:00 $WIMWV,26.69,R,8.79,N,A*1E
20220704 160240+00:00 $IIMDA,29.9,I,1.012,B,10.8,C,,C,96.1,,,C,,T,,M,,N,,M*2D
20220704 160240+00:00 $HCHDT,111.2,T*2A
20220704 160240+00:00 $GPRMC,160236,A,4838.8398,N,12507.2996,W,9,113,040722,12,E,A,V*5F
20220704 160240+00:00 $WIMWV,38.39,R,11.29,N,A*29
20220704 160242+00:00 $IIMDA,29.9,I,1.012,B,10.8,C,,C,96.1,,,C,,T,,M,,N,,M*2D
20220704 160242+00:00 $HCHDT,111.2,T*2A
20220704 160242+00:00 $GPRMC,160238,A,4838.8296,N,12507.2900,W,9,114,040722,12,E,A,V*56
20220704 160242+00:00 $WIMWV,44.7,R,10.19,N,A*1D
20220704 160244+00:00 $IIMDA,29.9,I,1.012,B,10.8,C,,C,96.1,,,C,,T,,M,,N,,M*2D
20220704 160244+00:00 $HCHDT,111.4,T*2C
20220704 160244+00:00 $GPRMC,160240,A,4838.8296,N,12507.2900,W,9,114,040722,12,E,A,V*59
20220704 160244+00:00 $WIMWV,33.9,R,9.99,N,A*23
20220704 160246+00:00 $IIMDA,29.9,I,1.012,B,10.8,C,,C,96.1,,,C,,T,,M,,N,,M*2D
20220704 160246+00:00 $HCHDT,110.8,T*21
20220704 160246+00:00 $GPRMC,160242,A,4838.8296,N,12507.2798,W,9,114,040722,12,E,A,V*54
20220704 160246+00:00 $WIMWV,29.9,R,8.98,N,A*28
20220704 160248+00:00 $IIMDA,29.9,I,1.012,B,10.8,C,,C,96.1,,,C,,T,,M,,N,,M*2D
20220704 160248+00:00 $HCHDT,110.3,T*2A
20220704 160248+00:00 $GPRMC,160244,A,4838.8296,N,12507.2696,W,9.1,114,040722,12,E,A,V*42
20220704 160248+00:00 $WIMWV,39.9,R,10.69,N,A*1E
20220704 160250+00:00 $IIMDA,29.9,I,1.012,B,10.8,C,,C,96.1,,,C,,T,,M,,N,,M*2D
20220704 160250+00:00 $HCHDT,110.2,T*2B
20220704 160250+00:00 $GPRMC,160246,A,4838.8296,N,12507.2696,W,9.1,114,040722,12,E,A,V*40
20220704 160250+00:00 $WIMWV,37.4,R,8.79,N,A*25
20220704 160252+00:00 $IIMDA,29.9,I,1.012,B,10.8,C,,C,96.1,,,C,,T,,M,,N,,M*2D
20220704 160252+00:00 $HCHDT,110.5,T*2C
20220704 160252+00:00 $GPRMC,160248,A,4838.8200,N,12507.2600,W,9.1,114,040722,12,E,A,V*4E
20220704 160252+00:00 $WIMWV,39.1,R,9.89,N,A*20
20220704 160254+00:00 $IIMDA,29.9,I,1.012,B,10.8,C,,C,96.2,,,C,,T,,M,,N,,M*2E
20220704 160254+00:00 $HCHDT,111,T*36
20220704 160254+00:00 $GPRMC,160250,A,4838.8200,N,12507.2498,W,9,113,040722,12,E,A,V*5C
20220704 160254+00:00 $WIMWV,37.4,R,9.8,N,A*12
20220704 160256+00:00 $IIMDA,29.9,I,1.012,B,10.8,C,,C,96.1,,,C,,T,,M,,N,,M*2D
20220704 160256+00:00 $HCHDT,110.8,T*21
20220704 160256+00:00 $GPRMC,160252,A,4838.8200,N,12507.2498,W,9,113,040722,12,E,A,V*5E
20220704 160256+00:00 $WIMWV,27.2,R,8.49,N,A*21
20220704 160258+00:00 $IIMDA,29.9,I,1.012,B,10.8,C,,C,96.1,,,C,,T,,M,,N,,M*2D
20220704 160258+00:00 $HCHDT,110.7,T*2E
20220704 160258+00:00 $GPRMC,160254,A,4838.8200,N,12507.2396,W,9,113,040722,12,E,A,V*51
20220704 160258+00:00 $WIMWV,31.2,R,8.88,N,A*2B
20220704 160300+00:00 $IIMDA,29.9,I,1.012,B,10.8,C,,C,96.1,,,C,,T,,M,,N,,M*2D
20220704 160300+00:00 $HCHDT,110.2,T*2B
20220704 160300+00:00 $GPRMC,160256,A,4838.8200,N,12507.2300,W,9,113,040722,12,E,A,V*5C
20220704 160300+00:00 $WIMWV,30.1,R,7.29,N,A*2D
20220704 160302+00:00 $IIMDA,29.9,I,1.012,B,10.8,C,,C,96.1,,,C,,T,,M,,N,,M*2D
20220704 160302+00:00 $HCHDT,109.9,T*28
20220704 160302+00:00 $GPRMC,160258,A,4838.8098,N,12507.2198,W,9,113,040722,12,E,A,V*52
20220704 160302+00:00 $WIMWV,44.9,R,10.89,N,A*1A
20220704 160304+00:00 $IIMDA,29.9,I,1.012,B,10.8,C,,C,96.1,,,C,,T,,M,,N,,M*2D
20220704 160304+00:00 $HCHDT,110.2,T*2B
20220704 160304+00:00 $GPRMC,160300,A,4838.8098,N,12507.2198,W,9,113,040722,12,E,A,V*5E
20220704 160304+00:00 $WIMWV,33.09,R,9.89,N,A*12
20220704 160306+00:00 $IIMDA,29.9,I,1.012,B,10.8,C,,C,96.1,,,C,,T,,M,,N,,M*2D
20220704 160306+00:00 $HCHDT,110.6,T*2F
20220704 160306+00:00 $GPRMC,160302,A,4838.8098,N,12507.2096,W,9,113,040722,12,E,A,V*53
20220704 160306+00:00 $WIMWV,23.7,R,7.89,N,A*23
20220704 160308+00:00 $IIMDA,29.9,I,1.012,B,10.8,C,,C,96.1,,,C,,T,,M,,N,,M*2D
20220704 160308+00:00 $HCHDT,110.7,T*2E
20220704 160308+00:00 $GPRMC,160304,A,4838.8098,N,12507.2000,W,9,113,040722,12,E,A,V*5A
20220704 160308+00:00 $WIMWV,47.7,R,7.7,N,A*17
20220704 160310+00:00 $IIMDA,29.9,I,1.012,B,10.8,C,,C,96.1,,,C,,T,,M,,N,,M*2D
20220704 160310+00:00 $HCHDT,110,T*37
20220704 160310+00:00 $GPRMC,160306,A,4838.8098,N,12507.2000,W,9,113,040722,12,E,A,V*58
20220704 160310+00:00 $WIMWV,30.3,R,9.19,N,A*22
20220704 160312+00:00 $IIMDA,29.9,I,1.012,B,10.8,C,,C,96.1,,,C,,T,,M,,N,,M*2D
20220704 160312+00:00 $HCHDT,110.1,T*28
20220704 160312+00:00 $GPRMC,160308,A,4838.7996,N,12507.1898,W,9,113,040722,12,E,A,V*54
20220704 160312+00:00 $WIMWV,35.4,R,9.39,N,A*22
20220704 160314+00:00 $IIMDA,29.9,I,1.012,B,10.8,C,,C,96.1,,,C,,T,,M,,N,,M*2D
20220704 160314+00:00 $HCHDT,110.8,T*21
20220704 160314+00:00 $GPRMC,160310,A,4838.7996,N,12507.1796,W,9,113,040722,12,E,A,V*5C
20220704 160314+00:00 $WIMWV,40.9,R,10.79,N,A*11
20220704 160316+00:00 $IIMDA,29.9,I,1.012,B,10.8,C,,C,96.1,,,C,,T,,M,,N,,M*2D
20220704 160316+00:00 $HCHDT,110.9,T*20
20220704 160316+00:00 $GPRMC,160312,A,4838.7996,N,12507.1796,W,9,113,040722,12,E,A,V*5E
20220704 160316+00:00 $WIMWV,29.4,R,8.98,N,A*25
20220704 160318+00:00 $IIMDA,29.9,I,1.012,B,10.8,C,,C,96.1,,,C,,T,,M,,N,,M*2D
20220704 160318+00:00 $HCHDT,111.2,T*2A
20220704 160318+00:00 $GPRMC,160314,A,4838.7996,N,12507.1700,W,9,113,040722,12,E,A,V*57
20220704 160318+00:00 $WIMWV,32.6,R,10.28,N,A*1F
20220704 160320+00:00 $IIMDA,29.9,I,1.012,B,10.8,C,,C,96.1,,,C,,T,,M,,N,,M*2D
20220704 160320+00:00 $HCHDT,111.8,T*20
20220704 160320+00:00 $GPRMC,160316,A,4838.7996,N,12507.1598,W,9,113,040722,12,E,A,V*56
20220704 160320+00:00 $WIMWV,16.5,R,7.7,N,A*11
20220704 160322+00:00 $IIMDA,29.9,I,1.012,B,10.8,C,,C,96.1,,,C,,T,,M,,N,,M*2D
20220704 160322+00:00 $HCHDT,111.9,T*21
20220704 160322+00:00 $GPRMC,160318,A,4838.7900,N,12507.1496,W,9,114,040722,12,E,A,V*5F
20220704 160322+00:00 $WIMWV,21.5,R,7.29,N,A*29
20220704 160324+00:00 $IIMDA,29.9,I,1.012,B,10.8,C,,C,96.2,,,C,,T,,M,,N,,M*2E
20220704 160324+00:00 $HCHDT,112,T*35
20220704 160324+00:00 $GPRMC,160320,A,4838.7900,N,12507.1496,W,9,114,040722,12,E,A,V*54
20220704 160324+00:00 $WIMWV,19.3,R,6.78,N,A*21
20220704 160326+00:00 $IIMDA,29.9,I,1.012,B,10.8,C,,C,96.1,,,C,,T,,M,,N,,M*2D
20220704 160326+00:00 $HCHDT,112.2,T*29
20220704 160326+00:00 $GPRMC,160322,A,4838.7900,N,12507.1400,W,9.1,114,040722,12,E,A,V*46
20220704 160326+00:00 $WIMWV,26.89,R,8.09,N,A*17
20220704 160328+00:00 $IIMDA,29.9,I,1.012,B,10.8,C,,C,96.1,,,C,,T,,M,,N,,M*2D
20220704 160328+00:00 $HCHDT,112.3,T*28
20220704 160328+00:00 $GPRMC,160324,A,4838.7900,N,12507.1298,W,9,114,040722,12,E,A,V*58
20220704 160328+00:00 $WIMWV,32.6,R,5.99,N,A*21
20220704 160330+00:00 $IIMDA,29.9,I,1.012,B,10.8,C,,C,96.1,,,C,,T,,M,,N,,M*2D
20220704 160330+00:00 $HCHDT,112.7,T*2C
20220704 160330+00:00 $GPRMC,160326,A,4838.7900,N,12507.1298,W,9,114,040722,12,E,A,V*5A
20220704 160330+00:00 $WIMWV,31,R,7.1,N,A*09
20220704 160332+00:00 $IIMDA,29.9,I,1.012,B,10.8,C,,C,96.1,,,C,,T,,M,,N,,M*2D
20220704 160332+00:00 $HCHDT,112.6,T*2D
20220704 160332+00:00 $GPRMC,160328,A,4838.7798,N,12507.1196,W,9,114,040722,12,E,A,V*56
20220704 160332+00:00 $WIMWV,43.5,R,10.38,N,A*1B
20220704 160334+00:00 $IIMDA,29.9,I,1.012,B,10.8,C,,C,96.1,,,C,,T,,M,,N,,M*2D
20220704 160334+00:00 $HCHDT,112,T*35
20220704 160334+00:00 $GPRMC,160330,A,4838.7798,N,12507.1100,W,8.9,114,040722,12,E,A,V*46
20220704 160334+00:00 $WIMWV,29.7,R,8.98,N,A*26
20220704 160336+00:00 $IIMDA,29.9,I,1.012,B,10.8,C,,C,96.1,,,C,,T,,M,,N,,M*2D
20220704 160336+00:00 $HCHDT,111.6,T*2E
20220704 160336+00:00 $GPRMC,160332,A,4838.7798,N,12507.1100,W,9,114,040722,12,E,A,V*52
20220704 160336+00:00 $WIMWV,26.1,R,7.89,N,A*20
20220704 160338+00:00 $IIMDA,29.9,I,1.012,B,10.8,C,,C,96.1,,,C,,T,,M,,N,,M*2D
20220704 160338+00:00 $HCHDT,111.4,T*2C
20220704 160338+00:00 $GPRMC,160334,A,4838.7798,N,12507.0998,W,9,114,040722,12,E,A,V*5C
20220704 160338+00:00 $WIMWV,29.3,R,8.59,N,A*2F
20220704 160340+00:00 $IIMDA,29.9,I,1.012,B,10.8,C,,C,96.1,,,C,,T,,M,,N,,M*2D
20220704 160340+00:00 $HCHDT,110.8,T*21
20220704 160340+00:00 $GPRMC,160336,A,4838.7798,N,12507.0896,W,9,114,040722,12,E,A,V*51
20220704 160340+00:00 $WIMWV,31.3,R,9.19,N,A*23
20220704 160342+00:00 $IIMDA,29.9,I,1.012,B,10.8,C,,C,96.1,,,C,,T,,M,,N,,M*2D
20220704 160342+00:00 $HCHDT,110.3,T*2A
20220704 160342+00:00 $GPRMC,160338,A,4838.7696,N,12507.0896,W,9,114,040722,12,E,A,V*50
20220704 160342+00:00 $WIMWV,26.1,R,4.2,N,A*10
20220704 160344+00:00 $IIMDA,29.9,I,1.012,B,10.8,C,,C,96.1,,,C,,T,,M,,N,,M*2D
20220704 160344+00:00 $HCHDT,110.6,T*2F
20220704 160344+00:00 $GPRMC,160340,A,4838.7696,N,12507.0800,W,9,113,040722,12,E,A,V*57
20220704 160344+00:00 $WIMWV,34.9,R,9.1,N,A*15
20220704 160346+00:00 $IIMDA,29.9,I,1.012,B,10.8,C,,C,96.1,,,C,,T,,M,,N,,M*2D
20220704 160346+00:00 $HCHDT,111,T*36
20220704 160346+00:00 $GPRMC,160342,A,4838.7696,N,12507.0698,W,9,113,040722,12,E,A,V*5A
20220704 160346+00:00 $WIMWV,29.99,R,7.99,N,A*1F
20220704 160348+00:00 $IIMDA,29.9,I,1.012,B,10.8,C,,C,96.2,,,C,,T,,M,,N,,M*2E
20220704 160348+00:00 $HCHDT,110.4,T*2D
20220704 160348+00:00 $GPRMC,160344,A,4838.7696,N,12507.0698,W,9,113,040722,12,E,A,V*5C
20220704 160348+00:00 $WIMWV,22.8,R,8.28,N,A*29
20220704 160350+00:00 $IIMDA,29.9,I,1.012,B,10.8,C,,C,96.2,,,C,,T,,M,,N,,M*2E
20220704 160350+00:00 $HCHDT,110.1,T*28
20220704 160350+00:00 $GPRMC,160346,A,4838.7696,N,12507.0596,W,9,113,040722,12,E,A,V*53
20220704 160350+00:00 $WIMWV,29.7,R,8.69,N,A*28
20220704 160352+00:00 $IIMDA,29.9,I,1.012,B,10.8,C,,C,96.1,,,C,,T,,M,,N,,M*2D
20220704 160352+00:00 $HCHDT,110.3,T*2A
20220704 160352+00:00 $GPRMC,160348,A,4838.7600,N,12507.0500,W,9,113,040722,12,E,A,V*5D
20220704 160352+00:00 $WIMWV,27.7,R,8.49,N,A*24
20220704 160354+00:00 $IIMDA,29.9,I,1.012,B,10.8,C,,C,96.2,,,C,,T,,M,,N,,M*2E
20220704 160354+00:00 $HCHDT,110.6,T*2F
20220704 160354+00:00 $GPRMC,160350,A,4838.7600,N,12507.0398,W,9,113,040722,12,E,A,V*53
20220704 160354+00:00 $WIMWV,29.4,R,7,N,A*05
20220704 160356+00:00 $IIMDA,29.9,I,1.012,B,10.8,C,,C,96.2,,,C,,T,,M,,N,,M*2E
20220704 160356+00:00 $HCHDT,111,T*36
20220704 160356+00:00 $GPRMC,160352,A,4838.7600,N,12507.0398,W,9,113,040722,12,E,A,V*51
20220704 160356+00:00 $WIMWV,31.5,R,8.28,N,A*26
20220704 160358+00:00 $IIMDA,29.9,I,1.012,B,10.8,C,,C,96.2,,,C,,T,,M,,N,,M*2E
20220704 160358+00:00 $HCHDT,111.2,T*2A
20220704 160358+00:00 $GPRMC,160354,A,4838.7600,N,12507.0296,W,9,113,040722,12,E,A,V*58
20220704 160358+00:00 $WIMWV,29.3,R,8.28,N,A*29
20220704 160400+00:00 $IIMDA,29.9,I,1.012,B,10.8,C,,C,96.2,,,C,,T,,M,,N,,M*2E
20220704 160400+00:00 $HCHDT,111.5,T*2D
20220704 160400+00:00 $GPRMC,160356,A,4838.7600,N,12507.0200,W,9,113,040722,12,E,A,V*55
20220704 160400+00:00 $WIMWV,36.1,R,9.8,N,A*16
20220704 160402+00:00 $IIMDA,29.9,I,1.012,B,10.8,C,,C,96.1,,,C,,T,,M,,N,,M*2D
20220704 160402+00:00 $HCHDT,111.6,T*2E
20220704 160402+00:00 $GPRMC,160358,A,4838.7498,N,12507.0200,W,9,113,040722,12,E,A,V*58
20220704 160402+00:00 $WIMWV,18.8,R,6.78,N,A*2B
20220704 160404+00:00 $IIMDA,29.9,I,1.012,B,10.8,C,,C,96.2,,,C,,T,,M,,N,,M*2E
20220704 160404+00:00 $HCHDT,111.7,T*2F
20220704 160404+00:00 $GPRMC,160400,A,4838.7498,N,12507.0098,W,9,113,040722,12,E,A,V*51
20220704 160404+00:00 $WIMWV,31,R,8.18,N,A*3E
20220704 160406+00:00 $IIMDA,29.9,I,1.012,B,10.8,C,,C,96.2,,,C,,T,,M,,N,,M*2E
20220704 160406+00:00 $HCHDT,111.1,T*29
20220704 160406+00:00 $GPRMC,160402,A,4838.7498,N,12506.9996,W,9,113,040722,12,E,A,V*5C
20220704 160406+00:00 $WIMWV,33.09,R,9.58,N,A*1E
20220704 160408+00:00 $IIMDA,29.9,I,1.012,B,10.8,C,,C,96.2,,,C,,T,,M,,N,,M*2E
20220704 160408+00:00 $HCHDT,111.2,T*2A
20220704 160408+00:00 $GPRMC,160404,A,4838.7498,N,12506.9996,W,9,114,040722,12,E,A,V*5D
20220704 160408+00:00 $WIMWV,30.5,R,9.68,N,A*22
20220704 160410+00:00 $IIMDA,29.9,I,1.012,B,10.8,C,,C,96.2,,,C,,T,,M,,N,,M*2E
20220704 160410+00:00 $HCHDT,111.8,T*20
20220704 160410+00:00 $GPRMC,160406,A,4838.7498,N,12506.9900,W,9,114,040722,12,E,A,V*50
20220704 160410+00:00 $WIMWV,34.6,R,10.09,N,A*1A
20220704 160412+00:00 $IIMDA,29.9,I,1.012,B,10.8,C,,C,96.2,,,C,,T,,M,,N,,M*2E
20220704 160412+00:00 $HCHDT,111.5,T*2D
20220704 160412+00:00 $GPRMC,160408,A,4838.7396,N,12506.9798,W,9,114,040722,12,E,A,V*58
20220704 160412+00:00 $WIMWV,32.4,R,11.2,N,A*24
20220704 160414+00:00 $IIMDA,29.9,I,1.012,B,10.8,C,,C,96.2,,,C,,T,,M,,N,,M*2E
20220704 160414+00:00 $HCHDT,111.4,T*2C
20220704 160414+00:00 $GPRMC,160410,A,4838.7396,N,12506.9798,W,8.9,113,040722,12,E,A,V*40
20220704 160414+00:00 $WIMWV,38.59,R,9.89,N,A*1C
20220704 160416+00:00 $IIMDA,29.9,I,1.012,B,10.8,C,,C,96.2,,,C,,T,,M,,N,,M*2E
20220704 160416+00:00 $HCHDT,112,T*35
20220704 160416+00:00 $GPRMC,160412,A,4838.7396,N,12506.9696,W,8.9,113,040722,12,E,A,V*4D
20220704 160416+00:00 $WIMWV,33.9,R,9.68,N,A*2D
20220704 160418+00:00 $IIMDA,29.9,I,1.012,B,10.8,C,,C,96.2,,,C,,T,,M,,N,,M*2E
20220704 160418+00:00 $HCHDT,112.2,T*29
20220704 160418+00:00 $GPRMC,160414,A,4838.7396,N,12506.9600,W,8.9,114,040722,12,E,A,V*43
20220704 160418+00:00 $WIMWV,28.1,R,9.68,N,A*2F
20220704 160420+00:00 $IIMDA,29.9,I,1.012,B,10.8,C,,C,96.2,,,C,,T,,M,,N,,M*2E
20220704 160420+00:00 $HCHDT,112.1,T*2A
20220704 160420+00:00 $GPRMC,160416,A,4838.7396,N,12506.9600,W,9,114,040722,12,E,A,V*57
20220704 160420+00:00 $WIMWV,31.2,R,9.29,N,A*21
20220704 160422+00:00 $IIMDA,29.9,I,1.012,B,10.8,C,,C,96.2,,,C,,T,,M,,N,,M*2E
20220704 160422+00:00 $HCHDT,112.5,T*2E
20220704 160422+00:00 $GPRMC,160418,A,4838.7300,N,12506.9498,W,9,114,040722,12,E,A,V*55
20220704 160422+00:00 $WIMWV,32.7,R,9.1,N,A*1D
20220704 160424+00:00 $IIMDA,29.9,I,1.012,B,10.8,C,,C,96.2,,,C,,T,,M,,N,,M*2E
20220704 160424+00:00 $HCHDT,111.9,T*21
20220704 160424+00:00 $GPRMC,160420,A,4838.7300,N,12506.9396,W,9,114,040722,12,E,A,V*57
20220704 160424+00:00 $WIMWV,19.1,R,6.18,N,A*25
20220704 160426+00:00 $IIMDA,29.9,I,1.012,B,10.8,C,,C,96.2,,,C,,T,,M,,N,,M*2E
20220704 160426+00:00 $HCHDT,111.4,T*2C
20220704 160426+00:00 $GPRMC,160422,A,4838.7300,N,12506.9300,W,9,114,040722,12,E,A,V*5A
20220704 160426+00:00 $WIMWV,12.3,R,8.28,N,A*21
20220704 160428+00:00 $IIMDA,29.9,I,1.012,B,10.8,C,,C,96.2,,,C,,T,,M,,N,,M*2E
20220704 160428+00:00 $HCHDT,111.7,T*2F
20220704 160428+00:00 $GPRMC,160424,A,4838.7300,N,12506.9300,W,8.9,114,040722,12,E,A,V*4A
20220704 160428+00:00 $WIMWV,23.3,R,8.88,N,A*29
20220704 160430+00:00 $IIMDA,29.9,I,1.012,B,10.8,C,,C,96.2,,,C,,T,,M,,N,,M*2E
20220704 160430+00:00 $HCHDT,111.9,T*21
20220704 160430+00:00 $GPRMC,160426,A,4838.7300,N,12506.9198,W,8.9,114,040722,12,E,A,V*4B
20220704 160430+00:00 $WIMWV,37.1,R,10.98,N,A*16
20220704 160432+00:00 $IIMDA,29.9,I,1.012,B,10.8,C,,C,96.2,,,C,,T,,M,,N,,M*2E
20220704 160432+00:00 $HCHDT,112.4,T*2F
20220704 160432+00:00 $GPRMC,160428,A,4838.7198,N,12506.9096,W,8.9,114,040722,12,E,A,V*49
20220704 160432+00:00 $WIMWV,33.29,R,9.68,N,A*1F
20220704 160434+00:00 $IIMDA,29.9,I,1.012,B,10.8,C,,C,96.2,,,C,,T,,M,,N,,M*2E
20220704 160434+00:00 $HCHDT,112.3,T*28
20220704 160434+00:00 $GPRMC,160430,A,4838.7198,N,12506.9096,W,8.9,114,040722,12,E,A,V*40
20220704 160434+00:00 $WIMWV,31.8,R,10.59,N,A*14
20220704 160436+00:00 $IIMDA,29.9,I,1.012,B,10.8,C,,C,96.1,,,C,,T,,M,,N,,M*2D
20220704 160436+00:00 $HCHDT,111.8,T*20
20220704 160436+00:00 $GPRMC,160432,A,4838.7198,N,12506.9000,W,9,114,040722,12,E,A,V*5B
20220704 160436+00:00 $WIMWV,33.29,R,9.99,N,A*11
20220704 160438+00:00 $IIMDA,29.9,I,1.012,B,10.8,C,,C,96.2,,,C,,T,,M,,N,,M*2E
20220704 160438+00:00 $HCHDT,111.3,T*2B
20220704 160438+00:00 $GPRMC,160434,A,4838.7198,N,12506.8898,W,9,114,040722,12,E,A,V*55
20220704 160438+00:00 $WIMWV,34.39,R,9.39,N,A*1D
20220704 160440+00:00 $IIMDA,29.9,I,1.012,B,10.8,C,,C,96.2,,,C,,T,,M,,N,,M*2E
20220704 160440+00:00 $HCHDT,111.1,T*29
20220704 160440+00:00 $GPRMC,160436,A,4838.7198,N,12506.8898,W,9,114,040722,12,E,A,V*57
20220704 160440+00:00 $WIMWV,31.2,R,7.99,N,A*24
20220704 160442+00:00 $IIMDA,29.9,I,1.012,B,10.8,C,,C,96.2,,,C,,T,,M,,N,,M*2E
20220704 160442+00:00 $HCHDT,111.6,T*2E
20220704 160442+00:00 $GPRMC,160438,A,4838.7096,N,12506.8796,W,8.9,114,040722,12,E,A,V*41
20220704 160442+00:00 $WIMWV,26.5,R,8.79,N,A*24
20220704 160444+00:00 $IIMDA,29.9,I,1.012,B,10.8,C,,C,96.2,,,C,,T,,M,,N,,M*2E
20220704 160444+00:00 $HCHDT,111.5,T*2D
20220704 160444+00:00 $GPRMC,160440,A,4838.7096,N,12506.8700,W,8.9,114,040722,12,E,A,V*41
20220704 160444+00:00 $WIMWV,30.6,R,10.59,N,A*1B
20220704 160446+00:00 $IIMDA,29.9,I,1.012,B,10.8,C,,C,96.2,,,C,,T,,M,,N,,M*2E
20220704 160446+00:00 $HCHDT,111.2,T*2A
20220704 160446+00:00 $GPRMC,160442,A,4838.7096,N,12506.8700,W,8.9,114,040722,12,E,A,V*43
20220704 160446+00:00 $WIMWV,28.3,R,8.18,N,A*2B
20220704 160448+00:00 $IIMDA,29.9,I,1.012,B,10.8,C,,C,96.2,,,C,,T,,M,,N,,M*2E
20220704 160448+00:00 $HCHDT,110.9,T*20
20220704 160448+00:00 $GPRMC,160444,A,4838.7096,N,12506.8598,W,9,113,040722,12,E,A,V*57
20220704 160448+00:00 $WIMWV,25,R,6.88,N,A*3C
20220704 160450+00:00 $IIMDA,29.9,I,1.012,B,10.8,C,,C,96.2,,,C,,T,,M,,N,,M*2E
20220704 160450+00:00 $HCHDT,110.9,T*20
20220704 160450+00:00 $GPRMC,160446,A,4838.7096,N,12506.8496,W,9,113,040722,12,E,A,V*5A
20220704 160450+00:00 $WIMWV,26.69,R,6.78,N,A*11
20220704 160452+00:00 $IIMDA,29.9,I,1.012,B,10.8,C,,C,96.2,,,C,,T,,M,,N,,M*2E
20220704 160452+00:00 $HCHDT,111.2,T*2A
20220704 160452+00:00 $GPRMC,160448,A,4838.7000,N,12506.8496,W,8.9,113,040722,12,E,A,V*4D
20220704 160452+00:00 $WIMWV,26.5,R,7.29,N,A*2E
20220704 160454+00:00 $IIMDA,29.9,I,1.012,B,10.8,C,,C,96.2,,,C,,T,,M,,N,,M*2E
20220704 160454+00:00 $HCHDT,111.8,T*20
20220704 160454+00:00 $GPRMC,160450,A,4838.7000,N,12506.8400,W,8.9,113,040722,12,E,A,V*4B
20220704 160454+00:00 $WIMWV,32.9,R,9.39,N,A*28
20220704 160456+00:00 $IIMDA,29.9,I,1.012,B,10.8,C,,C,96.2,,,C,,T,,M,,N,,M*2E
20220704 160456+00:00 $HCHDT,111.7,T*2F
20220704 160456+00:00 $GPRMC,160452,A,4838.7000,N,12506.8298,W,8.9,114,040722,12,E,A,V*49
20220704 160456+00:00 $WIMWV,25.1,R,7.29,N,A*29
20220704 160458+00:00 $IIMDA,29.9,I,1.012,B,10.8,C,,C,96.2,,,C,,T,,M,,N,,M*2E
20220704 160458+00:00 $HCHDT,111.3,T*2B
20220704 160458+00:00 $GPRMC,160454,A,4838.7000,N,12506.8196,W,8.9,114,040722,12,E,A,V*42
20220704 160458+00:00 $WIMWV,33.29,R,10.19,N,A*21
20220704 160500+00:00 $IIMDA,29.9,I,1.012,B,10.8,C,,C,96.3,,,C,,T,,M,,N,,M*2F
20220704 160500+00:00 $HCHDT,111.1,T*29
20220704 160500+00:00 $GPRMC,160456,A,4838.7000,N,12506.8196,W,8.9,114,040722,12,E,A,V*40
20220704 160500+00:00 $WIMWV,14.5,R,7.79,N,A*2A
20220704 160502+00:00 $IIMDA,29.9,I,1.012,B,10.8,C,,C,96.2,,,C,,T,,M,,N,,M*2E
20220704 160502+00:00 $HCHDT,110.7,T*2E
20220704 160502+00:00 $GPRMC,160458,A,4838.6898,N,12506.8100,W,9,113,040722,12,E,A,V*58
20220704 160502+00:00 $WIMWV,30.5,R,7.7,N,A*15
20220704 160504+00:00 $IIMDA,29.9,I,1.012,B,10.8,C,,C,96.3,,,C,,T,,M,,N,,M*2F
20220704 160504+00:00 $HCHDT,110.6,T*2F
20220704 160504+00:00 $GPRMC,160500,A,4838.6898,N,12506.7998,W,9,113,040722,12,E,A,V*52
20220704 160504+00:00 $WIMWV,32.19,R,8.4,N,A*26
20220704 160506+00:00 $IIMDA,29.9,I,1.012,B,10.8,C,,C,96.2,,,C,,T,,M,,N,,M*2E
20220704 160506+00:00 $HCHDT,110.9,T*20
20220704 160506+00:00 $GPRMC,160502,A,4838.6898,N,12506.7998,W,9,113,040722,12,E,A,V*50
20220704 160506+00:00 $WIMWV,37.1,R,9.99,N,A*2F
20220704 160508+00:00 $IIMDA,29.9,I,1.012,B,10.8,C,,C,96.3,,,C,,T,,M,,N,,M*2F
20220704 160508+00:00 $HCHDT,111,T*36
20220704 160508+00:00 $GPRMC,160504,A,4838.6898,N,12506.7896,W,8.9,113,040722,12,E,A,V*4F
20220704 160508+00:00 $WIMWV,12.9,R,7.29,N,A*25
20220704 160510+00:00 $IIMDA,29.9,I,1.012,B,10.8,C,,C,96.2,,,C,,T,,M,,N,,M*2E
20220704 160510+00:00 $HCHDT,110.9,T*20
20220704 160510+00:00 $GPRMC,160506,A,4838.6898,N,12506.7800,W,8.9,113,040722,12,E,A,V*42
20220704 160510+00:00 $WIMWV,10,R,5.7,N,A*0E
20220704 160512+00:00 $IIMDA,29.9,I,1.012,B,10.8,C,,C,96.2,,,C,,T,,M,,N,,M*2E
20220704 160512+00:00 $HCHDT,110.9,T*20
20220704 160512+00:00 $GPRMC,160508,A,4838.6898,N,12506.7800,W,8.9,113,040722,12,E,A,V*4C
20220704 160512+00:00 $WIMWV,27.3,R,7.58,N,A*2F
20220704 160514+00:00 $IIMDA,29.9,I,1.012,B,10.8,C,,C,96.2,,,C,,T,,M,,N,,M*2E
20220704 160514+00:00 $HCHDT,111.4,T*2C
20220704 160514+00:00 $GPRMC,160510,A,4838.6796,N,12506.7698,W,8.9,113,040722,12,E,A,V*4B
20220704 160514+00:00 $WIMWV,28.3,R,6.18,N,A*25
20220704 160516+00:00 $IIMDA,29.9,I,1.012,B,10.8,C,,C,96.3,,,C,,T,,M,,N,,M*2F
20220704 160516+00:00 $HCHDT,111.9,T*21
20220704 160516+00:00 $GPRMC,160512,A,4838.6796,N,12506.7596,W,8.9,113,040722,12,E,A,V*44
20220704 160516+00:00 $WIMWV,23,R,8.18,N,A*3D
20220704 160518+00:00 $IIMDA,29.9,I,1.012,B,10.8,C,,C,96.2,,,C,,T,,M,,N,,M*2E
20220704 160518+00:00 $HCHDT,111.8,T*20
20220704 160518+00:00 $GPRMC,160514,A,4838.6796,N,12506.7596,W,8.9,113,040722,12,E,A,V*42
20220704 160518+00:00 $WIMWV,13.8,R,6.49,N,A*22
20220704 160520+00:00 $IIMDA,29.9,I,1.012,B,10.8,C,,C,96.2,,,C,,T,,M,,N,,M*2E
20220704 160520+00:00 $HCHDT,111.3,T*2B
20220704 160520+00:00 $GPRMC,160516,A,4838.6796,N,12506.7500,W,8.9,113,040722,12,E,A,V*4F
20220704 160520+00:00 $WIMWV,27.2,R,6.49,N,A*2F
20220704 160522+00:00 $IIMDA,29.9,I,1.012,B,10.8,C,,C,96.3,,,C,,T,,M,,N,,M*2F
20220704 160522+00:00 $HCHDT,111.3,T*2B
20220704 160522+00:00 $GPRMC,160518,A,4838.6796,N,12506.7398,W,8.9,113,040722,12,E,A,V*46
20220704 160522+00:00 $WIMWV,27.3,R,7.7,N,A*15
20220704 160524+00:00 $IIMDA,29.9,I,1.012,B,10.8,C,,C,96.2,,,C,,T,,M,,N,,M*2E
20220704 160524+00:00 $HCHDT,111.1,T*29
20220704 160524+00:00 $GPRMC,160520,A,4838.6700,N,12506.7398,W,8.9,113,040722,12,E,A,V*42
20220704 160524+00:00 $WIMWV,29.09,R,8.69,N,A*16
20220704 160526+00:00 $IIMDA,29.9,I,1.012,B,10.8,C,,C,96.3,,,C,,T,,M,,N,,M*2F
20220704 160526+00:00 $HCHDT,110.8,T*21
20220704 160526+00:00 $GPRMC,160522,A,4838.6700,N,12506.7296,W,8.9,113,040722,12,E,A,V*4F
20220704 160526+00:00 $WIMWV,29.5,R,7.79,N,A*24
20220704 160528+00:00 $IIMDA,29.9,I,1.012,B,10.8,C,,C,96.3,,,C,,T,,M,,N,,M*2F
20220704 160528+00:00 $HCHDT,111.1,T*29
20220704 160528+00:00 $GPRMC,160524,A,4838.6700,N,12506.7200,W,8.9,113,040722,12,E,A,V*46
20220704 160528+00:00 $WIMWV,29.79,R,8.79,N,A*10
20220704 160530+00:00 $IIMDA,29.9,I,1.012,B,10.8,C,,C,96.2,,,C,,T,,M,,N,,M*2E
20220704 160530+00:00 $HCHDT,111.2,T*2A
20220704 160530+00:00 $GPRMC,160526,A,4838.6700,N,12506.7098,W,8.9,113,040722,12,E,A,V*47
20220704 160530+00:00 $WIMWV,19.1,R,5.79,N,A*21
20220704 160532+00:00 $IIMDA,29.9,I,1.012,B,10.8,C,,C,96.2,,,C,,T,,M,,N,,M*2E
20220704 160532+00:00 $HCHDT,110.3,T*2A
20220704 160532+00:00 $GPRMC,160528,A,4838.6700,N,12506.7098,W,8.9,113,040722,12,E,A,V*49
20220704 160532+00:00 $WIMWV,32.5,R,9.39,N,A*24
20220704 160534+00:00 $IIMDA,29.9,I,1.012,B,10.8,C,,C,96.3,,,C,,T,,M,,N,,M*2F
20220704 160534+00:00 $HCHDT,110.5,T*2C
20220704 160534+00:00 $GPRMC,160530,A,4838.6598,N,12506.6996,W,8.9,113,040722,12,E,A,V*45
20220704 160534+00:00 $WIMWV,31.6,R,9.8,N,A*16
20220704 160536+00:00 $IIMDA,29.9,I,1.012,B,10.8,C,,C,96.3,,,C,,T,,M,,N,,M*2F
20220704 160536+00:00 $HCHDT,110.9,T*20
20220704 160536+00:00 $GPRMC,160532,A,4838.6598,N,12506.6900,W,8.9,113,040722,12,E,A,V*48
20220704 160536+00:00 $WIMWV,24.8,R,8.18,N,A*2C
20220704 160538+00:00 $IIMDA,29.9,I,1.012,B,10.8,C,,C,96.3,,,C,,T,,M,,N,,M*2F
20220704 160538+00:00 $HCHDT,110.6,T*2F
20220704 160538+00:00 $GPRMC,160534,A,4838.6598,N,12506.6900,W,8.9,113,040722,12,E,A,V*4E
20220704 160538+00:00 $WIMWV,37.6,R,9.19,N,A*20
20220704 160540+00:00 $IIMDA,29.9,I,1.012,B,10.8,C,,C,96.3,,,C,,T,,M,,N,,M*2F
20220704 160540+00:00 $HCHDT,110.7,T*2E
20220704 160540+00:00 $GPRMC,160536,A,4838.6598,N,12506.6798,W,8.9,113,040722,12,E,A,V*43
20220704 160540+00:00 $WIMWV,36.59,R,9.99,N,A*13
20220704 160542+00:00 $IIMDA,29.9,I,1.012,B,10.8,C,,C,96.3,,,C,,T,,M,,N,,M*2F
20220704 160542+00:00 $HCHDT,111,T*36
20220704 160542+00:00 $GPRMC,160538,A,4838.6598,N,12506.6696,W,8.9,113,040722,12,E,A,V*42
20220704 160542+00:00 $WIMWV,29.5,R,8.59,N,A*29
20220704 160544+00:00 $IIMDA,29.9,I,1.012,B,10.8,C,,C,96.3,,,C,,T,,M,,N,,M*2F
20220704 160544+00:00 $HCHDT,110.7,T*2E
20220704 160544+00:00 $GPRMC,160540,A,4838.6496,N,12506.6696,W,8.9,113,040722,12,E,A,V*42
20220704 160544+00:00 $WIMWV,36.9,R,10.89,N,A*1F
20220704 160546+00:00 $IIMDA,29.9,I,1.012,B,10.8,C,,C,96.3,,,C,,T,,M,,N,,M*2F
20220704 160546+00:00 $HCHDT,110.5,T*2C
20220704 160546+00:00 $GPRMC,160542,A,4838.6496,N,12506.6600,W,8.9,113,040722,12,E,A,V*4F
20220704 160546+00:00 $WIMWV,32.5,R,10.5,N,A*23
20220704 160548+00:00 $IIMDA,29.9,I,1.012,B,10.8,C,,C,96.3,,,C,,T,,M,,N,,M*2F
20220704 160548+00:00 $HCHDT,110.6,T*2F
20220704 160548+00:00 $GPRMC,160544,A,4838.6496,N,12506.6498,W,8.9,113,040722,12,E,A,V*4A
20220704 160548+00:00 $WIMWV,40.9,R,9.49,N,A*2A
20220704 160550+00:00 $IIMDA,29.9,I,1.012,B,10.8,C,,C,96.3,,,C,,T,,M,,N,,M*2F
20220704 160550+00:00 $HCHDT,110.5,T*2C
20220704 160550+00:00 $GPRMC,160546,A,4838.6496,N,12506.6498,W,8.9,113,040722,12,E,A,V*48
20220704 160550+00:00 $WIMWV,40.59,R,10.09,N,A*23
20220704 160552+00:00 $IIMDA,29.9,I,1.012,B,10.8,C,,C,96.3,,,C,,T,,M,,N,,M*2F
20220704 160552+00:00 $HCHDT,110.3,T*2A
20220704 160552+00:00 $GPRMC,160548,A,4838.6496,N,12506.6396,W,8.9,113,040722,12,E,A,V*4F
20220704 160552+00:00 $WIMWV,28.6,R,9.19,N,A*2E
20220704 160554+00:00 $IIMDA,29.9,I,1.012,B,10.8,C,,C,96.2,,,C,,T,,M,,N,,M*2E
20220704 160554+00:00 $HCHDT,110.8,T*21
20220704 160554+00:00 $GPRMC,160550,A,4838.6496,N,12506.6300,W,8.9,113,040722,12,E,A,V*49
20220704 160554+00:00 $WIMWV,31,R,9.19,N,A*3E
20220704 160556+00:00 $IIMDA,29.9,I,1.012,B,10.8,C,,C,96.2,,,C,,T,,M,,N,,M*2E
20220704 160556+00:00 $HCHDT,111.1,T*29
20220704 160556+00:00 $GPRMC,160552,A,4838.6400,N,12506.6300,W,8.81,113,040722,12,E,A,V*74
20220704 160556+00:00 $WIMWV,37.9,R,10.38,N,A*14
20220704 160558+00:00 $IIMDA,29.9,I,1.012,B,10.8,C,,C,96.3,,,C,,T,,M,,N,,M*2F
20220704 160558+00:00 $HCHDT,110.8,T*21
20220704 160558+00:00 $GPRMC,160554,A,4838.6400,N,12506.6198,W,8.81,113,040722,12,E,A,V*71
20220704 160558+00:00 $WIMWV,29.9,R,9.68,N,A*26
20220704 160600+00:00 $IIMDA,29.9,I,1.012,B,10.8,C,,C,96.3,,,C,,T,,M,,N,,M*2F
20220704 160600+00:00 $HCHDT,110.8,T*21
20220704 160600+00:00 $GPRMC,160556,A,4838.6400,N,12506.6096,W,8.9,113,040722,12,E,A,V*4C
20220704 160600+00:00 $WIMWV,29.5,R,9.39,N,A*2E
20220704 160602+00:00 $IIMDA,29.9,I,1.012,B,10.8,C,,C,96.3,,,C,,T,,M,,N,,M*2F
20220704 160602+00:00 $HCHDT,110.5,T*2C
20220704 160602+00:00 $GPRMC,160558,A,4838.6400,N,12506.6096,W,8.9,113,040722,12,E,A,V*42
20220704 160602+00:00 $WIMWV,26.6,R,8.28,N,A*23
20220704 160604+00:00 $IIMDA,29.9,I,1.012,B,10.8,C,,C,96.3,,,C,,T,,M,,N,,M*2F
20220704 160604+00:00 $HCHDT,110.4,T*2D
20220704 160604+00:00 $GPRMC,160600,A,4838.6400,N,12506.6000,W,8.9,113,040722,12,E,A,V*43
20220704 160604+00:00 $WIMWV,28.89,R,7.99,N,A*1F
20220704 160606+00:00 $IIMDA,29.9,I,1.012,B,10.8,C,,C,96.3,,,C,,T,,M,,N,,M*2F
20220704 160606+00:00 $HCHDT,110.5,T*2C
20220704 160606+00:00 $GPRMC,160602,A,4838.6298,N,12506.5898,W,8.9,113,040722,12,E,A,V*4C
20220704 160606+00:00 $WIMWV,28.4,R,8.88,N,A*25
20220704 160608+00:00 $IIMDA,29.9,I,1.012,B,10.8,C,,C,96.3,,,C,,T,,M,,N,,M*2F
20220704 160608+00:00 $HCHDT,110.8,T*21
20220704 160608+00:00 $GPRMC,160604,A,4838.6298,N,12506.5898,W,8.81,113,040722,12,E,A,V*7A
20220704 160608+00:00 $WIMWV,27.9,R,7.79,N,A*26
20220704 160610+00:00 $IIMDA,29.9,I,1.012,B,10.8,C,,C,96.3,,,C,,T,,M,,N,,M*2F
20220704 160610+00:00 $HCHDT,110.9,T*20
20220704 160610+00:00 $GPRMC,160606,A,4838.6298,N,12506.5796,W,8.81,113,040722,12,E,A,V*79
20220704 160610+00:00 $WIMWV,26.3,R,8.09,N,A*25
20220704 160612+00:00 $IIMDA,29.9,I,1.012,B,10.8,C,,C,96.3,,,C,,T,,M,,N,,M*2F
20220704 160612+00:00 $HCHDT,111.1,T*29
20220704 160612+00:00 $GPRMC,160608,A,4838.6298,N,12506.5700,W,8.81,113,040722,12,E,A,V*78
20220704 160612+00:00 $WIMWV,29.2,R,7.99,N,A*2D
20220704 160614+00:00 $IIMDA,29.9,I,1.012,B,10.8,C,,C,96.2,,,C,,T,,M,,N,,M*2E
20220704 160614+00:00 $HCHDT,111.3,T*2B
20220704 160614+00:00 $GPRMC,160610,A,4838.6298,N,12506.5598,W,8.81,113,040722,12,E,A,V*72
20220704 160614+00:00 $WIMWV,32.8,R,9.39,N,A*29
20220704 160616+00:00 $IIMDA,29.9,I,1.012,B,10.8,C,,C,96.3,,,C,,T,,M,,N,,M*2F
20220704 160616+00:00 $HCHDT,111.4,T*2C
20220704 160616+00:00 $GPRMC,160612,A,4838.6196,N,12506.5598,W,8.81,113,040722,12,E,A,V*7D
20220704 160616+00:00 $WIMWV,34.9,R,9.89,N,A*25
20220704 160618+00:00 $IIMDA,29.9,I,1.012,B,10.8,C,,C,96.3,,,C,,T,,M,,N,,M*2F
20220704 160618+00:00 $HCHDT,112.1,T*2A
20220704 160618+00:00 $GPRMC,160614,A,4838.6196,N,12506.5496,W,8.81,113,040722,12,E,A,V*74
20220704 160618+00:00 $WIMWV,34.1,R,10.28,N,A*1E
20220704 160620+00:00 $IIMDA,29.9,I,1.012,B,10.8,C,,C,96.3,,,C,,T,,M,,N,,M*2F
20220704 160620+00:00 $HCHDT,112.4,T*2F
20220704 160620+00:00 $GPRMC,160616,A,4838.6196,N,12506.5400,W,8.81,114,040722,12,E,A,V*7E
20220704 160620+00:00 $WIMWV,22.2,R,8.18,N,A*20
20220704 160622+00:00 $IIMDA,29.9,I,1.012,B,10.8,C,,C,96.3,,,C,,T,,M,,N,,M*2F
20220704 160622+00:00 $HCHDT,112,T*35
20220704 160622+00:00 $GPRMC,160618,A,4838.6196,N,12506.5400,W,8.81,114,040722,12,E,A,V*70
20220704 160622+00:00 $WIMWV,29.5,R,8.18,N,A*2C
20220704 160624+00:00 $IIMDA,29.9,I,1.012,B,10.8,C,,C,96.3,,,C,,T,,M,,N,,M*2F
20220704 160624+00:00 $HCHDT,112.1,T*2A
20220704 160624+00:00 $GPRMC,160620,A,4838.6196,N,12506.5298,W,8.81,114,040722,12,E,A,V*7C
20220704 160624+00:00 $WIMWV,27.6,R,7.48,N,A*2B
20220704 160626+00:00 $IIMDA,29.9,I,1.012,B,10.8,C,,C,96.3,,,C,,T,,M,,N,,M*2F
20220704 160626+00:00 $HCHDT,112.3,T*28
20220704 160626+00:00 $GPRMC,160622,A,4838.6100,N,12506.5196,W,8.81,114,040722,12,E,A,V*7C
20220704 160626+00:00 $WIMWV,21.9,R,7.29,N,A*25
20220704 160628+00:00 $IIMDA,29.9,I,1.012,B,10.8,C,,C,96.3,,,C,,T,,M,,N,,M*2F
20220704 160628+00:00 $HCHDT,112,T*35
20220704 160628+00:00 $GPRMC,160624,A,4838.6100,N,12506.5196,W,8.81,114,040722,12,E,A,V*7A
20220704 160628+00:00 $WIMWV,33.09,R,9.1,N,A*22
20220704 160630+00:00 $IIMDA,29.9,I,1.012,B,10.8,C,,C,96.3,,,C,,T,,M,,N,,M*2F
20220704 160630+00:00 $HCHDT,112.1,T*2A
20220704 160630+00:00 $GPRMC,160626,A,4838.6100,N,12506.5100,W,8.81,114,040722,12,E,A,V*77
20220704 160630+00:00 $WIMWV,32.6,R,10.89,N,A*14
20220704 160632+00:00 $IIMDA,29.9,I,1.012,B,10.8,C,,C,96.3,,,C,,T,,M,,N,,M*2F
20220704 160632+00:00 $HCHDT,112.3,T*28
20220704 160632+00:00 $GPRMC,160628,A,4838.6100,N,12506.4998,W,8.81,114,040722,12,E,A,V*71
20220704 160632+00:00 $WIMWV,38.1,R,10.19,N,A*10
20220704 160634+00:00 $IIMDA,29.9,I,1.012,B,10.8,C,,C,96.3,,,C,,T,,M,,N,,M*2F
20220704 160634+00:00 $HCHDT,112.1,T*2A
20220704 160634+00:00 $GPRMC,160630,A,4838.6100,N,12506.4998,W,8.81,114,040722,12,E,A,V*78
20220704 160634+00:00 $WIMWV,8.1,R,6.69,N,A*13
20220704 160636+00:00 $IIMDA,29.9,I,1.012,B,10.8,C,,C,96.3,,,C,,T,,M,,N,,M*2F
20220704 160636+00:00 $HCHDT,111.5,T*2D
20220704 160636+00:00 $GPRMC,160632,A,4838.5998,N,12506.4896,W,8.81,114,040722,12,E,A,V*7F
20220704 160636+00:00 $WIMWV,29.7,R,7.39,N,A*22
20220704 160638+00:00 $IIMDA,29.9,I,1.012,B,10.8,C,,C,96.3,,,C,,T,,M,,N,,M*2F
20220704 160638+00:00 $HCHDT,111.7,T*2F
20220704 160638+00:00 $GPRMC,160634,A,4838.5998,N,12506.4800,W,8.81,114,040722,12,E,A,V*76
20220704 160638+00:00 $WIMWV,22.49,R,7,N,A*37
20220704 160640+00:00 $IIMDA,29.9,I,1.012,B,10.8,C,,C,96.3,,,C,,T,,M,,N,,M*2F
20220704 160640+00:00 $HCHDT,112,T*35
20220704 160640+00:00 $GPRMC,160636,A,4838.5998,N,12506.4800,W,8.81,114,040722,12,E,A,V*74
20220704 160640+00:00 $WIMWV,19.39,R,7.48,N,A*1A
20220704 160642+00:00 $IIMDA,29.9,I,1.012,B,10.8,C,,C,96.3,,,C,,T,,M,,N,,M*2F
20220704 160642+00:00 $HCHDT,112.2,T*29
20220704 160642+00:00 $GPRMC,160638,A,4838.5998,N,12506.4698,W,8.81,114,040722,12,E,A,V*75
20220704 160642+00:00 $WIMWV,15.1,R,5.99,N,A*23
20220704 160644+00:00 $IIMDA,29.9,I,1.012,B,10.8,C,,C,96.3,,,C,,T,,M,,N,,M*2F
20220704 160644+00:00 $HCHDT,112.3,T*28
20220704 160644+00:00 $GPRMC,160640,A,4838.5998,N,12506.4596,W,8.81,114,040722,12,E,A,V*77
20220704 160644+00:00 $WIMWV,24.8,R,7.79,N,A*24
20220704 160646+00:00 $IIMDA,29.9,I,1.012,B,10.8,C,,C,96.3,,,C,,T,,M,,N,,M*2F
20220704 160646+00:00 $HCHDT,112,T*35
20220704 160646+00:00 $GPRMC,160642,A,4838.5896,N,12506.4596,W,8.81,114,040722,12,E,A,V*7A
20220704 160646+00:00 $WIMWV,29.5,R,8.69,N,A*2A
20220704 160648+00:00 $IIMDA,29.9,I,1.012,B,10.8,C,,C,96.3,,,C,,T,,M,,N,,M*2F
20220704 160648+00:00 $HCHDT,111.7,T*2F
20220704 160648+00:00 $GPRMC,160644,A,4838.5896,N,12506.4500,W,8.81,114,040722,12,E,A,V*73
20220704 160648+00:00 $WIMWV,30.6,R,8.28,N,A*24
20220704 160650+00:00 $IIMDA,29.9,I,1.012,B,10.8,C,,C,96.3,,,C,,T,,M,,N,,M*2F
20220704 160650+00:00 $HCHDT,112.2,T*29
20220704 160650+00:00 $GPRMC,160646,A,4838.5896,N,12506.4398,W,8.81,114,040722,12,E,A,V*76
20220704 160650+00:00 $WIMWV,29.3,R,8.28,N,A*29
20220704 160652+00:00 $IIMDA,29.9,I,1.012,B,10.8,C,,C,96.3,,,C,,T,,M,,N,,M*2F
20220704 160652+00:00 $HCHDT,112.3,T*28
20220704 160652+00:00 $GPRMC,160648,A,4838.5896,N,12506.4398,W,8.81,114,040722,12,E,A,V*78
20220704 160652+00:00 $WIMWV,358.49,R,5.6,N,A*13
20220704 160654+00:00 $IIMDA,29.9,I,1.012,B,10.8,C,,C,96.3,,,C,,T,,M,,N,,M*2F
20220704 160654+00:00 $HCHDT,112.2,T*29
20220704 160654+00:00 $GPRMC,160650,A,4838.5896,N,12506.4296,W,8.81,114,040722,12,E,A,V*7E
20220704 160654+00:00 $WIMWV,27.79,R,7.19,N,A*17
20220704 160656+00:00 $IIMDA,29.9,I,1.012,B,10.8,C,,C,96.3,,,C,,T,,M,,N,,M*2F
20220704 160656+00:00 $HCHDT,112.7,T*2C
20220704 160656+00:00 $GPRMC,160652,A,4838.5800,N,12506.4200,W,8.81,114,040722,12,E,A,V*7C
20220704 160656+00:00 $WIMWV,20.4,R,7.79,N,A*2C
20220704 160658+00:00 $IIMDA,29.9,I,1.012,B,10.8,C,,C,96.3,,,C,,T,,M,,N,,M*2F
20220704 160658+00:00 $HCHDT,113.2,T*28
20220704 160658+00:00 $GPRMC,160654,A,4838.5800,N,12506.4200,W,8.81,115,040722,12,E,A,V*7B
20220704 160658+00:00 $WIMWV,5.1,R,7.7,N,A*27
20220704 160700+00:00 $IIMDA,29.9,I,1.012,B,10.8,C,,C,96.3,,,C,,T,,M,,N,,M*2F
20220704 160700+00:00 $HCHDT,112.8,T*23
20220704 160700+00:00 $GPRMC,160656,A,4838.5800,N,12506.4098,W,8.81,115,040722,12,E,A,V*7A
20220704 160700+00:00 $WIMWV,25,R,6.88,N,A*3C
20220704 160702+00:00 $IIMDA,29.9,I,1.012,B,10.8,C,,C,96.3,,,C,,T,,M,,N,,M*2F
20220704 160702+00:00 $HCHDT,111.9,T*21
20220704 160702+00:00 $GPRMC,160658,A,4838.5800,N,12506.3996,W,8.81,115,040722,12,E,A,V*74
20220704 160702+00:00 $WIMWV,39.1,R,9.1,N,A*10
20220704 160704+00:00 $IIMDA,29.9,I,1.012,B,10.8,C,,C,96.3,,,C,,T,,M,,N,,M*2F
20220704 160704+00:00 $HCHDT,111.7,T*2F
20220704 160704+00:00 $GPRMC,160700,A,4838.5800,N,12506.3996,W,8.81,115,040722,12,E,A,V*78
20220704 160704+00:00 $WIMWV,29.5,R,10.28,N,A*16
20220704 160706+00:00 $IIMDA,29.9,I,1.012,B,10.8,C,,C,96.3,,,C,,T,,M,,N,,M*2F
20220704 160706+00:00 $HCHDT,111.9,T*21
20220704 160706+00:00 $GPRMC,160702,A,4838.5698,N,12506.3900,W,8.81,115,040722,12,E,A,V*7A
20220704 160706+00:00 $WIMWV,31,R,9.68,N,A*38
20220704 160708+00:00 $IIMDA,29.9,I,1.012,B,10.8,C,,C,96.3,,,C,,T,,M,,N,,M*2F
20220704 160708+00:00 $HCHDT,112.4,T*2F
20220704 160708+00:00 $GPRMC,160704,A,4838.5698,N,12506.3798,W,8.81,115,040722,12,E,A,V*73
20220704 160708+00:00 $WIMWV,39.4,R,11.29,N,A*16
20220704 160710+00:00 $IIMDA,29.9,I,1.012,B,10.8,C,,C,96.3,,,C,,T,,M,,N,,M*2F
20220704 160710+00:00 $HCHDT,112.3,T*28
20220704 160710+00:00 $GPRMC,160706,A,4838.5698,N,12506.3798,W,8.81,115,040722,12,E,A,V*71
20220704 160710+00:00 $WIMWV,32.7,R,9.8,N,A*14
20220704 160712+00:00 $IIMDA,29.9,I,1.012,B,10.8,C,,C,96.3,,,C,,T,,M,,N,,M*2F
20220704 160712+00:00 $HCHDT,111.9,T*21
20220704 160712+00:00 $GPRMC,160708,A,4838.5698,N,12506.3696,W,8.81,115,040722,12,E,A,V*70
20220704 160712+00:00 $WIMWV,46.7,R,12.19,N,A*1D
20220704 160714+00:00 $IIMDA,29.9,I,1.012,B,10.8,C,,C,96.3,,,C,,T,,M,,N,,M*2F
20220704 160714+00:00 $HCHDT,111.2,T*2A
20220704 160714+00:00 $GPRMC,160710,A,4838.5698,N,12506.3600,W,8.81,115,040722,12,E,A,V*76
20220704 160714+00:00 $WIMWV,46.2,R,12.38,N,A*1B
20220704 160716+00:00 $IIMDA,29.9,I,1.012,B,10.8,C,,C,96.3,,,C,,T,,M,,N,,M*2F
20220704 160716+00:00 $HCHDT,111.3,T*2B
20220704 160716+00:00 $GPRMC,160712,A,4838.5596,N,12506.3600,W,8.81,114,040722,12,E,A,V*78
20220704 160716+00:00 $WIMWV,32.6,R,9.29,N,A*26
20220704 160718+00:00 $IIMDA,29.9,I,1.012,B,10.8,C,,C,96.3,,,C,,T,,M,,N,,M*2F
20220704 160718+00:00 $HCHDT,111.8,T*20
20220704 160718+00:00 $GPRMC,160714,A,4838.5596,N,12506.3498,W,8.81,114,040722,12,E,A,V*7D
20220704 160718+00:00 $WIMWV,44.2,R,11.59,N,A*1D
20220704 160720+00:00 $IIMDA,29.9,I,1.012,B,10.8,C,,C,96.3,,,C,,T,,M,,N,,M*2F
20220704 160720+00:00 $HCHDT,111.9,T*21
20220704 160720+00:00 $GPRMC,160716,A,4838.5596,N,12506.3396,W,8.81,114,040722,12,E,A,V*76
20220704 160720+00:00 $WIMWV,44.2,R,12.38,N,A*19
20220704 160722+00:00 $IIMDA,29.9,I,1.012,B,10.8,C,,C,96.3,,,C,,T,,M,,N,,M*2F
20220704 160722+00:00 $HCHDT,111.4,T*2C
20220704 160722+00:00 $GPRMC,160718,A,4838.5596,N,12506.3396,W,8.81,114,040722,12,E,A,V*78
20220704 160722+00:00 $WIMWV,28.2,R,8.59,N,A*2F
20220704 160724+00:00 $IIMDA,29.9,I,1.012,B,10.8,C,,C,96.3,,,C,,T,,M,,N,,M*2F
20220704 160724+00:00 $HCHDT,111.4,T*2C
20220704 160724+00:00 $GPRMC,160720,A,4838.5596,N,12506.3300,W,8.81,114,040722,12,E,A,V*7C
20220704 160724+00:00 $WIMWV,31.4,R,9.89,N,A*2D
20220704 160726+00:00 $IIMDA,29.9,I,1.012,B,10.8,C,,C,96.3,,,C,,T,,M,,N,,M*2F
20220704 160726+00:00 $HCHDT,111.8,T*20
20220704 160726+00:00 $GPRMC,160722,A,4838.5500,N,12506.3198,W,8.81,114,040722,12,E,A,V*72
20220704 160726+00:00 $WIMWV,32.1,R,9.58,N,A*27
20220704 160728+00:00 $IIMDA,29.9,I,1.012,B,10.8,C,,C,96.3,,,C,,T,,M,,N,,M*2F
20220704 160728+00:00 $HCHDT,111.7,T*2F
20220704 160728+00:00 $GPRMC,160724,A,4838.5500,N,12506.3198,W,8.81,114,040722,12,E,A,V*74
20220704 160728+00:00 $WIMWV,45.4,R,12.09,N,A*1C
20220704 160730+00:00 $IIMDA,29.9,I,1.012,B,10.8,C,,C,96.2,,,C,,T,,M,,N,,M*2E
20220704 160730+00:00 $HCHDT,111.3,T*2B
20220704 160730+00:00 $GPRMC,160726,A,4838.5500,N,12506.3096,W,8.81,114,040722,12,E,A,V*79
20220704 160730+00:00 $WIMWV,32.7,R,11.2,N,A*27
20220704 160732+00:00 $IIMDA,29.9,I,1.012,B,10.8,C,,C,96.3,,,C,,T,,M,,N,,M*2F
20220704 160732+00:00 $HCHDT,111.3,T*2B
20220704 160732+00:00 $GPRMC,160728,A,4838.5500,N,12506.3000,W,8.81,114,040722,12,E,A,V*78
20220704 160732+00:00 $WIMWV,43.8,R,10.89,N,A*1C
20220704 160734+00:00 $IIMDA,29.9,I,1.012,B,10.8,C,,C,96.3,,,C,,T,,M,,N,,M*2F
20220704 160734+00:00 $HCHDT,111.3,T*2B
20220704 160734+00:00 $GPRMC,160730,A,4838.5500,N,12506.3000,W,8.81,114,040722,12,E,A,V*71
20220704 160734+00:00 $WIMWV,32.9,R,9.49,N,A*2F
20220704 160736+00:00 $IIMDA,29.9,I,1.012,B,10.8,C,,C,96.3,,,C,,T,,M,,N,,M*2F
20220704 160736+00:00 $HCHDT,111.3,T*2B
20220704 160736+00:00 $GPRMC,160732,A,4838.5398,N,12506.2898,W,8.81,114,040722,12,E,A,V*7C
20220704 160736+00:00 $WIMWV,29.09,R,8.69,N,A*16
20220704 160738+00:00 $IIMDA,29.9,I,1.012,B,10.8,C,,C,96.3,,,C,,T,,M,,N,,M*2F
20220704 160738+00:00 $HCHDT,111,T*36
20220704 160738+00:00 $GPRMC,160734,A,4838.5398,N,12506.2796,W,8.81,113,040722,12,E,A,V*7C
20220704 160738+00:00 $WIMWV,21.1,R,7.1,N,A*17
20220704 160740+00:00 $IIMDA,29.9,I,1.012,B,10.8,C,,C,96.3,,,C,,T,,M,,N,,M*2F
20220704 160740+00:00 $HCHDT,110.9,T*20
20220704 160740+00:00 $GPRMC,160736,A,4838.5398,N,12506.2796,W,8.81,113,040722,12,E,A,V*7E
20220704 160740+00:00 $WIMWV,27.79,R,7.79,N,A*11
20220704 160742+00:00 $IIMDA,29.9,I,1.012,B,10.8,C,,C,96.3,,,C,,T,,M,,N,,M*2F
20220704 160742+00:00 $HCHDT,110.9,T*20
20220704 160742+00:00 $GPRMC,160738,A,4838.5398,N,12506.2700,W,8.81,113,040722,12,E,A,V*7F
20220704 160742+00:00 $WIMWV,37.6,R,10.79,N,A*1E
20220704 160744+00:00 $IIMDA,29.9,I,1.012,B,10.8,C,,C,96.3,,,C,,T,,M,,N,,M*2F
20220704 160744+00:00 $HCHDT,111,T*36
20220704 160744+00:00 $GPRMC,160740,A,4838.5398,N,12506.2598,W,8.81,113,040722,12,E,A,V*73
20220704 160744+00:00 $WIMWV,40.4,R,10.09,N,A*1B
20220704 160746+00:00 $IIMDA,29.9,I,1.012,B,10.8,C,,C,96.3,,,C,,T,,M,,N,,M*2F
20220704 160746+00:00 $HCHDT,111.3,T*2B
20220704 160746+00:00 $GPRMC,160742,A,4838.5296,N,12506.2598,W,8.71,113,040722,12,E,A,V*71
20220704 160746+00:00 $WIMWV,36.39,R,11.08,N,A*24
20220704 160748+00:00 $IIMDA,29.9,I,1.012,B,10.8,C,,C,96.3,,,C,,T,,M,,N,,M*2F
20220704 160748+00:00 $HCHDT,111.3,T*2B
20220704 160748+00:00 $GPRMC,160744,A,4838.5296,N,12506.2496,W,8.71,113,040722,12,E,A,V*78
