20231006 220000+01:00 $HCHDT,179,T*38
20231006 220001+01:00 $IIMDA,30.1,I,1.019,B,20.7,C,,C,67.2,,,C,,T,,M,,N,,M*27
20231006 220001+01:00 $WIMWV,307.79,R,0.39,N,A*23
20231006 220001+01:00 $GPRMC,205958,A,4918.7222,N,12306.4154,W,0,336,061023,,,D,V*1D
20231006 220002+01:00 $HCHDT,179,T*38
20231006 220003+01:00 $IIMDA,30.1,I,1.019,B,20.7,C,,C,67.1,,,C,,T,,M,,N,,M*24
20231006 220003+01:00 $WIMWV,146.49,R,0.8,N,A*15
20231006 220003+01:00 $GPRMC,210000,A,4918.7222,N,12306.4154,W,0,336,061023,,,D,V*1D
20231006 220004+01:00 $HCHDT,179,T*38
20231006 220005+01:00 $IIMDA,30.1,I,1.019,B,20.8,C,,C,67,,,C,,T,,M,,N,,M*34
20231006 220005+01:00 $WIMWV,53.19,R,2.9,N,A*26
20231006 220005+01:00 $GPRMC,210002,A,4918.7218,N,12306.4156,W,0,336,061023,,,D,V*14
20231006 220006+01:00 $HCHDT,179,T*38
20231006 220007+01:00 $IIMDA,30.1,I,1.019,B,20.8,C,,C,66.9,,,C,,T,,M,,N,,M*22
20231006 220007+01:00 $WIMWV,73.2,R,2.68,N,A*29
20231006 220007+01:00 $GPRMC,210004,A,4918.7218,N,12306.4157,W,0,336,061023,,,D,V*13
20231006 220008+01:00 $HCHDT,179,T*38
20231006 220009+01:00 $IIMDA,30.1,I,1.019,B,20.8,C,,C,66.9,,,C,,T,,M,,N,,M*22
20231006 220009+01:00 $WIMWV,83.1,R,3.5,N,A*1F
20231006 220009+01:00 $GPRMC,210006,A,4918.7218,N,12306.4156,W,0,336,061023,,,D,V*10
20231006 220010+01:00 $HCHDT,179,T*38
20231006 220011+01:00 $IIMDA,30.1,I,1.019,B,20.8,C,,C,66.8,,,C,,T,,M,,N,,M*23
20231006 220011+01:00 $WIMWV,73.4,R,3.09,N,A*29
20231006 220011+01:00 $GPRMC,210008,A,4918.7217,N,12306.4157,W,0,336,061023,,,D,V*10
20231006 220012+01:00 $HCHDT,179,T*38
20231006 220013+01:00 $IIMDA,30.1,I,1.019,B,20.8,C,,C,66.8,,,C,,T,,M,,N,,M*23
20231006 220013+01:00 $WIMWV,42.5,R,1.09,N,A*28
20231006 220013+01:00 $GPRMC,210010,A,4918.7216,N,12306.4156,W,0,336,061023,,,D,V*19
20231006 220014+01:00 $HCHDT,179,T*38
20231006 220015+01:00 $IIMDA,30.1,I,1.019,B,20.8,C,,C,66.8,,,C,,T,,M,,N,,M*23
20231006 220015+01:00 $WIMWV,71.6,R,3.69,N,A*2F
20231006 220015+01:00 $GPRMC,210012,A,4918.7217,N,12306.4157,W,0,336,061023,,,D,V*1B
20231006 220016+01:00 $HCHDT,179,T*38
20231006 220017+01:00 $IIMDA,30.1,I,1.019,B,20.8,C,,C,66.8,,,C,,T,,M,,N,,M*23
20231006 220017+01:00 $WIMWV,78.09,R,3.19,N,A*1E
20231006 220017+01:00 $GPRMC,210014,A,4918.7217,N,12306.4156,W,0,336,061023,,,D,V*1C
20231006 220018+01:00 $HCHDT,179,T*38
20231006 220019+01:00 $IIMDA,30.1,I,1.019,B,20.8,C,,C,66.7,,,C,,T,,M,,N,,M*2C
20231006 220019+01:00 $WIMWV,79.39,R,1.79,N,A*18
20231006 220019+01:00 $GPRMC,210016,A,4918.7217,N,12306.4157,W,0,336,061023,,,D,V*1F
20231006 220020+01:00 $HCHDT,179.1,T*27
20231006 220021+01:00 $IIMDA,30.1,I,1.019,B,20.8,C,,C,66.8,,,C,,T,,M,,N,,M*23
20231006 220021+01:00 $WIMWV,58.2,R,1.5,N,A*18
20231006 220021+01:00 $GPRMC,210018,A,4918.7216,N,12306.4161,W,0,336,061023,,,D,V*15
20231006 220022+01:00 $HCHDT,179.1,T*27
20231006 220023+01:00 $IIMDA,30.1,I,1.019,B,20.8,C,,C,66.8,,,C,,T,,M,,N,,M*23
20231006 220023+01:00 $WIMWV,63.7,R,1.4,N,A*14
20231006 220023+01:00 $GPRMC,210020,A,4918.7216,N,12306.4142,W,0,336,061023,,,D,V*1F
20231006 220024+01:00 $HCHDT,179.1,T*27
20231006 220025+01:00 $IIMDA,30.1,I,1.019,B,20.8,C,,C,66.9,,,C,,T,,M,,N,,M*22
20231006 220025+01:00 $WIMWV,57.4,R,0.58,N,A*28
20231006 220025+01:00 $GPRMC,210022,A,4918.7216,N,12306.4142,W,0,336,061023,,,D,V*1D
20231006 220026+01:00 $HCHDT,179.1,T*27
20231006 220027+01:00 $IIMDA,30.1,I,1.019,B,20.8,C,,C,67,,,C,,T,,M,,N,,M*34
20231006 220027+01:00 $WIMWV,91.7,R,0.29,N,A*27
20231006 220027+01:00 $GPRMC,210024,A,4918.7216,N,12306.4142,W,0,336,061023,,,D,V*1B
20231006 220028+01:00 $HCHDT,179.1,T*27
20231006 220029+01:00 $IIMDA,30.1,I,1.019,B,20.8,C,,C,67,,,C,,T,,M,,N,,M*34
20231006 220029+01:00 $WIMWV,309.29,R,0.49,N,A*2F
20231006 220029+01:00 $GPRMC,210026,A,4918.7217,N,12306.4161,W,0,336,061023,,,D,V*19
20231006 220030+01:00 $HCHDT,179.1,T*27
20231006 220031+01:00 $IIMDA,30.1,I,1.019,B,20.8,C,,C,67.1,,,C,,T,,M,,N,,M*2B
20231006 220031+01:00 $WIMWV,224.69,R,0.58,N,A*25
20231006 220031+01:00 $GPRMC,210028,A,4918.7217,N,12306.4142,W,0,336,061023,,,D,V*16
20231006 220032+01:00 $HCHDT,179.1,T*27
20231006 220033+01:00 $IIMDA,30.1,I,1.019,B,20.8,C,,C,67.1,,,C,,T,,M,,N,,M*2B
20231006 220033+01:00 $WIMWV,76.7,R,1.4,N,A*10
20231006 220033+01:00 $GPRMC,210030,A,4918.7217,N,12306.4142,W,0,336,061023,,,D,V*1F
20231006 220034+01:00 $HCHDT,179,T*38
20231006 220035+01:00 $IIMDA,30.1,I,1.019,B,20.8,C,,C,67.1,,,C,,T,,M,,N,,M*2B
20231006 220035+01:00 $WIMWV,67.6,R,0.39,N,A*2E
20231006 220035+01:00 $GPRMC,210032,A,4918.7216,N,12306.4143,W,0,336,061023,,,D,V*1D
20231006 220036+01:00 $HCHDT,178.9,T*2E
20231006 220037+01:00 $IIMDA,30.1,I,1.019,B,20.8,C,,C,67.2,,,C,,T,,M,,N,,M*28
20231006 220037+01:00 $WIMWV,125.4,R,1.09,N,A*19
20231006 220037+01:00 $GPRMC,210034,A,4918.7216,N,12306.4142,W,0,336,061023,,,D,V*1A
20231006 220038+01:00 $HCHDT,178.8,T*2F
20231006 220039+01:00 $IIMDA,30.1,I,1.019,B,20.8,C,,C,67.2,,,C,,T,,M,,N,,M*28
20231006 220039+01:00 $WIMWV,123,R,3.19,N,A*06
20231006 220039+01:00 $GPRMC,210036,A,4918.7216,N,12306.4142,W,0,336,061023,,,D,V*18
20231006 220040+01:00 $HCHDT,178.7,T*20
20231006 220041+01:00 $IIMDA,30.1,I,1.019,B,20.8,C,,C,67.3,,,C,,T,,M,,N,,M*29
20231006 220041+01:00 $WIMWV,117.79,R,3.5,N,A*1C
20231006 220041+01:00 $GPRMC,210038,A,4918.7217,N,12306.4142,W,0,336,061023,,,D,V*17
20231006 220042+01:00 $HCHDT,178.6,T*21
20231006 220043+01:00 $IIMDA,30.1,I,1.019,B,20.8,C,,C,67.2,,,C,,T,,M,,N,,M*28
20231006 220043+01:00 $WIMWV,106.9,R,2.49,N,A*12
20231006 220043+01:00 $GPRMC,210040,A,4918.7216,N,12306.4142,W,0,336,061023,,,D,V*19
20231006 220044+01:00 $HCHDT,178.6,T*21
20231006 220045+01:00 $IIMDA,30.1,I,1.019,B,20.8,C,,C,67.1,,,C,,T,,M,,N,,M*2B
20231006 220045+01:00 $WIMWV,91.7,R,1.69,N,A*22
20231006 220045+01:00 $GPRMC,210042,A,4918.7216,N,12306.4142,W,0,336,061023,,,D,V*1B
20231006 220046+01:00 $HCHDT,178.5,T*22
20231006 220047+01:00 $IIMDA,30.1,I,1.019,B,20.8,C,,C,67.1,,,C,,T,,M,,N,,M*2B
20231006 220047+01:00 $WIMWV,76.3,R,0.99,N,A*21
20231006 220047+01:00 $GPRMC,210044,A,4918.7215,N,12306.4143,W,0,336,061023,,,D,V*1F
20231006 220048+01:00 $HCHDT,178.4,T*23
20231006 220049+01:00 $IIMDA,30.1,I,1.019,B,20.8,C,,C,67.1,,,C,,T,,M,,N,,M*2B
20231006 220049+01:00 $WIMWV,58.4,R,3.38,N,A*22
20231006 220049+01:00 $GPRMC,210046,A,4918.7215,N,12306.4142,W,0,336,061023,,,D,V*1C
20231006 220050+01:00 $HCHDT,178.3,T*24
20231006 220051+01:00 $IIMDA,30.1,I,1.019,B,20.8,C,,C,67.1,,,C,,T,,M,,N,,M*2B
20231006 220051+01:00 $WIMWV,63.9,R,4.3,N,A*18
20231006 220051+01:00 $GPRMC,210048,A,4918.7216,N,12306.4142,W,0,336,061023,,,D,V*11
20231006 220052+01:00 $HCHDT,178.2,T*25
20231006 220053+01:00 $IIMDA,30.1,I,1.019,B,20.8,C,,C,67.2,,,C,,T,,M,,N,,M*28
20231006 220053+01:00 $WIMWV,85.7,R,4.3,N,A*1E
20231006 220053+01:00 $GPRMC,210050,A,4918.7217,N,12306.4161,W,0,336,061023,,,D,V*18
20231006 220054+01:00 $HCHDT,178,T*39
20231006 220055+01:00 $IIMDA,30.1,I,1.019,B,20.8,C,,C,67.1,,,C,,T,,M,,N,,M*2B
20231006 220055+01:00 $WIMWV,66.19,R,3.38,N,A*13
20231006 220055+01:00 $GPRMC,210052,A,4918.7216,N,12306.4142,W,0,336,061023,,,D,V*1A
20231006 220056+01:00 $HCHDT,177.9,T*21
20231006 220057+01:00 $IIMDA,30.1,I,1.019,B,20.8,C,,C,67,,,C,,T,,M,,N,,M*34
20231006 220057+01:00 $WIMWV,61.6,R,3.29,N,A*2A
20231006 220057+01:00 $GPRMC,210054,A,4918.7217,N,12306.4143,W,0,336,061023,,,D,V*1C
20231006 220058+01:00 $HCHDT,177.7,T*2F
20231006 220059+01:00 $IIMDA,30.1,I,1.019,B,20.8,C,,C,67,,,C,,T,,M,,N,,M*34
20231006 220059+01:00 $WIMWV,57.4,R,3.29,N,A*2D
20231006 220059+01:00 $GPRMC,210056,A,4918.7216,N,12306.4144,W,0,336,061023,,,D,V*18
20231006 220100+01:00 $HCHDT,177.6,T*2E
20231006 220101+01:00 $IIMDA,30.1,I,1.019,B,20.8,C,,C,67,,,C,,T,,M,,N,,M*34
20231006 220101+01:00 $WIMWV,74.59,R,3.38,N,A*14
20231006 220101+01:00 $GPRMC,210058,A,4918.7215,N,12306.4143,W,0,336,061023,,,D,V*12
20231006 220102+01:00 $HCHDT,177.5,T*2D
20231006 220103+01:00 $IIMDA,30.1,I,1.019,B,20.8,C,,C,66.9,,,C,,T,,M,,N,,M*22
20231006 220103+01:00 $WIMWV,58.5,R,2.9,N,A*10
20231006 220103+01:00 $GPRMC,210100,A,4918.7216,N,12306.4144,W,0,336,061023,,,D,V*1A
20231006 220104+01:00 $HCHDT,177.4,T*2C
20231006 220105+01:00 $IIMDA,30.1,I,1.019,B,20.8,C,,C,66.9,,,C,,T,,M,,N,,M*22
20231006 220105+01:00 $WIMWV,72.99,R,1.98,N,A*16
20231006 220105+01:00 $GPRMC,210102,A,4918.7216,N,12306.4144,W,0,336,061023,,,D,V*18
20231006 220106+01:00 $HCHDT,177.3,T*2B
20231006 220107+01:00 $IIMDA,30.1,I,1.019,B,20.8,C,,C,66.9,,,C,,T,,M,,N,,M*22
20231006 220107+01:00 $WIMWV,138.9,R,1.28,N,A*1B
20231006 220107+01:00 $GPRMC,210104,A,4918.7217,N,12306.4144,W,0,336,061023,,,D,V*1F
20231006 220108+01:00 $HCHDT,177.3,T*2B
20231006 220109+01:00 $IIMDA,30.1,I,1.019,B,20.8,C,,C,66.9,,,C,,T,,M,,N,,M*22
20231006 220109+01:00 $WIMWV,118.6,R,3.5,N,A*2B
20231006 220109+01:00 $GPRMC,210106,A,4918.7217,N,12306.4144,W,0,336,061023,,,D,V*1D
20231006 220110+01:00 $HCHDT,177.2,T*2A
20231006 220111+01:00 $IIMDA,30.1,I,1.019,B,20.8,C,,C,66.8,,,C,,T,,M,,N,,M*23
20231006 220111+01:00 $WIMWV,113.1,R,0.89,N,A*10
20231006 220111+01:00 $GPRMC,210108,A,4918.7217,N,12306.4145,W,0,336,061023,,,D,V*12
20231006 220112+01:00 $HCHDT,177.1,T*29
20231006 220113+01:00 $IIMDA,30.1,I,1.019,B,20.8,C,,C,66.9,,,C,,T,,M,,N,,M*22
20231006 220113+01:00 $WIMWV,74.09,R,0.8,N,A*21
20231006 220113+01:00 $GPRMC,210110,A,4918.7217,N,12306.4145,W,0,336,061023,,,D,V*1B
20231006 220114+01:00 $HCHDT,177,T*36
20231006 220115+01:00 $IIMDA,30.1,I,1.019,B,20.8,C,,C,66.9,,,C,,T,,M,,N,,M*22
20231006 220115+01:00 $WIMWV,71,R,0.8,N,A*03
20231006 220115+01:00 $GPRMC,210112,A,4918.7217,N,12306.4145,W,0,336,061023,,,D,V*19
20231006 220116+01:00 $HCHDT,177,T*36
20231006 220117+01:00 $IIMDA,30.1,I,1.019,B,20.8,C,,C,66.9,,,C,,T,,M,,N,,M*22
20231006 220117+01:00 $WIMWV,120.1,R,1.79,N,A*1E
20231006 220117+01:00 $GPRMC,210114,A,4918.7219,N,12306.4144,W,0,336,061023,,,D,V*10
20231006 220118+01:00 $HCHDT,177,T*36
20231006 220119+01:00 $IIMDA,30.1,I,1.019,B,20.8,C,,C,66.9,,,C,,T,,M,,N,,M*22
20231006 220119+01:00 $WIMWV,121.5,R,0.8,N,A*2C
20231006 220119+01:00 $GPRMC,210116,A,4918.7220,N,12306.4144,W,0,336,061023,,,D,V*18
20231006 220120+01:00 $HCHDT,177.1,T*29
20231006 220121+01:00 $IIMDA,30.1,I,1.019,B,20.8,C,,C,66.9,,,C,,T,,M,,N,,M*22
20231006 220121+01:00 $WIMWV,116.4,R,1.09,N,A*19
20231006 220121+01:00 $GPRMC,210118,A,4918.7220,N,12306.4144,W,0,336,061023,,,D,V*16
20231006 220122+01:00 $HCHDT,177.1,T*29
20231006 220123+01:00 $IIMDA,30.1,I,1.019,B,20.8,C,,C,66.9,,,C,,T,,M,,N,,M*22
20231006 220123+01:00 $WIMWV,113.3,R,3.6,N,A*26
20231006 220123+01:00 $GPRMC,210120,A,4918.7220,N,12306.4144,W,0,336,061023,,,D,V*1D
20231006 220124+01:00 $HCHDT,177.2,T*2A
20231006 220125+01:00 $IIMDA,30.1,I,1.019,B,20.8,C,,C,67,,,C,,T,,M,,N,,M*34
20231006 220125+01:00 $WIMWV,123.4,R,5.38,N,A*19
20231006 220125+01:00 $GPRMC,210122,A,4918.7220,N,12306.4144,W,0,336,061023,,,D,V*1F
20231006 220126+01:00 $HCHDT,177.2,T*2A
20231006 220127+01:00 $IIMDA,30.1,I,1.019,B,20.8,C,,C,66.9,,,C,,T,,M,,N,,M*22
20231006 220127+01:00 $WIMWV,112.6,R,4.68,N,A*1D
20231006 220127+01:00 $GPRMC,210124,A,4918.7221,N,12306.4143,W,0,336,061023,,,D,V*1F
20231006 220128+01:00 $HCHDT,177.3,T*2B
20231006 220129+01:00 $IIMDA,30.1,I,1.019,B,20.8,C,,C,66.8,,,C,,T,,M,,N,,M*23
20231006 220129+01:00 $WIMWV,119.79,R,4.9,N,A*19
20231006 220129+01:00 $GPRMC,210126,A,4918.7221,N,12306.4142,W,0,336,061023,,,D,V*1C
20231006 220130+01:00 $HCHDT,177.4,T*2C
20231006 220131+01:00 $IIMDA,30.1,I,1.019,B,20.8,C,,C,66.8,,,C,,T,,M,,N,,M*23
20231006 220131+01:00 $WIMWV,87.1,R,2.8,N,A*17
20231006 220131+01:00 $GPRMC,210128,A,4918.7222,N,12306.4142,W,0,336,061023,,,D,V*11
20231006 220132+01:00 $HCHDT,177.5,T*2D
20231006 220133+01:00 $IIMDA,30.1,I,1.019,B,20.8,C,,C,66.9,,,C,,T,,M,,N,,M*22
20231006 220133+01:00 $WIMWV,112.99,R,2.29,N,A*28
20231006 220133+01:00 $GPRMC,210130,A,4918.7222,N,12306.4142,W,0,336,061023,,,D,V*18
20231006 220134+01:00 $HCHDT,177.6,T*2E
20231006 220135+01:00 $IIMDA,30.1,I,1.019,B,20.8,C,,C,66.9,,,C,,T,,M,,N,,M*22
20231006 220135+01:00 $WIMWV,117.79,R,3.38,N,A*22
20231006 220135+01:00 $GPRMC,210132,A,4918.7221,N,12306.4143,W,0,336,061023,,,D,V*18
20231006 220136+01:00 $HCHDT,177.6,T*2E
20231006 220137+01:00 $IIMDA,30.1,I,1.019,B,20.8,C,,C,67,,,C,,T,,M,,N,,M*34
20231006 220137+01:00 $WIMWV,64.8,R,0.8,N,A*11
20231006 220137+01:00 $GPRMC,210134,A,4918.7219,N,12306.4143,W,0,336,061023,,,D,V*15
20231006 220138+01:00 $HCHDT,177.7,T*2F
20231006 220139+01:00 $IIMDA,30.1,I,1.019,B,20.8,C,,C,67,,,C,,T,,M,,N,,M*34
20231006 220139+01:00 $WIMWV,123.4,R,2.49,N,A*18
20231006 220139+01:00 $GPRMC,210136,A,4918.7219,N,12306.4143,W,0,336,061023,,,D,V*17
20231006 220140+01:00 $HCHDT,177.6,T*2E
20231006 220141+01:00 $IIMDA,30.1,I,1.019,B,20.8,C,,C,67.1,,,C,,T,,M,,N,,M*2B
20231006 220141+01:00 $WIMWV,112.2,R,1.98,N,A*13
20231006 220141+01:00 $GPRMC,210138,A,4918.7219,N,12306.4142,W,0,336,061023,,,D,V*18
20231006 220142+01:00 $HCHDT,177.6,T*2E
20231006 220143+01:00 $IIMDA,30.1,I,1.019,B,20.8,C,,C,67.1,,,C,,T,,M,,N,,M*2B
20231006 220143+01:00 $WIMWV,71.1,R,1.19,N,A*2D
20231006 220143+01:00 $GPRMC,210140,A,4918.7218,N,12306.4143,W,0,336,061023,,,D,V*17
20231006 220144+01:00 $HCHDT,177.6,T*2E
20231006 220145+01:00 $IIMDA,30.1,I,1.019,B,20.8,C,,C,67.1,,,C,,T,,M,,N,,M*2B
20231006 220145+01:00 $WIMWV,78.7,R,2.8,N,A*11
20231006 220145+01:00 $GPRMC,210142,A,4918.7218,N,12306.4143,W,0,336,061023,,,D,V*15
20231006 220146+01:00 $HCHDT,177.6,T*2E
20231006 220147+01:00 $IIMDA,30.1,I,1.019,B,20.8,C,,C,67.1,,,C,,T,,M,,N,,M*2B
20231006 220147+01:00 $WIMWV,31.4,R,1.09,N,A*2D
20231006 220147+01:00 $GPRMC,210144,A,4918.7217,N,12306.4143,W,0,336,061023,,,D,V*1C
20231006 220148+01:00 $HCHDT,177.6,T*2E
20231006 220149+01:00 $IIMDA,30.1,I,1.019,B,20.8,C,,C,67.1,,,C,,T,,M,,N,,M*2B
20231006 220149+01:00 $WIMWV,53.7,R,1.59,N,A*2F
20231006 220149+01:00 $GPRMC,210146,A,4918.7217,N,12306.4143,W,0,336,061023,,,D,V*1E
20231006 220150+01:00 $HCHDT,177.7,T*2F
20231006 220151+01:00 $IIMDA,30.1,I,1.019,B,20.8,C,,C,67.1,,,C,,T,,M,,N,,M*2B
20231006 220151+01:00 $WIMWV,76.3,R,1.28,N,A*2A
20231006 220151+01:00 $GPRMC,210148,A,4918.7217,N,12306.4143,W,0,336,061023,,,D,V*10
20231006 220152+01:00 $HCHDT,177.7,T*2F
20231006 220153+01:00 $IIMDA,30.1,I,1.019,B,20.8,C,,C,67.1,,,C,,T,,M,,N,,M*2B
20231006 220153+01:00 $WIMWV,66.39,R,1.19,N,A*10
20231006 220153+01:00 $GPRMC,210150,A,4918.7217,N,12306.4142,W,0,336,061023,,,D,V*18
20231006 220154+01:00 $HCHDT,177.7,T*2F
20231006 220155+01:00 $IIMDA,30.1,I,1.019,B,20.8,C,,C,67.1,,,C,,T,,M,,N,,M*2B
20231006 220155+01:00 $WIMWV,0.19,R,0.7,N,A*1C
20231006 220155+01:00 $GPRMC,210152,A,4918.7217,N,12306.4143,W,0,336,061023,,,D,V*1B
20231006 220156+01:00 $HCHDT,177.7,T*2F
20231006 220157+01:00 $IIMDA,30.1,I,1.019,B,20.8,C,,C,67.1,,,C,,T,,M,,N,,M*2B
20231006 220157+01:00 $WIMWV,22.9,R,1.28,N,A*21
20231006 220157+01:00 $GPRMC,210154,A,4918.7217,N,12306.4143,W,0,336,061023,,,D,V*1D
20231006 220158+01:00 $HCHDT,177.8,T*20
20231006 220159+01:00 $IIMDA,30.1,I,1.019,B,20.8,C,,C,67.1,,,C,,T,,M,,N,,M*2B
20231006 220159+01:00 $WIMWV,91.7,R,1.09,N,A*24
20231006 220159+01:00 $GPRMC,210156,A,4918.7216,N,12306.4143,W,0,336,061023,,,D,V*1E
20231006 220200+01:00 $HCHDT,177.8,T*20
20231006 220201+01:00 $IIMDA,30.1,I,1.019,B,20.8,C,,C,67,,,C,,T,,M,,N,,M*34
20231006 220201+01:00 $WIMWV,120.1,R,1.89,N,A*11
20231006 220201+01:00 $GPRMC,210158,A,4918.7217,N,12306.4142,W,0,336,061023,,,D,V*10
20231006 220202+01:00 $HCHDT,177.9,T*21
20231006 220203+01:00 $IIMDA,30.1,I,1.019,B,20.8,C,,C,67,,,C,,T,,M,,N,,M*34
20231006 220203+01:00 $WIMWV,111.5,R,2.2,N,A*27
20231006 220203+01:00 $GPRMC,210200,A,4918.7216,N,12306.4142,W,0,336,061023,,,D,V*1F
20231006 220204+01:00 $HCHDT,177.9,T*21
20231006 220205+01:00 $IIMDA,30.1,I,1.019,B,20.8,C,,C,66.9,,,C,,T,,M,,N,,M*22
20231006 220205+01:00 $WIMWV,91.7,R,1.59,N,A*21
20231006 220205+01:00 $GPRMC,210202,A,4918.7216,N,12306.4142,W,0,336,061023,,,D,V*1D
20231006 220206+01:00 $HCHDT,178,T*39
20231006 220207+01:00 $IIMDA,30.1,I,1.019,B,20.8,C,,C,66.9,,,C,,T,,M,,N,,M*22
20231006 220207+01:00 $WIMWV,64.8,R,1.98,N,A*29
20231006 220207+01:00 $GPRMC,210204,A,4918.7215,N,12306.4143,W,0,336,061023,,,D,V*19
20231006 220208+01:00 $HCHDT,178,T*39
20231006 220209+01:00 $IIMDA,30.1,I,1.019,B,20.8,C,,C,66.9,,,C,,T,,M,,N,,M*22
20231006 220209+01:00 $WIMWV,85,R,1.4,N,A*05
20231006 220209+01:00 $GPRMC,210206,A,4918.7215,N,12306.4142,W,0,336,061023,,,D,V*1A
20231006 220210+01:00 $HCHDT,178,T*39
20231006 220211+01:00 $IIMDA,30.1,I,1.019,B,20.8,C,,C,67,,,C,,T,,M,,N,,M*34
20231006 220211+01:00 $WIMWV,91.7,R,0.99,N,A*2C
20231006 220211+01:00 $GPRMC,210208,A,4918.7215,N,12306.4142,W,0,336,061023,,,D,V*14
20231006 220212+01:00 $HCHDT,178,T*39
20231006 220213+01:00 $IIMDA,30.1,I,1.019,B,20.8,C,,C,67,,,C,,T,,M,,N,,M*34
20231006 220213+01:00 $WIMWV,123.79,R,1.4,N,A*18
20231006 220213+01:00 $GPRMC,210210,A,4918.7215,N,12306.4142,W,0,336,061023,,,D,V*1D
20231006 220214+01:00 $HCHDT,178,T*39
20231006 220215+01:00 $IIMDA,30.1,I,1.019,B,20.8,C,,C,67,,,C,,T,,M,,N,,M*34
20231006 220215+01:00 $WIMWV,116.4,R,1.79,N,A*1E
20231006 220215+01:00 $GPRMC,210212,A,4918.7215,N,12306.4142,W,0,336,061023,,,D,V*1F
20231006 220216+01:00 $HCHDT,177.9,T*21
20231006 220217+01:00 $IIMDA,30.1,I,1.019,B,20.8,C,,C,67,,,C,,T,,M,,N,,M*34
20231006 220217+01:00 $WIMWV,91.7,R,1.4,N,A*19
20231006 220217+01:00 $GPRMC,210214,A,4918.7215,N,12306.4142,W,0,336,061023,,,D,V*19
20231006 220218+01:00 $HCHDT,177.8,T*20
20231006 220219+01:00 $IIMDA,30.1,I,1.019,B,20.8,C,,C,67,,,C,,T,,M,,N,,M*34
20231006 220219+01:00 $WIMWV,129.9,R,0.8,N,A*28
20231006 220219+01:00 $GPRMC,210216,A,4918.7214,N,12306.4142,W,0,336,061023,,,D,V*1A
20231006 220220+01:00 $HCHDT,177.8,T*20
20231006 220221+01:00 $IIMDA,30.1,I,1.019,B,20.8,C,,C,67,,,C,,T,,M,,N,,M*34
20231006 220221+01:00 $WIMWV,113.8,R,2.1,N,A*2B
20231006 220221+01:00 $GPRMC,210218,A,4918.7214,N,12306.4142,W,0,336,061023,,,D,V*14
20231006 220222+01:00 $HCHDT,177.9,T*21
20231006 220223+01:00 $IIMDA,30.1,I,1.019,B,20.8,C,,C,67,,,C,,T,,M,,N,,M*34
20231006 220223+01:00 $WIMWV,117.7,R,4.3,N,A*24
20231006 220223+01:00 $GPRMC,210220,A,4918.7214,N,12306.4142,W,0,336,061023,,,D,V*1F
20231006 220224+01:00 $HCHDT,177.8,T*20
20231006 220225+01:00 $IIMDA,30.1,I,1.019,B,20.8,C,,C,67,,,C,,T,,M,,N,,M*34
20231006 220225+01:00 $WIMWV,117.99,R,2.59,N,A*2A
20231006 220225+01:00 $GPRMC,210222,A,4918.7215,N,12306.4161,W,0,336,061023,,,D,V*1D
20231006 220226+01:00 $HCHDT,177.8,T*20
20231006 220227+01:00 $IIMDA,30.1,I,1.019,B,20.8,C,,C,67,,,C,,T,,M,,N,,M*34
20231006 220227+01:00 $WIMWV,112.2,R,3.29,N,A*1B
20231006 220227+01:00 $GPRMC,210224,A,4918.7215,N,12306.4161,W,0,336,061023,,,D,V*1B
20231006 220228+01:00 $HCHDT,177.8,T*20
20231006 220229+01:00 $IIMDA,30.1,I,1.019,B,20.8,C,,C,67,,,C,,T,,M,,N,,M*34
20231006 220229+01:00 $WIMWV,123,R,5.6,N,A*3E
20231006 220229+01:00 $GPRMC,210226,A,4918.7214,N,12306.4161,W,0,336,061023,,,D,V*18
20231006 220230+01:00 $HCHDT,177.7,T*2F
20231006 220231+01:00 $IIMDA,30.1,I,1.019,B,20.8,C,,C,67,,,C,,T,,M,,N,,M*34
20231006 220231+01:00 $WIMWV,104.5,R,2.68,N,A*1F
20231006 220231+01:00 $GPRMC,210228,A,4918.7213,N,12306.4161,W,0,336,061023,,,D,V*11
20231006 220232+01:00 $HCHDT,177.7,T*2F
20231006 220233+01:00 $IIMDA,30.1,I,1.019,B,20.8,C,,C,66.9,,,C,,T,,M,,N,,M*22
20231006 220233+01:00 $WIMWV,108.4,R,5.99,N,A*1B
20231006 220233+01:00 $GPRMC,210230,A,4918.7213,N,12306.4161,W,0,336,061023,,,D,V*18
20231006 220234+01:00 $HCHDT,177.6,T*2E
20231006 220235+01:00 $IIMDA,30.1,I,1.019,B,20.8,C,,C,66.8,,,C,,T,,M,,N,,M*23
20231006 220235+01:00 $WIMWV,73.1,R,2.8,N,A*1C
20231006 220235+01:00 $GPRMC,210232,A,4918.7214,N,12306.4161,W,0,336,061023,,,D,V*1D
20231006 220236+01:00 $HCHDT,177.6,T*2E
20231006 220237+01:00 $IIMDA,30.1,I,1.019,B,20.8,C,,C,66.7,,,C,,T,,M,,N,,M*2C
20231006 220237+01:00 $WIMWV,95.9,R,2.9,N,A*1D
20231006 220237+01:00 $GPRMC,210234,A,4918.7215,N,12306.4161,W,0,336,061023,,,D,V*1A
20231006 220238+01:00 $HCHDT,177.5,T*2D
20231006 220239+01:00 $IIMDA,30.1,I,1.019,B,20.8,C,,C,66.7,,,C,,T,,M,,N,,M*2C
20231006 220239+01:00 $WIMWV,104.59,R,4.08,N,A*26
20231006 220239+01:00 $GPRMC,210236,A,4918.7215,N,12306.4161,W,0,336,061023,,,D,V*18
20231006 220240+01:00 $HCHDT,177.5,T*2D
20231006 220241+01:00 $IIMDA,30.1,I,1.019,B,20.8,C,,C,66.6,,,C,,T,,M,,N,,M*2D
20231006 220241+01:00 $WIMWV,110.9,R,3.98,N,A*18
20231006 220241+01:00 $GPRMC,210238,A,4918.7215,N,12306.4161,W,0,336,061023,,,D,V*16
20231006 220242+01:00 $HCHDT,177.5,T*2D
20231006 220243+01:00 $IIMDA,30.1,I,1.019,B,20.8,C,,C,66.6,,,C,,T,,M,,N,,M*2D
20231006 220243+01:00 $WIMWV,119.79,R,3.29,N,A*2C
20231006 220243+01:00 $GPRMC,210240,A,4918.7213,N,12306.4142,W,0,336,061023,,,D,V*1E
20231006 220244+01:00 $HCHDT,177.5,T*2D
20231006 220245+01:00 $IIMDA,30.1,I,1.019,B,20.7,C,,C,66.5,,,C,,T,,M,,N,,M*21
20231006 220245+01:00 $WIMWV,101.29,R,1.98,N,A*28
20231006 220245+01:00 $GPRMC,210242,A,4918.7214,N,12306.4142,W,0,336,061023,,,D,V*1B
20231006 220246+01:00 $HCHDT,177.6,T*2E
20231006 220247+01:00 $IIMDA,30.1,I,1.019,B,20.7,C,,C,66.5,,,C,,T,,M,,N,,M*21
20231006 220247+01:00 $WIMWV,113.8,R,1.09,N,A*10
20231006 220247+01:00 $GPRMC,210244,A,4918.7213,N,12306.4142,W,0,336,061023,,,D,V*1A
20231006 220248+01:00 $HCHDT,177.6,T*2E
20231006 220249+01:00 $IIMDA,30.1,I,1.019,B,20.7,C,,C,66.5,,,C,,T,,M,,N,,M*21
20231006 220249+01:00 $WIMWV,71.69,R,1.69,N,A*14
20231006 220249+01:00 $GPRMC,210246,A,4918.7215,N,12306.4142,W,0,336,061023,,,D,V*1E
20231006 220250+01:00 $HCHDT,177.6,T*2E
20231006 220251+01:00 $IIMDA,30.1,I,1.019,B,20.7,C,,C,66.5,,,C,,T,,M,,N,,M*21
20231006 220251+01:00 $WIMWV,114.29,R,2.39,N,A*24
20231006 220251+01:00 $GPRMC,210248,A,4918.7216,N,12306.4142,W,0,336,061023,,,D,V*13
20231006 220252+01:00 $HCHDT,177.6,T*2E
20231006 220253+01:00 $IIMDA,30.1,I,1.019,B,20.7,C,,C,66.6,,,C,,T,,M,,N,,M*22
20231006 220253+01:00 $WIMWV,91.7,R,3.5,N,A*1A
20231006 220253+01:00 $GPRMC,210250,A,4918.7216,N,12306.4160,W,0,336,061023,,,D,V*1A
20231006 220254+01:00 $HCHDT,177.6,T*2E
20231006 220255+01:00 $IIMDA,30.1,I,1.019,B,20.7,C,,C,66.6,,,C,,T,,M,,N,,M*22
20231006 220255+01:00 $WIMWV,115.9,R,2.9,N,A*24
20231006 220255+01:00 $GPRMC,210252,A,4918.7216,N,12306.4160,W,0,336,061023,,,D,V*18
20231006 220256+01:00 $HCHDT,177.5,T*2D
20231006 220257+01:00 $IIMDA,30.1,I,1.019,B,20.7,C,,C,66.6,,,C,,T,,M,,N,,M*22
20231006 220257+01:00 $WIMWV,77.5,R,2.68,N,A*2A
20231006 220257+01:00 $GPRMC,210254,A,4918.7216,N,12306.4160,W,0,336,061023,,,D,V*1E
20231006 220258+01:00 $HCHDT,177.5,T*2D
20231006 220259+01:00 $IIMDA,30.1,I,1.019,B,20.7,C,,C,66.7,,,C,,T,,M,,N,,M*23
20231006 220259+01:00 $WIMWV,59,R,0.7,N,A*06
20231006 220259+01:00 $GPRMC,210256,A,4918.7216,N,12306.4161,W,0,336,061023,,,D,V*1D
20231006 220300+01:00 $HCHDT,177.5,T*2D
20231006 220301+01:00 $IIMDA,30.1,I,1.019,B,20.7,C,,C,66.7,,,C,,T,,M,,N,,M*23
20231006 220301+01:00 $WIMWV,40.59,R,0.8,N,A*23
20231006 220301+01:00 $GPRMC,210258,A,4918.7217,N,12306.4160,W,0,336,061023,,,D,V*13
20231006 220302+01:00 $HCHDT,177.6,T*2E
20231006 220303+01:00 $IIMDA,30.1,I,1.019,B,20.7,C,,C,66.7,,,C,,T,,M,,N,,M*23
20231006 220303+01:00 $WIMWV,69.2,R,2.1,N,A*1D
20231006 220303+01:00 $GPRMC,210300,A,4918.7217,N,12306.4160,W,0,336,061023,,,D,V*1F
20231006 220304+01:00 $HCHDT,177.6,T*2E
20231006 220305+01:00 $IIMDA,30.1,I,1.019,B,20.7,C,,C,66.8,,,C,,T,,M,,N,,M*2C
20231006 220305+01:00 $WIMWV,39.1,R,0.7,N,A*1F
20231006 220305+01:00 $GPRMC,210302,A,4918.7218,N,12306.4161,W,0,336,061023,,,D,V*13
20231006 220306+01:00 $HCHDT,177.6,T*2E
20231006 220307+01:00 $IIMDA,30.1,I,1.019,B,20.7,C,,C,66.8,,,C,,T,,M,,N,,M*2C
20231006 220307+01:00 $WIMWV,78.6,R,2.29,N,A*23
20231006 220307+01:00 $GPRMC,210304,A,4918.7217,N,12306.4142,W,0,336,061023,,,D,V*1B
20231006 220308+01:00 $HCHDT,177.6,T*2E
20231006 220309+01:00 $IIMDA,30.1,I,1.019,B,20.7,C,,C,66.8,,,C,,T,,M,,N,,M*2C
20231006 220309+01:00 $WIMWV,60.8,R,0.89,N,A*2C
20231006 220309+01:00 $GPRMC,210306,A,4918.7215,N,12306.4143,W,0,336,061023,,,D,V*1A
20231006 220310+01:00 $HCHDT,177.5,T*2D
20231006 220311+01:00 $IIMDA,30.1,I,1.019,B,20.7,C,,C,66.8,,,C,,T,,M,,N,,M*2C
20231006 220311+01:00 $WIMWV,122.3,R,2.1,N,A*22
20231006 220311+01:00 $GPRMC,210308,A,4918.7216,N,12306.4143,W,0,336,061023,,,D,V*17
20231006 220312+01:00 $HCHDT,177.5,T*2D
20231006 220313+01:00 $IIMDA,30.1,I,1.019,B,20.7,C,,C,66.8,,,C,,T,,M,,N,,M*2C
20231006 220313+01:00 $WIMWV,127,R,2.39,N,A*01
20231006 220313+01:00 $GPRMC,210310,A,4918.7218,N,12306.4142,W,0,336,061023,,,D,V*11
20231006 220314+01:00 $HCHDT,177.5,T*2D
20231006 220315+01:00 $IIMDA,30.1,I,1.019,B,20.7,C,,C,66.8,,,C,,T,,M,,N,,M*2C
20231006 220315+01:00 $WIMWV,114.29,R,2.29,N,A*25
20231006 220315+01:00 $GPRMC,210312,A,4918.7217,N,12306.4142,W,0,336,061023,,,D,V*1C
20231006 220316+01:00 $HCHDT,177.5,T*2D
20231006 220317+01:00 $IIMDA,30.1,I,1.019,B,20.8,C,,C,66.8,,,C,,T,,M,,N,,M*23
20231006 220317+01:00 $WIMWV,75.8,R,1.79,N,A*26
20231006 220317+01:00 $GPRMC,210314,A,4918.7217,N,12306.4142,W,0,336,061023,,,D,V*1A
20231006 220318+01:00 $HCHDT,177.5,T*2D
20231006 220319+01:00 $IIMDA,30.1,I,1.019,B,20.8,C,,C,66.8,,,C,,T,,M,,N,,M*23
20231006 220319+01:00 $WIMWV,100.19,R,1.79,N,A*25
20231006 220319+01:00 $GPRMC,210316,A,4918.7215,N,12306.4142,W,0,336,061023,,,D,V*1A
20231006 220320+01:00 $HCHDT,177.5,T*2D
20231006 220321+01:00 $IIMDA,30.1,I,1.019,B,20.8,C,,C,66.8,,,C,,T,,M,,N,,M*23
20231006 220321+01:00 $WIMWV,123.4,R,3.09,N,A*1D
20231006 220321+01:00 $GPRMC,210318,A,4918.7214,N,12306.4142,W,0,336,061023,,,D,V*15
20231006 220322+01:00 $HCHDT,177.4,T*2C
20231006 220323+01:00 $IIMDA,30.1,I,1.019,B,20.8,C,,C,66.8,,,C,,T,,M,,N,,M*23
20231006 220323+01:00 $WIMWV,91.7,R,1.19,N,A*25
20231006 220323+01:00 $GPRMC,210320,A,4918.7214,N,12306.4143,W,0,336,061023,,,D,V*1F
20231006 220324+01:00 $HCHDT,177.4,T*2C
20231006 220325+01:00 $IIMDA,30.1,I,1.019,B,20.8,C,,C,66.8,,,C,,T,,M,,N,,M*23
20231006 220325+01:00 $WIMWV,78.2,R,1.69,N,A*20
20231006 220325+01:00 $GPRMC,210322,A,4918.7216,N,12306.4143,W,0,336,061023,,,D,V*1F
20231006 220326+01:00 $HCHDT,177.4,T*2C
20231006 220327+01:00 $IIMDA,30.1,I,1.019,B,20.8,C,,C,66.8,,,C,,T,,M,,N,,M*23
20231006 220327+01:00 $WIMWV,77.5,R,1.4,N,A*13
20231006 220327+01:00 $GPRMC,210324,A,4918.7215,N,12306.4143,W,0,336,061023,,,D,V*1A
20231006 220328+01:00 $HCHDT,177.4,T*2C
20231006 220329+01:00 $IIMDA,30.1,I,1.019,B,20.8,C,,C,66.8,,,C,,T,,M,,N,,M*23
20231006 220329+01:00 $WIMWV,125.09,R,2.29,N,A*25
20231006 220329+01:00 $GPRMC,210326,A,4918.7215,N,12306.4142,W,0,336,061023,,,D,V*19
20231006 220330+01:00 $HCHDT,177.3,T*2B
20231006 220331+01:00 $IIMDA,30.1,I,1.019,B,20.8,C,,C,66.9,,,C,,T,,M,,N,,M*22
20231006 220331+01:00 $WIMWV,117.7,R,0.8,N,A*2B
20231006 220331+01:00 $GPRMC,210328,A,4918.7213,N,12306.4143,W,0,336,061023,,,D,V*10
20231006 220332+01:00 $HCHDT,177.3,T*2B
20231006 220333+01:00 $IIMDA,30.1,I,1.019,B,20.8,C,,C,66.8,,,C,,T,,M,,N,,M*23
20231006 220333+01:00 $WIMWV,114.9,R,0.58,N,A*13
20231006 220333+01:00 $GPRMC,210330,A,4918.7213,N,12306.4143,W,0,336,061023,,,D,V*19
20231006 220334+01:00 $HCHDT,177.3,T*2B
20231006 220335+01:00 $IIMDA,30.1,I,1.019,B,20.8,C,,C,66.8,,,C,,T,,M,,N,,M*23
20231006 220335+01:00 $WIMWV,180.6,R,2.1,N,A*2F
20231006 220335+01:00 $GPRMC,210332,A,4918.7212,N,12306.4144,W,0,336,061023,,,D,V*1D
20231006 220336+01:00 $HCHDT,177.4,T*2C
20231006 220337+01:00 $IIMDA,30.1,I,1.019,B,20.8,C,,C,66.8,,,C,,T,,M,,N,,M*23
20231006 220337+01:00 $WIMWV,185.09,R,2.59,N,A*28
20231006 220337+01:00 $GPRMC,210334,A,4918.7215,N,12306.4143,W,0,336,061023,,,D,V*1B
20231006 220338+01:00 $HCHDT,177.4,T*2C
20231006 220339+01:00 $IIMDA,30.1,I,1.019,B,20.8,C,,C,66.8,,,C,,T,,M,,N,,M*23
20231006 220339+01:00 $WIMWV,148.49,R,0.49,N,A*2E
20231006 220339+01:00 $GPRMC,210336,A,4918.7215,N,12306.4143,W,0,336,061023,,,D,V*19
20231006 220340+01:00 $HCHDT,177.5,T*2D
20231006 220341+01:00 $IIMDA,30.1,I,1.019,B,20.8,C,,C,66.7,,,C,,T,,M,,N,,M*2C
20231006 220341+01:00 $WIMWV,30.4,R,1.19,N,A*2D
20231006 220341+01:00 $GPRMC,210338,A,4918.7216,N,12306.4142,W,0,336,061023,,,D,V*15
20231006 220342+01:00 $HCHDT,177.5,T*2D
20231006 220343+01:00 $IIMDA,30.1,I,1.019,B,20.8,C,,C,66.8,,,C,,T,,M,,N,,M*23
20231006 220343+01:00 $WIMWV,71.1,R,3.09,N,A*2E
20231006 220343+01:00 $GPRMC,210340,A,4918.7214,N,12306.4142,W,0,336,061023,,,D,V*18
20231006 220344+01:00 $HCHDT,177.5,T*2D
20231006 220345+01:00 $IIMDA,30.1,I,1.019,B,20.8,C,,C,66.8,,,C,,T,,M,,N,,M*23
20231006 220345+01:00 $WIMWV,59.5,R,4.49,N,A*23
20231006 220345+01:00 $GPRMC,210342,A,4918.7214,N,12306.4142,W,0,336,061023,,,D,V*1A
20231006 220346+01:00 $HCHDT,177.5,T*2D
20231006 220347+01:00 $IIMDA,30.1,I,1.019,B,20.8,C,,C,66.8,,,C,,T,,M,,N,,M*23
20231006 220347+01:00 $WIMWV,73.3,R,4.08,N,A*28
20231006 220347+01:00 $GPRMC,210344,A,4918.7214,N,12306.4144,W,0,336,061023,,,D,V*1A
20231006 220348+01:00 $HCHDT,177.5,T*2D
20231006 220349+01:00 $IIMDA,30.1,I,1.019,B,20.8,C,,C,66.8,,,C,,T,,M,,N,,M*23
20231006 220349+01:00 $WIMWV,91.7,R,2.1,N,A*1F
20231006 220349+01:00 $GPRMC,210346,A,4918.7217,N,12306.4143,W,0,336,061023,,,D,V*1C
20231006 220350+01:00 $HCHDT,177.5,T*2D
20231006 220351+01:00 $IIMDA,30.1,I,1.019,B,20.9,C,,C,66.8,,,C,,T,,M,,N,,M*22
20231006 220351+01:00 $WIMWV,117.79,R,2.39,N,A*22
20231006 220351+01:00 $GPRMC,210348,A,4918.7217,N,12306.4143,W,0,336,061023,,,D,V*12
20231006 220352+01:00 $HCHDT,177.4,T*2C
20231006 220353+01:00 $IIMDA,30.1,I,1.019,B,20.9,C,,C,66.8,,,C,,T,,M,,N,,M*22
20231006 220353+01:00 $WIMWV,145.7,R,1.89,N,A*14
20231006 220353+01:00 $GPRMC,210350,A,4918.7218,N,12306.4161,W,0,336,061023,,,D,V*14
20231006 220354+01:00 $HCHDT,177.4,T*2C
20231006 220355+01:00 $IIMDA,30.1,I,1.019,B,20.9,C,,C,66.7,,,C,,T,,M,,N,,M*2D
20231006 220355+01:00 $WIMWV,113.8,R,1.5,N,A*2C
20231006 220355+01:00 $GPRMC,210352,A,4918.7216,N,12306.4142,W,0,336,061023,,,D,V*19
20231006 220356+01:00 $HCHDT,177.4,T*2C
20231006 220357+01:00 $IIMDA,30.1,I,1.019,B,20.9,C,,C,66.7,,,C,,T,,M,,N,,M*2D
20231006 220357+01:00 $WIMWV,210.2,R,0.8,N,A*2A
20231006 220357+01:00 $GPRMC,210354,A,4918.7216,N,12306.4142,W,0,336,061023,,,D,V*1F
20231006 220358+01:00 $HCHDT,177.3,T*2B
20231006 220359+01:00 $IIMDA,30.1,I,1.019,B,20.9,C,,C,66.7,,,C,,T,,M,,N,,M*2D
20231006 220359+01:00 $WIMWV,188.59,R,0.99,N,A*2E
20231006 220359+01:00 $GPRMC,210356,A,4918.7215,N,12306.4143,W,0,336,061023,,,D,V*1F
20231006 220401+01:00 $HCHDT,177.3,T*2B
20231006 220401+01:00 $IIMDA,30.1,I,1.019,B,20.9,C,,C,66.7,,,C,,T,,M,,N,,M*2D
20231006 220401+01:00 $WIMWV,142.99,R,2.99,N,A*26
20231006 220401+01:00 $GPRMC,210358,A,4918.7217,N,12306.4142,W,0,336,061023,,,D,V*12
20231006 220402+01:00 $HCHDT,177.3,T*2B
20231006 220403+01:00 $IIMDA,30.1,I,1.019,B,20.9,C,,C,66.7,,,C,,T,,M,,N,,M*2D
20231006 220403+01:00 $WIMWV,152.8,R,2.1,N,A*2E
20231006 220403+01:00 $GPRMC,210400,A,4918.7217,N,12306.4142,W,0,336,061023,,,D,V*18
20231006 220404+01:00 $HCHDT,177.2,T*2A
20231006 220405+01:00 $IIMDA,30.1,I,1.019,B,20.9,C,,C,66.6,,,C,,T,,M,,N,,M*2C
20231006 220405+01:00 $WIMWV,115.9,R,3.6,N,A*2A
20231006 220405+01:00 $GPRMC,210402,A,4918.7218,N,12306.4161,W,0,336,061023,,,D,V*14
20231006 220406+01:00 $HCHDT,177.2,T*2A
20231006 220407+01:00 $IIMDA,30.1,I,1.019,B,20.9,C,,C,66.6,,,C,,T,,M,,N,,M*2C
20231006 220407+01:00 $WIMWV,97.9,R,3.79,N,A*29
20231006 220407+01:00 $GPRMC,210404,A,4918.7216,N,12306.4161,W,0,336,061023,,,D,V*1C
20231006 220408+01:00 $HCHDT,177.3,T*2B
20231006 220409+01:00 $IIMDA,30.1,I,1.019,B,20.9,C,,C,66.6,,,C,,T,,M,,N,,M*2C
20231006 220409+01:00 $WIMWV,131.29,R,2.2,N,A*1B
20231006 220409+01:00 $GPRMC,210406,A,4918.7216,N,12306.4161,W,0,336,061023,,,D,V*1E
20231006 220410+01:00 $HCHDT,177.3,T*2B
20231006 220411+01:00 $IIMDA,30.1,I,1.019,B,20.9,C,,C,66.6,,,C,,T,,M,,N,,M*2C
20231006 220411+01:00 $WIMWV,58.6,R,1.79,N,A*27
20231006 220411+01:00 $GPRMC,210408,A,4918.7216,N,12306.4161,W,0,336,061023,,,D,V*10
20231006 220412+01:00 $HCHDT,177.3,T*2B
20231006 220413+01:00 $IIMDA,30.1,I,1.019,B,20.9,C,,C,66.6,,,C,,T,,M,,N,,M*2C
20231006 220413+01:00 $WIMWV,111.5,R,1.09,N,A*1F
20231006 220413+01:00 $GPRMC,210410,A,4918.7215,N,12306.4142,W,0,336,061023,,,D,V*1B
20231006 220414+01:00 $HCHDT,177.4,T*2C
20231006 220415+01:00 $IIMDA,30.1,I,1.019,B,20.9,C,,C,66.6,,,C,,T,,M,,N,,M*2C
20231006 220415+01:00 $WIMWV,96.5,R,2.2,N,A*19
20231006 220415+01:00 $GPRMC,210412,A,4918.7215,N,12306.4142,W,0,336,061023,,,D,V*19
20231006 220416+01:00 $HCHDT,177.4,T*2C
20231006 220417+01:00 $IIMDA,30.1,I,1.019,B,20.9,C,,C,66.7,,,C,,T,,M,,N,,M*2D
20231006 220417+01:00 $WIMWV,81.1,R,1.19,N,A*22
20231006 220417+01:00 $GPRMC,210414,A,4918.7215,N,12306.4142,W,0,336,061023,,,D,V*1F
20231006 220418+01:00 $HCHDT,177.4,T*2C
20231006 220419+01:00 $IIMDA,30.1,I,1.019,B,20.9,C,,C,66.7,,,C,,T,,M,,N,,M*2D
20231006 220419+01:00 $WIMWV,82.29,R,1.59,N,A*1F
20231006 220419+01:00 $GPRMC,210416,A,4918.7216,N,12306.4142,W,0,336,061023,,,D,V*1E
20231006 220420+01:00 $HCHDT,177.4,T*2C
20231006 220421+01:00 $IIMDA,30.1,I,1.019,B,20.9,C,,C,66.7,,,C,,T,,M,,N,,M*2D
20231006 220421+01:00 $WIMWV,119.19,R,4.39,N,A*2C
20231006 220421+01:00 $GPRMC,210418,A,4918.7216,N,12306.4161,W,0,336,061023,,,D,V*11
20231006 220422+01:00 $HCHDT,177.4,T*2C
20231006 220423+01:00 $IIMDA,30.1,I,1.019,B,20.9,C,,C,66.6,,,C,,T,,M,,N,,M*2C
20231006 220423+01:00 $WIMWV,117.7,R,4.3,N,A*24
20231006 220423+01:00 $GPRMC,210420,A,4918.7216,N,12306.4142,W,0,336,061023,,,D,V*1B
20231006 220424+01:00 $HCHDT,177.3,T*2B
20231006 220425+01:00 $IIMDA,30.1,I,1.019,B,20.9,C,,C,66.4,,,C,,T,,M,,N,,M*2E
20231006 220425+01:00 $WIMWV,111.5,R,3.89,N,A*15
20231006 220425+01:00 $GPRMC,210422,A,4918.7219,N,12306.4161,W,0,336,061023,,,D,V*17
20231006 220426+01:00 $HCHDT,177.3,T*2B
20231006 220427+01:00 $IIMDA,30.1,I,1.019,B,20.9,C,,C,66.3,,,C,,T,,M,,N,,M*29
20231006 220427+01:00 $WIMWV,120.8,R,5.38,N,A*16
20231006 220427+01:00 $GPRMC,210424,A,4918.7219,N,12306.4142,W,0,336,061023,,,D,V*10
20231006 220428+01:00 $HCHDT,177.3,T*2B
20231006 220429+01:00 $IIMDA,30.1,I,1.019,B,20.9,C,,C,66.2,,,C,,T,,M,,N,,M*28
20231006 220429+01:00 $WIMWV,119.5,R,4.78,N,A*14
20231006 220429+01:00 $GPRMC,210426,A,4918.7218,N,12306.4161,W,0,336,061023,,,D,V*12
20231006 220430+01:00 $HCHDT,177.3,T*2B
20231006 220431+01:00 $IIMDA,30.1,I,1.019,B,20.9,C,,C,66.1,,,C,,T,,M,,N,,M*2B
20231006 220431+01:00 $WIMWV,120.49,R,4.9,N,A*10
20231006 220431+01:00 $GPRMC,210428,A,4918.7217,N,12306.4161,W,0,336,061023,,,D,V*13
20231006 220432+01:00 $HCHDT,177.3,T*2B
20231006 220433+01:00 $IIMDA,30.1,I,1.019,B,20.9,C,,C,66,,,C,,T,,M,,N,,M*34
20231006 220433+01:00 $WIMWV,85.3,R,1.09,N,A*25
20231006 220433+01:00 $GPRMC,210430,A,4918.7217,N,12306.4161,W,0,336,061023,,,D,V*1A
20231006 220434+01:00 $HCHDT,177.3,T*2B
20231006 220435+01:00 $IIMDA,30.1,I,1.019,B,20.9,C,,C,65.9,,,C,,T,,M,,N,,M*20
20231006 220435+01:00 $WIMWV,116.2,R,1.98,N,A*17
20231006 220435+01:00 $GPRMC,210432,A,4918.7218,N,12306.4161,W,0,336,061023,,,D,V*17
20231006 220436+01:00 $HCHDT,177.3,T*2B
20231006 220437+01:00 $IIMDA,30.1,I,1.019,B,20.9,C,,C,66,,,C,,T,,M,,N,,M*34
20231006 220437+01:00 $WIMWV,94.6,R,3.6,N,A*1D
20231006 220437+01:00 $GPRMC,210434,A,4918.7218,N,12306.4142,W,0,336,061023,,,D,V*10
20231006 220438+01:00 $HCHDT,177.3,T*2B
20231006 220439+01:00 $IIMDA,30.1,I,1.019,B,20.9,C,,C,66.1,,,C,,T,,M,,N,,M*2B
20231006 220439+01:00 $WIMWV,116.6,R,1.09,N,A*1B
20231006 220439+01:00 $GPRMC,210436,A,4918.7215,N,12306.4143,W,0,336,061023,,,D,V*1E
20231006 220440+01:00 $HCHDT,177.4,T*2C
20231006 220441+01:00 $IIMDA,30.1,I,1.019,B,20.9,C,,C,66.1,,,C,,T,,M,,N,,M*2B
20231006 220441+01:00 $WIMWV,70.3,R,1.09,N,A*2F
20231006 220441+01:00 $GPRMC,210438,A,4918.7214,N,12306.4143,W,0,336,061023,,,D,V*11
20231006 220442+01:00 $HCHDT,177.4,T*2C
20231006 220443+01:00 $IIMDA,30.1,I,1.019,B,20.9,C,,C,66.3,,,C,,T,,M,,N,,M*29
20231006 220443+01:00 $WIMWV,151.79,R,1.69,N,A*26
20231006 220443+01:00 $GPRMC,210440,A,4918.7215,N,12306.4142,W,0,336,061023,,,D,V*1E
20231006 220444+01:00 $HCHDT,177.4,T*2C
20231006 220445+01:00 $IIMDA,30.1,I,1.019,B,20.9,C,,C,66.4,,,C,,T,,M,,N,,M*2E
20231006 220445+01:00 $WIMWV,124.89,R,3.6,N,A*10
20231006 220445+01:00 $GPRMC,210442,A,4918.7216,N,12306.4142,W,0,336,061023,,,D,V*1F
20231006 220446+01:00 $HCHDT,177.4,T*2C
20231006 220447+01:00 $IIMDA,30.1,I,1.019,B,20.9,C,,C,66.5,,,C,,T,,M,,N,,M*2F
20231006 220447+01:00 $WIMWV,72.9,R,1.28,N,A*24
20231006 220447+01:00 $GPRMC,210444,A,4918.7217,N,12306.4142,W,0,336,061023,,,D,V*18
20231006 220448+01:00 $HCHDT,177.5,T*2D
20231006 220449+01:00 $IIMDA,30.1,I,1.019,B,20.9,C,,C,66.6,,,C,,T,,M,,N,,M*2C
20231006 220449+01:00 $WIMWV,119.3,R,2.1,N,A*2A
20231006 220449+01:00 $GPRMC,210446,A,4918.7216,N,12306.4142,W,0,336,061023,,,D,V*1B
20231006 220450+01:00 $HCHDT,177.5,T*2D
20231006 220451+01:00 $IIMDA,30.1,I,1.019,B,20.9,C,,C,66.6,,,C,,T,,M,,N,,M*2C
20231006 220451+01:00 $WIMWV,91.7,R,3.29,N,A*24
20231006 220451+01:00 $GPRMC,210448,A,4918.7217,N,12306.4142,W,0,336,061023,,,D,V*14
20231006 220452+01:00 $HCHDT,177.6,T*2E
20231006 220453+01:00 $IIMDA,30.1,I,1.019,B,20.9,C,,C,66.6,,,C,,T,,M,,N,,M*2C
20231006 220453+01:00 $WIMWV,102,R,2.2,N,A*3E
20231006 220453+01:00 $GPRMC,210450,A,4918.7216,N,12306.4142,W,0,336,061023,,,D,V*1C
20231006 220454+01:00 $HCHDT,177.6,T*2E
20231006 220455+01:00 $IIMDA,30.1,I,1.019,B,20.9,C,,C,66.6,,,C,,T,,M,,N,,M*2C
20231006 220455+01:00 $WIMWV,58.3,R,1.79,N,A*22
20231006 220455+01:00 $GPRMC,210452,A,4918.7217,N,12306.4142,W,0,336,061023,,,D,V*1F
20231006 220456+01:00 $HCHDT,177.6,T*2E
20231006 220457+01:00 $IIMDA,30.1,I,1.019,B,20.9,C,,C,66.7,,,C,,T,,M,,N,,M*2D
20231006 220457+01:00 $WIMWV,112.49,R,0.8,N,A*14
20231006 220457+01:00 $GPRMC,210454,A,4918.7217,N,12306.4143,W,0,336,061023,,,D,V*18
20231006 220458+01:00 $HCHDT,177.6,T*2E
20231006 220459+01:00 $IIMDA,30.1,I,1.019,B,20.9,C,,C,66.7,,,C,,T,,M,,N,,M*2D
20231006 220459+01:00 $WIMWV,116.8,R,0.7,N,A*2A
20231006 220459+01:00 $GPRMC,210456,A,4918.7218,N,12306.4143,W,0,336,061023,,,D,V*15
20231006 220500+01:00 $HCHDT,177.6,T*2E
20231006 220501+01:00 $IIMDA,30.1,I,1.019,B,20.9,C,,C,66.7,,,C,,T,,M,,N,,M*2D
20231006 220501+01:00 $WIMWV,120.49,R,2.68,N,A*21
20231006 220501+01:00 $GPRMC,210458,A,4918.7218,N,12306.4143,W,0,336,061023,,,D,V*1B
20231006 220502+01:00 $HCHDT,177.6,T*2E
20231006 220503+01:00 $IIMDA,30.1,I,1.019,B,20.9,C,,C,66.8,,,C,,T,,M,,N,,M*22
20231006 220503+01:00 $WIMWV,97.49,R,2.68,N,A*1C
20231006 220503+01:00 $GPRMC,210500,A,4918.7218,N,12306.4143,W,0,336,061023,,,D,V*17
20231006 220504+01:00 $HCHDT,177.7,T*2F
20231006 220505+01:00 $IIMDA,30.1,I,1.019,B,20.9,C,,C,66.8,,,C,,T,,M,,N,,M*22
20231006 220505+01:00 $WIMWV,131.99,R,1.89,N,A*20
20231006 220505+01:00 $GPRMC,210502,A,4918.7217,N,12306.4143,W,0,336,061023,,,D,V*1A
20231006 220506+01:00 $HCHDT,177.7,T*2F
20231006 220507+01:00 $IIMDA,30.1,I,1.019,B,20.9,C,,C,66.8,,,C,,T,,M,,N,,M*22
20231006 220507+01:00 $WIMWV,164.3,R,3.5,N,A*25
20231006 220507+01:00 $GPRMC,210504,A,4918.7217,N,12306.4144,W,0,336,061023,,,D,V*1B
20231006 220508+01:00 $HCHDT,177.7,T*2F
20231006 220509+01:00 $IIMDA,30.1,I,1.019,B,20.9,C,,C,66.8,,,C,,T,,M,,N,,M*22
20231006 220509+01:00 $WIMWV,177.69,R,2.99,N,A*2F
20231006 220509+01:00 $GPRMC,210506,A,4918.7217,N,12306.4144,W,0,336,061023,,,D,V*19
20231006 220510+01:00 $HCHDT,177.7,T*2F
20231006 220511+01:00 $IIMDA,30.1,I,1.019,B,20.9,C,,C,66.7,,,C,,T,,M,,N,,M*2D
20231006 220511+01:00 $WIMWV,180.6,R,1.28,N,A*17
20231006 220511+01:00 $GPRMC,210508,A,4918.7217,N,12306.4143,W,0,336,061023,,,D,V*10
20231006 220512+01:00 $HCHDT,177.8,T*20
20231006 220513+01:00 $IIMDA,30.1,I,1.019,B,20.9,C,,C,66.7,,,C,,T,,M,,N,,M*2D
20231006 220513+01:00 $WIMWV,146.99,R,1.69,N,A*2E
20231006 220513+01:00 $GPRMC,210510,A,4918.7217,N,12306.4143,W,0,336,061023,,,D,V*19
20231006 220514+01:00 $HCHDT,177.9,T*21
20231006 220515+01:00 $IIMDA,30.1,I,1.019,B,20.9,C,,C,66.7,,,C,,T,,M,,N,,M*2D
20231006 220515+01:00 $WIMWV,112.49,R,1.89,N,A*2C
20231006 220515+01:00 $GPRMC,210512,A,4918.7217,N,12306.4144,W,0,336,061023,,,D,V*1C
20231006 220516+01:00 $HCHDT,177.9,T*21
20231006 220517+01:00 $IIMDA,30.1,I,1.019,B,20.9,C,,C,66.7,,,C,,T,,M,,N,,M*2D
20231006 220517+01:00 $WIMWV,119.9,R,1.59,N,A*1E
20231006 220517+01:00 $GPRMC,210514,A,4918.7216,N,12306.4144,W,0,336,061023,,,D,V*1B
20231006 220518+01:00 $HCHDT,178,T*39
20231006 220519+01:00 $IIMDA,30.1,I,1.019,B,20.9,C,,C,66.8,,,C,,T,,M,,N,,M*22
20231006 220519+01:00 $WIMWV,117.7,R,3.09,N,A*19
20231006 220519+01:00 $GPRMC,210516,A,4918.7217,N,12306.4143,W,0,336,061023,,,D,V*1F
20231006 220520+01:00 $HCHDT,178,T*39
20231006 220521+01:00 $IIMDA,30.1,I,1.019,B,20.9,C,,C,66.8,,,C,,T,,M,,N,,M*22
20231006 220521+01:00 $WIMWV,94.8,R,2.2,N,A*16
20231006 220521+01:00 $GPRMC,210518,A,4918.7217,N,12306.4142,W,0,336,061023,,,D,V*10
20231006 220522+01:00 $HCHDT,178.1,T*26
20231006 220523+01:00 $IIMDA,30.1,I,1.019,B,21,C,,C,66.9,,,C,,T,,M,,N,,M*35
20231006 220523+01:00 $WIMWV,99.8,R,2.99,N,A*29
20231006 220523+01:00 $GPRMC,210520,A,4918.7218,N,12306.4143,W,0,336,061023,,,D,V*15
20231006 220524+01:00 $HCHDT,178.1,T*26
20231006 220525+01:00 $IIMDA,30.1,I,1.019,B,21,C,,C,66.8,,,C,,T,,M,,N,,M*34
20231006 220525+01:00 $WIMWV,104.3,R,1.59,N,A*18
20231006 220525+01:00 $GPRMC,210522,A,4918.7215,N,12306.4144,W,0,336,061023,,,D,V*1D
20231006 220526+01:00 $HCHDT,178.1,T*26
20231006 220527+01:00 $IIMDA,30.1,I,1.019,B,21,C,,C,66.9,,,C,,T,,M,,N,,M*35
20231006 220527+01:00 $WIMWV,83.7,R,2.9,N,A*14
20231006 220527+01:00 $GPRMC,210524,A,4918.7215,N,12306.4144,W,0,336,061023,,,D,V*1B
20231006 220528+01:00 $HCHDT,178.1,T*26
20231006 220529+01:00 $IIMDA,30.1,I,1.019,B,21,C,,C,66.9,,,C,,T,,M,,N,,M*35
20231006 220529+01:00 $WIMWV,86.89,R,2.39,N,A*14
20231006 220529+01:00 $GPRMC,210526,A,4918.7222,N,12306.4161,W,0,336,061023,,,D,V*1A
20231006 220530+01:00 $HCHDT,178.1,T*26
20231006 220531+01:00 $IIMDA,30.1,I,1.019,B,21,C,,C,66.9,,,C,,T,,M,,N,,M*35
20231006 220531+01:00 $WIMWV,351.69,R,1.19,N,A*22
20231006 220531+01:00 $GPRMC,210528,A,4918.7224,N,12306.4161,W,0,336,061023,,,D,V*12
20231006 220532+01:00 $HCHDT,178.1,T*26
20231006 220533+01:00 $IIMDA,30.1,I,1.019,B,21,C,,C,66.8,,,C,,T,,M,,N,,M*34
20231006 220533+01:00 $WIMWV,76.59,R,2.49,N,A*11
20231006 220533+01:00 $GPRMC,210530,A,4918.7224,N,12306.4161,W,0,336,061023,,,D,V*1B
20231006 220534+01:00 $HCHDT,178.1,T*26
20231006 220535+01:00 $IIMDA,30.1,I,1.019,B,21,C,,C,66.8,,,C,,T,,M,,N,,M*34
20231006 220535+01:00 $WIMWV,78.29,R,2.9,N,A*2C
20231006 220535+01:00 $GPRMC,210532,A,4918.7225,N,12306.4142,W,0,336,061023,,,D,V*19
20231006 220536+01:00 $HCHDT,178.2,T*25
20231006 220537+01:00 $IIMDA,30.1,I,1.019,B,21,C,,C,66.7,,,C,,T,,M,,N,,M*3B
20231006 220537+01:00 $WIMWV,58.5,R,2.1,N,A*18
20231006 220537+01:00 $GPRMC,210534,A,4918.7224,N,12306.4142,W,0,336,061023,,,D,V*1E
20231006 220538+01:00 $HCHDT,178.2,T*25
20231006 220539+01:00 $IIMDA,30.1,I,1.019,B,21,C,,C,66.7,,,C,,T,,M,,N,,M*3B
20231006 220539+01:00 $WIMWV,74.4,R,2.49,N,A*2B
20231006 220539+01:00 $GPRMC,210536,A,4918.7223,N,12306.4142,W,0,336,061023,,,D,V*1B
20231006 220540+01:00 $HCHDT,178.3,T*24
20231006 220541+01:00 $IIMDA,30.1,I,1.019,B,21,C,,C,66.6,,,C,,T,,M,,N,,M*3A
20231006 220541+01:00 $WIMWV,74.09,R,2.49,N,A*16
20231006 220541+01:00 $GPRMC,210538,A,4918.7224,N,12306.4142,W,0,336,061023,,,D,V*12
20231006 220542+01:00 $HCHDT,178.3,T*24
20231006 220543+01:00 $IIMDA,30.1,I,1.019,B,21,C,,C,66.6,,,C,,T,,M,,N,,M*3A
20231006 220543+01:00 $WIMWV,97.09,R,1.98,N,A*14
20231006 220543+01:00 $GPRMC,210540,A,4918.7225,N,12306.4142,W,0,336,061023,,,D,V*1C
20231006 220544+01:00 $HCHDT,178.3,T*24
20231006 220545+01:00 $IIMDA,30.1,I,1.019,B,21,C,,C,66.5,,,C,,T,,M,,N,,M*39
20231006 220545+01:00 $WIMWV,72.99,R,0.99,N,A*16
20231006 220545+01:00 $GPRMC,210542,A,4918.7225,N,12306.4161,W,0,336,061023,,,D,V*1F
20231006 220546+01:00 $HCHDT,178.3,T*24
20231006 220547+01:00 $IIMDA,30.1,I,1.019,B,21,C,,C,66.5,,,C,,T,,M,,N,,M*39
20231006 220547+01:00 $WIMWV,59.79,R,1.4,N,A*24
20231006 220547+01:00 $GPRMC,210544,A,4918.7226,N,12306.4161,W,0,336,061023,,,D,V*1A
20231006 220548+01:00 $HCHDT,178.3,T*24
20231006 220549+01:00 $IIMDA,30.1,I,1.019,B,21,C,,C,66.5,,,C,,T,,M,,N,,M*39
20231006 220549+01:00 $WIMWV,146.6,R,1.69,N,A*18
20231006 220549+01:00 $GPRMC,210546,A,4918.7223,N,12306.4161,W,0,336,061023,,,D,V*1D
20231006 220550+01:00 $HCHDT,178.2,T*25
20231006 220551+01:00 $IIMDA,30.1,I,1.019,B,21,C,,C,66.5,,,C,,T,,M,,N,,M*39
20231006 220551+01:00 $WIMWV,15.4,R,1.28,N,A*28
20231006 220551+01:00 $GPRMC,210548,A,4918.7223,N,12306.4161,W,0,336,061023,,,D,V*13
20231006 220552+01:00 $HCHDT,178.2,T*25
20231006 220553+01:00 $IIMDA,30.1,I,1.019,B,21,C,,C,66.6,,,C,,T,,M,,N,,M*3A
20231006 220553+01:00 $WIMWV,146.89,R,0.49,N,A*2C
20231006 220553+01:00 $GPRMC,210550,A,4918.7223,N,12306.4161,W,0,336,061023,,,D,V*1A
20231006 220554+01:00 $HCHDT,178.2,T*25
20231006 220555+01:00 $IIMDA,30.1,I,1.019,B,21,C,,C,66.6,,,C,,T,,M,,N,,M*3A
20231006 220555+01:00 $WIMWV,269.99,R,0.29,N,A*25
20231006 220555+01:00 $GPRMC,210552,A,4918.7224,N,12306.4160,W,0,336,061023,,,D,V*1E
20231006 220557+01:00 $HCHDT,178.3,T*24
20231006 220557+01:00 $IIMDA,30.1,I,1.019,B,21,C,,C,66.6,,,C,,T,,M,,N,,M*3A
20231006 220557+01:00 $WIMWV,76.09,R,1.5,N,A*2F
20231006 220557+01:00 $GPRMC,210554,A,4918.7224,N,12306.4160,W,0,336,061023,,,D,V*18
20231006 220559+01:00 $HCHDT,178.3,T*24
20231006 220559+01:00 $IIMDA,30.1,I,1.019,B,21,C,,C,66.8,,,C,,T,,M,,N,,M*34
20231006 220559+01:00 $WIMWV,79.7,R,1.28,N,A*21
20231006 220559+01:00 $GPRMC,210556,A,4918.7224,N,12306.4161,W,0,336,061023,,,D,V*1B
20231006 220601+01:00 $HCHDT,178.3,T*24
20231006 220601+01:00 $IIMDA,30.1,I,1.019,B,21.1,C,,C,66.8,,,C,,T,,M,,N,,M*2B
20231006 220601+01:00 $WIMWV,67.9,R,0.58,N,A*26
20231006 220601+01:00 $GPRMC,210558,A,4918.7223,N,12306.4142,W,0,336,061023,,,D,V*13
20231006 220603+01:00 $HCHDT,178.3,T*24
20231006 220603+01:00 $IIMDA,30.1,I,1.019,B,21.1,C,,C,66.8,,,C,,T,,M,,N,,M*2B
20231006 220603+01:00 $WIMWV,338.19,R,0.49,N,A*2E
20231006 220603+01:00 $GPRMC,210600,A,4918.7223,N,12306.4161,W,0,336,061023,,,D,V*1C
20231006 220605+01:00 $HCHDT,178.4,T*23
20231006 220605+01:00 $IIMDA,30.1,I,1.019,B,21.1,C,,C,66.8,,,C,,T,,M,,N,,M*2B
20231006 220605+01:00 $WIMWV,214.29,R,0.8,N,A*17
20231006 220605+01:00 $GPRMC,210602,A,4918.7221,N,12306.4144,W,0,336,061023,,,D,V*1B
20231006 220607+01:00 $HCHDT,178.4,T*23
20231006 220607+01:00 $IIMDA,30.1,I,1.019,B,21.1,C,,C,66.8,,,C,,T,,M,,N,,M*2B
20231006 220607+01:00 $WIMWV,67.29,R,0.58,N,A*14
20231006 220607+01:00 $GPRMC,210604,A,4918.7221,N,12306.4143,W,0,336,061023,,,D,V*1A
20231006 220609+01:00 $HCHDT,178.4,T*23
20231006 220609+01:00 $IIMDA,30.1,I,1.019,B,21.1,C,,C,66.9,,,C,,T,,M,,N,,M*2A
20231006 220609+01:00 $WIMWV,55,R,1.98,N,A*3D
20231006 220609+01:00 $GPRMC,210606,A,4918.7221,N,12306.4144,W,0,336,061023,,,D,V*1F
20231006 220611+01:00 $HCHDT,178.4,T*23
20231006 220611+01:00 $IIMDA,30.1,I,1.019,B,21.1,C,,C,66.9,,,C,,T,,M,,N,,M*2A
20231006 220611+01:00 $WIMWV,26.5,R,1.4,N,A*17
20231006 220611+01:00 $GPRMC,210608,A,4918.7221,N,12306.4144,W,0,336,061023,,,D,V*11
20231006 220613+01:00 $HCHDT,178.4,T*23
20231006 220613+01:00 $IIMDA,30.1,I,1.019,B,21.1,C,,C,66.9,,,C,,T,,M,,N,,M*2A
20231006 220613+01:00 $WIMWV,140.99,R,0.89,N,A*27
20231006 220613+01:00 $GPRMC,210610,A,4918.7221,N,12306.4145,W,0,336,061023,,,D,V*19
20231006 220615+01:00 $HCHDT,178.5,T*22
20231006 220615+01:00 $IIMDA,30.1,I,1.019,B,21.1,C,,C,66.9,,,C,,T,,M,,N,,M*2A
20231006 220615+01:00 $WIMWV,213.39,R,0.39,N,A*23
20231006 220615+01:00 $GPRMC,210612,A,4918.7221,N,12306.4145,W,0,336,061023,,,D,V*1B
20231006 220617+01:00 $HCHDT,178.5,T*22
20231006 220617+01:00 $IIMDA,30.1,I,1.019,B,21.1,C,,C,66.9,,,C,,T,,M,,N,,M*2A
20231006 220617+01:00 $WIMWV,74.4,R,0.58,N,A*29
20231006 220617+01:00 $GPRMC,210614,A,4918.7221,N,12306.4145,W,0,336,061023,,,D,V*1D
20231006 220619+01:00 $HCHDT,178.6,T*21
20231006 220619+01:00 $IIMDA,30.1,I,1.019,B,21.1,C,,C,66.9,,,C,,T,,M,,N,,M*2A
20231006 220619+01:00 $WIMWV,59.4,R,1.79,N,A*24
20231006 220619+01:00 $GPRMC,210616,A,4918.7221,N,12306.4144,W,0,336,061023,,,D,V*1E
20231006 220621+01:00 $HCHDT,178.6,T*21
20231006 220621+01:00 $IIMDA,30.1,I,1.019,B,21.1,C,,C,67,,,C,,T,,M,,N,,M*3C
20231006 220621+01:00 $WIMWV,60.5,R,2.49,N,A*2F
20231006 220621+01:00 $GPRMC,210618,A,4918.7229,N,12306.4161,W,0,336,061023,,,D,V*1F
20231006 220623+01:00 $HCHDT,178.6,T*21
20231006 220623+01:00 $IIMDA,30.1,I,1.019,B,21.1,C,,C,67,,,C,,T,,M,,N,,M*3C
20231006 220623+01:00 $WIMWV,55,R,3.09,N,A*37
20231006 220623+01:00 $GPRMC,210620,A,4918.7229,N,12306.4161,W,0,336,061023,,,D,V*14
20231006 220625+01:00 $HCHDT,178.6,T*21
20231006 220625+01:00 $IIMDA,30.1,I,1.019,B,21.1,C,,C,67,,,C,,T,,M,,N,,M*3C
20231006 220625+01:00 $WIMWV,62.1,R,1.89,N,A*26
20231006 220625+01:00 $GPRMC,210622,A,4918.7229,N,12306.4142,W,0,336,061023,,,D,V*17
20231006 220627+01:00 $HCHDT,178.6,T*21
20231006 220627+01:00 $IIMDA,30.1,I,1.019,B,21.1,C,,C,67,,,C,,T,,M,,N,,M*3C
20231006 220627+01:00 $WIMWV,0.19,R,0.29,N,A*20
20231006 220627+01:00 $GPRMC,210624,A,4918.7229,N,12306.4142,W,0,336,061023,,,D,V*11
20231006 220629+01:00 $HCHDT,178.6,T*21
20231006 220629+01:00 $IIMDA,30.1,I,1.019,B,21.1,C,,C,67,,,C,,T,,M,,N,,M*3C
20231006 220629+01:00 $WIMWV,135.8,R,0.29,N,A*17
20231006 220629+01:00 $GPRMC,210626,A,4918.7230,N,12306.4142,W,0,336,061023,,,D,V*1B
20231006 220631+01:00 $HCHDT,178.5,T*22
20231006 220631+01:00 $IIMDA,30.1,I,1.019,B,21.1,C,,C,67.1,,,C,,T,,M,,N,,M*23
20231006 220631+01:00 $WIMWV,58.4,R,0.49,N,A*27
20231006 220631+01:00 $GPRMC,210628,A,4918.7230,N,12306.4142,W,0,336,061023,,,D,V*15
20231006 220633+01:00 $HCHDT,178.5,T*22
20231006 220633+01:00 $IIMDA,30.1,I,1.019,B,21.1,C,,C,67.1,,,C,,T,,M,,N,,M*23
20231006 220633+01:00 $WIMWV,147.59,R,0.49,N,A*20
20231006 220633+01:00 $GPRMC,210630,A,4918.7230,N,12306.4142,W,0,336,061023,,,D,V*1C
20231006 220635+01:00 $HCHDT,178.5,T*22
20231006 220635+01:00 $IIMDA,30.1,I,1.019,B,21.1,C,,C,67.1,,,C,,T,,M,,N,,M*23
20231006 220635+01:00 $WIMWV,64.5,R,0.99,N,A*24
20231006 220635+01:00 $GPRMC,210632,A,4918.7230,N,12306.4161,W,0,336,061023,,,D,V*1F
20231006 220637+01:00 $HCHDT,178.4,T*23
20231006 220637+01:00 $IIMDA,30.1,I,1.019,B,21.2,C,,C,67.1,,,C,,T,,M,,N,,M*20
20231006 220637+01:00 $WIMWV,107.3,R,0.8,N,A*2E
20231006 220637+01:00 $GPRMC,210634,A,4918.7230,N,12306.4161,W,0,336,061023,,,D,V*19
20231006 220639+01:00 $HCHDT,178.4,T*23
20231006 220639+01:00 $IIMDA,30.1,I,1.019,B,21.2,C,,C,67.1,,,C,,T,,M,,N,,M*20
20231006 220639+01:00 $WIMWV,165.89,R,1.69,N,A*2E
20231006 220639+01:00 $GPRMC,210636,A,4918.7231,N,12306.4161,W,0,336,061023,,,D,V*1A
20231006 220641+01:00 $HCHDT,178.3,T*24
20231006 220641+01:00 $IIMDA,30.1,I,1.019,B,21.2,C,,C,67.1,,,C,,T,,M,,N,,M*20
20231006 220641+01:00 $WIMWV,188.19,R,1.69,N,A*24
20231006 220641+01:00 $GPRMC,210638,A,4918.7232,N,12306.4142,W,0,336,061023,,,D,V*16
20231006 220643+01:00 $HCHDT,178.3,T*24
20231006 220643+01:00 $IIMDA,30.1,I,1.019,B,21.2,C,,C,67.1,,,C,,T,,M,,N,,M*20
20231006 220643+01:00 $WIMWV,176.69,R,2.68,N,A*20
20231006 220643+01:00 $GPRMC,210640,A,4918.7232,N,12306.4161,W,0,336,061023,,,D,V*18
20231006 220645+01:00 $HCHDT,178.3,T*24
20231006 220645+01:00 $IIMDA,30.1,I,1.019,B,21.2,C,,C,67.1,,,C,,T,,M,,N,,M*20
20231006 220645+01:00 $WIMWV,161.49,R,4.49,N,A*21
20231006 220645+01:00 $GPRMC,210642,A,4918.7232,N,12306.4160,W,0,336,061023,,,D,V*1B
20231006 220647+01:00 $HCHDT,178.2,T*25
20231006 220647+01:00 $IIMDA,30.1,I,1.019,B,21.2,C,,C,67,,,C,,T,,M,,N,,M*3F
20231006 220647+01:00 $WIMWV,177.5,R,3.6,N,A*22
20231006 220647+01:00 $GPRMC,210644,A,4918.7232,N,12306.4160,W,0,336,061023,,,D,V*1D
20231006 220649+01:00 $HCHDT,178.3,T*24
20231006 220649+01:00 $IIMDA,30.1,I,1.019,B,21.2,C,,C,66.7,,,C,,T,,M,,N,,M*27
20231006 220649+01:00 $WIMWV,123.5,R,5,N,A*3D
20231006 220649+01:00 $GPRMC,210646,A,4918.7232,N,12306.4161,W,0,336,061023,,,D,V*1E
20231006 220651+01:00 $HCHDT,178.3,T*24
20231006 220651+01:00 $IIMDA,30.1,I,1.019,B,21.2,C,,C,66.6,,,C,,T,,M,,N,,M*26
20231006 220651+01:00 $WIMWV,125,R,1.79,N,A*04
20231006 220651+01:00 $GPRMC,210648,A,4918.7232,N,12306.4161,W,0,336,061023,,,D,V*10
20231006 220653+01:00 $HCHDT,178.3,T*24
20231006 220653+01:00 $IIMDA,30.1,I,1.019,B,21.2,C,,C,66.4,,,C,,T,,M,,N,,M*24
20231006 220653+01:00 $WIMWV,157.4,R,4.49,N,A*1D
20231006 220653+01:00 $GPRMC,210650,A,4918.7232,N,12306.4161,W,0,336,061023,,,D,V*19
20231006 220655+01:00 $HCHDT,178.3,T*24
20231006 220655+01:00 $IIMDA,30.1,I,1.019,B,21.2,C,,C,66.2,,,C,,T,,M,,N,,M*22
20231006 220655+01:00 $WIMWV,151.09,R,3.19,N,A*24
20231006 220655+01:00 $GPRMC,210652,A,4918.7232,N,12306.4160,W,0,336,061023,,,D,V*1A
20231006 220656+01:00 $HCHDT,178.3,T*24
20231006 220657+01:00 $IIMDA,30.1,I,1.019,B,21.2,C,,C,66,,,C,,T,,M,,N,,M*3E
20231006 220657+01:00 $WIMWV,119.59,R,5.89,N,A*22
20231006 220657+01:00 $GPRMC,210654,A,4918.7232,N,12306.4159,W,0,336,061023,,,D,V*16
20231006 220658+01:00 $HCHDT,178.3,T*24
20231006 220659+01:00 $IIMDA,30.1,I,1.019,B,21.2,C,,C,65.9,,,C,,T,,M,,N,,M*2A
20231006 220659+01:00 $WIMWV,114.99,R,3.5,N,A*11
20231006 220659+01:00 $GPRMC,210656,A,4918.7231,N,12306.4159,W,0,336,061023,,,D,V*17
20231006 220700+01:00 $HCHDT,178.3,T*24
20231006 220701+01:00 $IIMDA,30.1,I,1.019,B,21.2,C,,C,65.9,,,C,,T,,M,,N,,M*2A
20231006 220701+01:00 $WIMWV,108.2,R,3.6,N,A*2D
20231006 220701+01:00 $GPRMC,210658,A,4918.7230,N,12306.4160,W,0,336,061023,,,D,V*12
20231006 220702+01:00 $HCHDT,178.3,T*24
20231006 220703+01:00 $IIMDA,30.1,I,1.019,B,21.2,C,,C,65.9,,,C,,T,,M,,N,,M*2A
20231006 220703+01:00 $WIMWV,110.49,R,2.39,N,A*26
20231006 220703+01:00 $GPRMC,210700,A,4918.7230,N,12306.4160,W,0,336,061023,,,D,V*1E
20231006 220704+01:00 $HCHDT,178.2,T*25
20231006 220705+01:00 $IIMDA,30.1,I,1.019,B,21.1,C,,C,65.8,,,C,,T,,M,,N,,M*28
20231006 220705+01:00 $WIMWV,106.79,R,2.8,N,A*10
20231006 220705+01:00 $GPRMC,210702,A,4918.7231,N,12306.4159,W,0,336,061023,,,D,V*17
20231006 220706+01:00 $HCHDT,178.2,T*25
20231006 220707+01:00 $IIMDA,30.1,I,1.019,B,21.1,C,,C,65.9,,,C,,T,,M,,N,,M*29
20231006 220707+01:00 $WIMWV,117.19,R,3.38,N,A*24
20231006 220707+01:00 $GPRMC,210704,A,4918.7230,N,12306.4159,W,0,336,061023,,,D,V*10
20231006 220708+01:00 $HCHDT,178.2,T*25
20231006 220709+01:00 $IIMDA,30.1,I,1.019,B,21.1,C,,C,66,,,C,,T,,M,,N,,M*3D
20231006 220709+01:00 $WIMWV,118.6,R,3.38,N,A*15
20231006 220709+01:00 $GPRMC,210706,A,4918.7230,N,12306.4159,W,0,336,061023,,,D,V*12
20231006 220710+01:00 $HCHDT,178.2,T*25
20231006 220711+01:00 $IIMDA,30.1,I,1.019,B,21.1,C,,C,66,,,C,,T,,M,,N,,M*3D
20231006 220711+01:00 $WIMWV,103.89,R,2.8,N,A*1A
20231006 220711+01:00 $GPRMC,210708,A,4918.7230,N,12306.4159,W,0,336,061023,,,D,V*1C
20231006 220712+01:00 $HCHDT,178.2,T*25
20231006 220713+01:00 $IIMDA,30.1,I,1.019,B,21.1,C,,C,66,,,C,,T,,M,,N,,M*3D
20231006 220713+01:00 $WIMWV,111.6,R,1.98,N,A*14
20231006 220713+01:00 $GPRMC,210710,A,4918.7230,N,12306.4159,W,0,336,061023,,,D,V*15
20231006 220714+01:00 $HCHDT,178.2,T*25
20231006 220715+01:00 $IIMDA,30.1,I,1.019,B,21.1,C,,C,66,,,C,,T,,M,,N,,M*3D
20231006 220715+01:00 $WIMWV,120.2,R,0.7,N,A*25
20231006 220715+01:00 $GPRMC,210712,A,4918.7231,N,12306.4159,W,0,336,061023,,,D,V*16
20231006 220716+01:00 $HCHDT,178.2,T*25
20231006 220717+01:00 $IIMDA,30.1,I,1.019,B,21.1,C,,C,66.1,,,C,,T,,M,,N,,M*22
20231006 220717+01:00 $WIMWV,120.69,R,2.1,N,A*1C
20231006 220717+01:00 $GPRMC,210714,A,4918.7232,N,12306.4159,W,0,336,061023,,,D,V*13
20231006 220718+01:00 $HCHDT,178.2,T*25
20231006 220719+01:00 $IIMDA,30.1,I,1.019,B,21.1,C,,C,66.1,,,C,,T,,M,,N,,M*22
20231006 220719+01:00 $WIMWV,136,R,2.39,N,A*01
20231006 220719+01:00 $GPRMC,210716,A,4918.7231,N,12306.4159,W,0,336,061023,,,D,V*12
20231006 220720+01:00 $HCHDT,178.2,T*25
20231006 220721+01:00 $IIMDA,30.1,I,1.019,B,21.1,C,,C,66.1,,,C,,T,,M,,N,,M*22
20231006 220721+01:00 $WIMWV,154.39,R,2.1,N,A*1A
20231006 220721+01:00 $GPRMC,210718,A,4918.7231,N,12306.4159,W,0,336,061023,,,D,V*1C
20231006 220722+01:00 $HCHDT,178.2,T*25
20231006 220723+01:00 $IIMDA,30.1,I,1.019,B,21.1,C,,C,66.1,,,C,,T,,M,,N,,M*22
20231006 220723+01:00 $WIMWV,152.8,R,2.39,N,A*15
20231006 220723+01:00 $GPRMC,210720,A,4918.7222,N,12306.4142,W,0,336,061023,,,D,V*1F
20231006 220724+01:00 $HCHDT,178.2,T*25
20231006 220725+01:00 $IIMDA,30.1,I,1.019,B,21.1,C,,C,66.2,,,C,,T,,M,,N,,M*21
20231006 220725+01:00 $WIMWV,109.39,R,2.1,N,A*12
20231006 220725+01:00 $GPRMC,210722,A,4918.7224,N,12306.4142,W,0,336,061023,,,D,V*1B
20231006 220726+01:00 $HCHDT,178.3,T*24
20231006 220727+01:00 $IIMDA,30.1,I,1.019,B,21.1,C,,C,66.2,,,C,,T,,M,,N,,M*21
20231006 220727+01:00 $WIMWV,126.5,R,2.49,N,A*1C
20231006 220727+01:00 $GPRMC,210724,A,4918.7224,N,12306.4143,W,0,336,061023,,,D,V*1C
20231006 220728+01:00 $HCHDT,178.3,T*24
20231006 220729+01:00 $IIMDA,30.1,I,1.019,B,21.1,C,,C,66.2,,,C,,T,,M,,N,,M*21
20231006 220729+01:00 $WIMWV,118.4,R,2.1,N,A*2C
20231006 220729+01:00 $GPRMC,210726,A,4918.7225,N,12306.4161,W,0,336,061023,,,D,V*1F
20231006 220730+01:00 $HCHDT,178.3,T*24
20231006 220731+01:00 $IIMDA,30.1,I,1.019,B,21.1,C,,C,66.2,,,C,,T,,M,,N,,M*21
20231006 220731+01:00 $WIMWV,115.39,R,3.5,N,A*1A
20231006 220731+01:00 $GPRMC,210728,A,4918.7223,N,12306.4161,W,0,336,061023,,,D,V*17
20231006 220732+01:00 $HCHDT,178.4,T*23
20231006 220733+01:00 $IIMDA,30.1,I,1.019,B,21.1,C,,C,66.2,,,C,,T,,M,,N,,M*21
20231006 220733+01:00 $WIMWV,108.2,R,4.3,N,A*2F
20231006 220733+01:00 $GPRMC,210730,A,4918.7223,N,12306.4161,W,0,336,061023,,,D,V*1E
20231006 220734+01:00 $HCHDT,178.5,T*22
20231006 220735+01:00 $IIMDA,30.1,I,1.019,B,21.1,C,,C,66.2,,,C,,T,,M,,N,,M*21
20231006 220735+01:00 $WIMWV,88.29,R,3.19,N,A*13
20231006 220735+01:00 $GPRMC,210732,A,4918.7223,N,12306.4161,W,0,336,061023,,,D,V*1C
20231006 220736+01:00 $HCHDT,178.5,T*22
20231006 220737+01:00 $IIMDA,30.1,I,1.019,B,21.1,C,,C,66.2,,,C,,T,,M,,N,,M*21
20231006 220737+01:00 $WIMWV,59.2,R,2.49,N,A*22
20231006 220737+01:00 $GPRMC,210734,A,4918.7225,N,12306.4161,W,0,336,061023,,,D,V*1C
20231006 220738+01:00 $HCHDT,178.5,T*22
20231006 220739+01:00 $IIMDA,30.1,I,1.019,B,21.1,C,,C,66.3,,,C,,T,,M,,N,,M*20
20231006 220739+01:00 $WIMWV,104.99,R,1.5,N,A*12
20231006 220739+01:00 $GPRMC,210736,A,4918.7225,N,12306.4160,W,0,336,061023,,,D,V*1F
20231006 220740+01:00 $HCHDT,178.5,T*22
20231006 220741+01:00 $IIMDA,30.1,I,1.019,B,21.1,C,,C,66.3,,,C,,T,,M,,N,,M*20
20231006 220741+01:00 $WIMWV,63.2,R,3.6,N,A*11
20231006 220741+01:00 $GPRMC,210738,A,4918.7225,N,12306.4160,W,0,336,061023,,,D,V*11
20231006 220742+01:00 $HCHDT,178.6,T*21
20231006 220743+01:00 $IIMDA,30.1,I,1.019,B,21.1,C,,C,66.4,,,C,,T,,M,,N,,M*27
20231006 220743+01:00 $WIMWV,76.9,R,2.9,N,A*10
20231006 220743+01:00 $GPRMC,210740,A,4918.7222,N,12306.4160,W,0,336,061023,,,D,V*19
20231006 220744+01:00 $HCHDT,178.6,T*21
20231006 220745+01:00 $IIMDA,30.1,I,1.019,B,21.1,C,,C,66.4,,,C,,T,,M,,N,,M*27
20231006 220745+01:00 $WIMWV,110.09,R,2.2,N,A*1A
20231006 220745+01:00 $GPRMC,210742,A,4918.7222,N,12306.4160,W,0,336,061023,,,D,V*1B
20231006 220746+01:00 $HCHDT,178.6,T*21
20231006 220747+01:00 $IIMDA,30.1,I,1.019,B,21.1,C,,C,66.4,,,C,,T,,M,,N,,M*27
20231006 220747+01:00 $WIMWV,114.69,R,1.79,N,A*27
20231006 220747+01:00 $GPRMC,210744,A,4918.7221,N,12306.4160,W,0,336,061023,,,D,V*1E
20231006 220748+01:00 $HCHDT,178.5,T*22
20231006 220749+01:00 $IIMDA,30.1,I,1.019,B,21.1,C,,C,66.4,,,C,,T,,M,,N,,M*27
20231006 220749+01:00 $WIMWV,118.89,R,2.9,N,A*11
20231006 220749+01:00 $GPRMC,210746,A,4918.7223,N,12306.4159,W,0,336,061023,,,D,V*14
20231006 220750+01:00 $HCHDT,178.5,T*22
20231006 220751+01:00 $IIMDA,30.1,I,1.019,B,21.1,C,,C,66.4,,,C,,T,,M,,N,,M*27
20231006 220751+01:00 $WIMWV,100.19,R,2.49,N,A*25
20231006 220751+01:00 $GPRMC,210748,A,4918.7223,N,12306.4159,W,0,336,061023,,,D,V*1A
20231006 220752+01:00 $HCHDT,178.5,T*22
20231006 220753+01:00 $IIMDA,30.1,I,1.019,B,21.1,C,,C,66.5,,,C,,T,,M,,N,,M*26
20231006 220753+01:00 $WIMWV,117.79,R,3.98,N,A*28
20231006 220753+01:00 $GPRMC,210750,A,4918.7223,N,12306.4158,W,0,336,061023,,,D,V*12
20231006 220754+01:00 $HCHDT,178.5,T*22
20231006 220755+01:00 $IIMDA,30.1,I,1.019,B,21.1,C,,C,66.4,,,C,,T,,M,,N,,M*27
20231006 220755+01:00 $WIMWV,111.3,R,3.5,N,A*27
20231006 220755+01:00 $GPRMC,210752,A,4918.7221,N,12306.4158,W,0,336,061023,,,D,V*12
20231006 220756+01:00 $HCHDT,178.5,T*22
20231006 220757+01:00 $IIMDA,30.1,I,1.019,B,21.1,C,,C,66.4,,,C,,T,,M,,N,,M*27
20231006 220757+01:00 $WIMWV,114.09,R,2.29,N,A*27
20231006 220757+01:00 $GPRMC,210754,A,4918.7221,N,12306.4158,W,0,336,061023,,,D,V*14
20231006 220758+01:00 $HCHDT,178.4,T*23
