20220705 090001+00:00 $IIMDA,29.9,I,1.013,B,13.9,C,,C,87.5,,,C,,T,,M,,N,,M*2A
20220705 090001+00:00 $GPRMC,085956,A,4905.2500,N,12323.2998,W,6.01,315,050722,11.8,E,A,V*64
20220705 090001+00:00 $HCHDT,322.6,T*2C
20220705 090001+00:00 $WIMWV,338.49,R,2.2,N,A*16
20220705 090003+00:00 $IIMDA,29.9,I,1.013,B,13.9,C,,C,87.5,,,C,,T,,M,,N,,M*2A
20220705 090003+00:00 $GPRMC,085958,A,4905.2500,N,12323.2998,W,6.01,315,050722,11.8,E,A,V*6A
20220705 090003+00:00 $HCHDT,323.1,T*2A
20220705 090003+00:00 $WIMWV,5.9,R,2.1,N,A*2C
20220705 090005+00:00 $IIMDA,29.9,I,1.013,B,13.9,C,,C,87.5,,,C,,T,,M,,N,,M*2A
20220705 090005+00:00 $GPRMC,090000,A,4905.2500,N,12323.2998,W,6.01,315,050722,11.8,E,A,V*6A
20220705 090005+00:00 $HCHDT,323.4,T*2F
20220705 090005+00:00 $WIMWV,353.69,R,4.49,N,A*20
20220705 090007+00:00 $IIMDA,29.9,I,1.013,B,13.9,C,,C,87.5,,,C,,T,,M,,N,,M*2A
20220705 090007+00:00 $GPRMC,090002,A,4905.2500,N,12323.3100,W,6.01,316,050722,11.8,E,A,V*63
20220705 090007+00:00 $HCHDT,323.8,T*23
20220705 090007+00:00 $WIMWV,347.49,R,4.3,N,A*19
20220705 090009+00:00 $IIMDA,29.9,I,1.013,B,13.9,C,,C,87.5,,,C,,T,,M,,N,,M*2A
20220705 090009+00:00 $GPRMC,090004,A,4905.2596,N,12323.3100,W,6.01,316,050722,11.8,E,A,V*6A
20220705 090009+00:00 $HCHDT,324,T*32
20220705 090009+00:00 $WIMWV,18,R,3.38,N,A*3C
20220705 090011+00:00 $IIMDA,29.9,I,1.013,B,13.9,C,,C,87.6,,,C,,T,,M,,N,,M*29
20220705 090011+00:00 $GPRMC,090006,A,4905.2596,N,12323.3100,W,6.01,316,050722,11.8,E,A,V*68
20220705 090011+00:00 $HCHDT,324,T*32
20220705 090011+00:00 $WIMWV,352.99,R,4.3,N,A*10
20220705 090013+00:00 $IIMDA,29.9,I,1.013,B,13.9,C,,C,87.6,,,C,,T,,M,,N,,M*29
20220705 090013+00:00 $GPRMC,090008,A,4905.2596,N,12323.3196,W,6.01,317,050722,11.8,E,A,V*68
20220705 090013+00:00 $HCHDT,323.8,T*23
20220705 090013+00:00 $WIMWV,359.39,R,5,N,A*0D
20220705 090015+00:00 $IIMDA,29.9,I,1.013,B,13.9,C,,C,87.5,,,C,,T,,M,,N,,M*2A
20220705 090015+00:00 $GPRMC,090010,A,4905.2596,N,12323.3196,W,6.01,317,050722,11.8,E,A,V*61
20220705 090015+00:00 $HCHDT,323.7,T*2C
20220705 090015+00:00 $WIMWV,2.19,R,4.9,N,A*14
20220705 090017+00:00 $IIMDA,29.9,I,1.013,B,13.9,C,,C,87.5,,,C,,T,,M,,N,,M*2A
20220705 090017+00:00 $GPRMC,090012,A,4905.2698,N,12323.3196,W,6.01,317,050722,11.8,E,A,V*6E
20220705 090017+00:00 $HCHDT,323.7,T*2C
20220705 090017+00:00 $WIMWV,354.29,R,3.29,N,A*22
20220705 090019+00:00 $IIMDA,29.9,I,1.013,B,13.9,C,,C,87.5,,,C,,T,,M,,N,,M*2A
20220705 090019+00:00 $GPRMC,090014,A,4905.2698,N,12323.3298,W,6.1,317,050722,11.8,E,A,V*55
20220705 090019+00:00 $HCHDT,323.5,T*2E
20220705 090019+00:00 $WIMWV,0.19,R,5,N,A*00
20220705 090021+00:00 $IIMDA,29.9,I,1.013,B,13.9,C,,C,87.5,,,C,,T,,M,,N,,M*2A
20220705 090021+00:00 $GPRMC,090016,A,4905.2698,N,12323.3298,W,6.1,317,050722,11.8,E,A,V*57
20220705 090021+00:00 $HCHDT,323.4,T*2F
20220705 090021+00:00 $WIMWV,358.59,R,4.2,N,A*17
20220705 090023+00:00 $IIMDA,29.9,I,1.013,B,13.9,C,,C,87.5,,,C,,T,,M,,N,,M*2A
20220705 090023+00:00 $GPRMC,090018,A,4905.2698,N,12323.3400,W,6.1,317,050722,11.8,E,A,V*5E
20220705 090023+00:00 $HCHDT,323.2,T*29
20220705 090023+00:00 $WIMWV,339.89,R,3.5,N,A*1D
20220705 090025+00:00 $IIMDA,29.9,I,1.013,B,13.9,C,,C,87.4,,,C,,T,,M,,N,,M*2B
20220705 090025+00:00 $GPRMC,090020,A,4905.2800,N,12323.3400,W,6.1,317,050722,11.8,E,A,V*5A
20220705 090025+00:00 $HCHDT,323,T*35
20220705 090025+00:00 $WIMWV,28.7,R,2.9,N,A*15
20220705 090027+00:00 $IIMDA,29.9,I,1.013,B,13.9,C,,C,87.4,,,C,,T,,M,,N,,M*2B
20220705 090027+00:00 $GPRMC,090022,A,4905.2800,N,12323.3400,W,6.1,317,050722,11.8,E,A,V*58
20220705 090027+00:00 $HCHDT,322.8,T*22
20220705 090027+00:00 $WIMWV,2.6,R,4.39,N,A*19
20220705 090029+00:00 $IIMDA,29.9,I,1.013,B,13.9,C,,C,87.4,,,C,,T,,M,,N,,M*2B
20220705 090029+00:00 $GPRMC,090024,A,4905.2800,N,12323.3496,W,6.1,317,050722,11.8,E,A,V*51
20220705 090029+00:00 $HCHDT,322.8,T*22
20220705 090029+00:00 $WIMWV,355.69,R,4.59,N,A*27
20220705 090031+00:00 $IIMDA,29.9,I,1.013,B,13.9,C,,C,87.4,,,C,,T,,M,,N,,M*2B
20220705 090031+00:00 $GPRMC,090026,A,4905.2800,N,12323.3496,W,6.1,316,050722,11.8,E,A,V*52
20220705 090031+00:00 $HCHDT,322.7,T*2D
20220705 090031+00:00 $WIMWV,345.79,R,2.29,N,A*26
20220705 090033+00:00 $IIMDA,29.9,I,1.013,B,13.9,C,,C,87.4,,,C,,T,,M,,N,,M*2B
20220705 090033+00:00 $GPRMC,090028,A,4905.2896,N,12323.3496,W,6.1,316,050722,11.8,E,A,V*53
20220705 090033+00:00 $HCHDT,322.8,T*22
20220705 090033+00:00 $WIMWV,355.79,R,2.2,N,A*1E
20220705 090035+00:00 $IIMDA,29.9,I,1.013,B,13.9,C,,C,87.4,,,C,,T,,M,,N,,M*2B
20220705 090035+00:00 $GPRMC,090030,A,4905.2896,N,12323.3598,W,6.1,316,050722,11.8,E,A,V*55
20220705 090035+00:00 $HCHDT,322.8,T*22
20220705 090035+00:00 $WIMWV,341.89,R,2.68,N,A*28
20220705 090037+00:00 $IIMDA,29.9,I,1.013,B,13.9,C,,C,87.3,,,C,,T,,M,,N,,M*2C
20220705 090037+00:00 $GPRMC,090032,A,4905.2896,N,12323.3598,W,6.1,316,050722,11.8,E,A,V*57
20220705 090037+00:00 $HCHDT,322.8,T*22
20220705 090037+00:00 $WIMWV,16.6,R,1.79,N,A*2D
20220705 090039+00:00 $IIMDA,29.9,I,1.013,B,13.9,C,,C,87.4,,,C,,T,,M,,N,,M*2B
20220705 090039+00:00 $GPRMC,090034,A,4905.2896,N,12323.3598,W,6.1,316,050722,11.8,E,A,V*51
20220705 090039+00:00 $HCHDT,322.8,T*22
20220705 090039+00:00 $WIMWV,337.19,R,4.08,N,A*20
20220705 090041+00:00 $IIMDA,29.9,I,1.013,B,13.9,C,,C,87.4,,,C,,T,,M,,N,,M*2B
20220705 090041+00:00 $GPRMC,090036,A,4905.2998,N,12323.3700,W,6.1,316,050722,11.8,E,A,V*5F
20220705 090041+00:00 $HCHDT,322.6,T*2C
20220705 090041+00:00 $WIMWV,343.69,R,3.79,N,A*25
20220705 090043+00:00 $IIMDA,29.9,I,1.013,B,13.9,C,,C,87.3,,,C,,T,,M,,N,,M*2C
20220705 090043+00:00 $GPRMC,090038,A,4905.2998,N,12323.3700,W,6.1,316,050722,11.8,E,A,V*51
20220705 090043+00:00 $HCHDT,322.5,T*2F
20220705 090043+00:00 $WIMWV,0.19,R,2.49,N,A*24
20220705 090045+00:00 $IIMDA,29.9,I,1.013,B,13.9,C,,C,87.3,,,C,,T,,M,,N,,M*2C
20220705 090045+00:00 $GPRMC,090040,A,4905.2998,N,12323.3700,W,6.1,316,050722,11.8,E,A,V*5E
20220705 090045+00:00 $HCHDT,322.4,T*2E
20220705 090045+00:00 $WIMWV,354.89,R,3.89,N,A*22
20220705 090047+00:00 $IIMDA,29.9,I,1.013,B,13.9,C,,C,87.4,,,C,,T,,M,,N,,M*2B
20220705 090047+00:00 $GPRMC,090042,A,4905.2998,N,12323.3796,W,6.1,316,050722,11.8,E,A,V*53
20220705 090047+00:00 $HCHDT,322.4,T*2E
20220705 090047+00:00 $WIMWV,15.4,R,1.09,N,A*2B
20220705 090049+00:00 $IIMDA,29.9,I,1.013,B,13.9,C,,C,87.4,,,C,,T,,M,,N,,M*2B
20220705 090049+00:00 $GPRMC,090044,A,4905.2998,N,12323.3796,W,6.1,316,050722,11.8,E,A,V*55
20220705 090049+00:00 $HCHDT,322.4,T*2E
20220705 090049+00:00 $WIMWV,344.89,R,3.29,N,A*29
20220705 090051+00:00 $IIMDA,29.9,I,1.013,B,13.9,C,,C,87.4,,,C,,T,,M,,N,,M*2B
20220705 090051+00:00 $GPRMC,090046,A,4905.3100,N,12323.3898,W,6.1,316,050722,11.8,E,A,V*5E
20220705 090051+00:00 $HCHDT,322.6,T*2C
20220705 090051+00:00 $WIMWV,5.3,R,3.19,N,A*1E
20220705 090053+00:00 $IIMDA,29.9,I,1.013,B,13.9,C,,C,87.3,,,C,,T,,M,,N,,M*2C
20220705 090053+00:00 $GPRMC,090048,A,4905.3100,N,12323.3898,W,6.01,316,050722,11.8,E,A,V*60
20220705 090053+00:00 $HCHDT,322.8,T*22
20220705 090053+00:00 $WIMWV,10.5,R,1.59,N,A*2A
20220705 090055+00:00 $IIMDA,29.9,I,1.013,B,13.9,C,,C,87.4,,,C,,T,,M,,N,,M*2B
20220705 090055+00:00 $GPRMC,090050,A,4905.3100,N,12323.3898,W,6.01,316,050722,11.8,E,A,V*69
20220705 090055+00:00 $HCHDT,323.1,T*2A
20220705 090055+00:00 $WIMWV,339.39,R,3.09,N,A*2A
20220705 090057+00:00 $IIMDA,29.9,I,1.013,B,13.9,C,,C,87.4,,,C,,T,,M,,N,,M*2B
20220705 090057+00:00 $GPRMC,090052,A,4905.3100,N,12323.4000,W,6.01,316,050722,11.8,E,A,V*65
20220705 090057+00:00 $HCHDT,323.4,T*2F
20220705 090057+00:00 $WIMWV,345.39,R,3.29,N,A*23
20220705 090059+00:00 $IIMDA,29.9,I,1.013,B,13.9,C,,C,87.4,,,C,,T,,M,,N,,M*2B
20220705 090059+00:00 $GPRMC,090054,A,4905.3196,N,12323.4000,W,6.01,316,050722,11.8,E,A,V*6C
20220705 090059+00:00 $HCHDT,323.6,T*2D
20220705 090059+00:00 $WIMWV,343.99,R,3.89,N,A*25
20220705 090101+00:00 $IIMDA,29.9,I,1.013,B,13.9,C,,C,87.4,,,C,,T,,M,,N,,M*2B
20220705 090101+00:00 $GPRMC,090056,A,4905.3196,N,12323.4000,W,6.01,316,050722,11.8,E,A,V*6E
20220705 090101+00:00 $HCHDT,323.7,T*2C
20220705 090101+00:00 $WIMWV,358.49,R,3.38,N,A*28
20220705 090103+00:00 $IIMDA,29.9,I,1.013,B,13.9,C,,C,87.4,,,C,,T,,M,,N,,M*2B
20220705 090103+00:00 $GPRMC,090058,A,4905.3196,N,12323.4096,W,6.01,317,050722,11.8,E,A,V*6E
20220705 090103+00:00 $HCHDT,323.8,T*23
20220705 090103+00:00 $WIMWV,341.59,R,3.79,N,A*24
20220705 090105+00:00 $IIMDA,29.9,I,1.013,B,13.9,C,,C,87.4,,,C,,T,,M,,N,,M*2B
20220705 090105+00:00 $GPRMC,090100,A,4905.3196,N,12323.4096,W,6.01,317,050722,11.8,E,A,V*62
20220705 090105+00:00 $HCHDT,323.8,T*23
20220705 090105+00:00 $WIMWV,0.19,R,3.98,N,A*29
20220705 090107+00:00 $IIMDA,29.9,I,1.013,B,13.9,C,,C,87.4,,,C,,T,,M,,N,,M*2B
20220705 090107+00:00 $GPRMC,090102,A,4905.3298,N,12323.4096,W,6.01,317,050722,11.8,E,A,V*6D
20220705 090107+00:00 $HCHDT,323.7,T*2C
20220705 090107+00:00 $WIMWV,340.79,R,3.19,N,A*21
20220705 090109+00:00 $IIMDA,29.9,I,1.013,B,13.9,C,,C,87.4,,,C,,T,,M,,N,,M*2B
20220705 090109+00:00 $GPRMC,090104,A,4905.3298,N,12323.4198,W,6.01,317,050722,11.8,E,A,V*64
20220705 090109+00:00 $HCHDT,323.6,T*2D
20220705 090109+00:00 $WIMWV,357.19,R,3.09,N,A*20
20220705 090111+00:00 $IIMDA,29.9,I,1.013,B,13.9,C,,C,87.4,,,C,,T,,M,,N,,M*2B
20220705 090111+00:00 $GPRMC,090106,A,4905.3298,N,12323.4198,W,6.01,317,050722,11.8,E,A,V*66
20220705 090111+00:00 $HCHDT,323.5,T*2E
20220705 090111+00:00 $WIMWV,349.39,R,2.49,N,A*28
20220705 090113+00:00 $IIMDA,29.9,I,1.013,B,13.9,C,,C,87.4,,,C,,T,,M,,N,,M*2B
20220705 090113+00:00 $GPRMC,090108,A,4905.3298,N,12323.4198,W,6.01,317,050722,11.8,E,A,V*68
20220705 090113+00:00 $HCHDT,323.5,T*2E
20220705 090113+00:00 $WIMWV,351.99,R,3.19,N,A*2F
20220705 090115+00:00 $IIMDA,29.9,I,1.013,B,13.9,C,,C,87.4,,,C,,T,,M,,N,,M*2B
20220705 090115+00:00 $GPRMC,090110,A,4905.3400,N,12323.4300,W,6.01,317,050722,11.8,E,A,V*65
20220705 090115+00:00 $HCHDT,323.4,T*2F
20220705 090115+00:00 $WIMWV,4.3,R,2.9,N,A*2F
20220705 090117+00:00 $IIMDA,29.9,I,1.013,B,13.9,C,,C,87.4,,,C,,T,,M,,N,,M*2B
20220705 090117+00:00 $GPRMC,090112,A,4905.3400,N,12323.4300,W,6.1,316,050722,11.8,E,A,V*56
20220705 090117+00:00 $HCHDT,323.4,T*2F
20220705 090117+00:00 $WIMWV,342.29,R,3.79,N,A*20
20220705 090119+00:00 $IIMDA,29.9,I,1.013,B,13.9,C,,C,87.4,,,C,,T,,M,,N,,M*2B
20220705 090119+00:00 $GPRMC,090114,A,4905.3400,N,12323.4300,W,6.1,316,050722,11.8,E,A,V*50
20220705 090119+00:00 $HCHDT,323.4,T*2F
20220705 090119+00:00 $WIMWV,344.49,R,3.38,N,A*25
20220705 090121+00:00 $IIMDA,29.9,I,1.013,B,13.9,C,,C,87.5,,,C,,T,,M,,N,,M*2A
20220705 090121+00:00 $GPRMC,090116,A,4905.3400,N,12323.4396,W,6.1,316,050722,11.8,E,A,V*5D
20220705 090121+00:00 $HCHDT,323.3,T*28
20220705 090121+00:00 $WIMWV,7.4,R,3.5,N,A*26
20220705 090123+00:00 $IIMDA,29.9,I,1.013,B,13.9,C,,C,87.4,,,C,,T,,M,,N,,M*2B
20220705 090123+00:00 $GPRMC,090118,A,4905.3496,N,12323.4396,W,6.1,316,050722,11.8,E,A,V*5C
20220705 090123+00:00 $HCHDT,323.2,T*29
20220705 090123+00:00 $WIMWV,350.79,R,4.78,N,A*20
20220705 090125+00:00 $IIMDA,29.9,I,1.013,B,13.9,C,,C,87.5,,,C,,T,,M,,N,,M*2A
20220705 090125+00:00 $GPRMC,090120,A,4905.3496,N,12323.4396,W,6.01,316,050722,11.8,E,A,V*67
20220705 090125+00:00 $HCHDT,323.1,T*2A
20220705 090125+00:00 $WIMWV,354.69,R,4.68,N,A*24
20220705 090127+00:00 $IIMDA,29.9,I,1.013,B,13.9,C,,C,87.5,,,C,,T,,M,,N,,M*2A
20220705 090127+00:00 $GPRMC,090122,A,4905.3496,N,12323.4498,W,6.01,316,050722,11.8,E,A,V*6C
20220705 090127+00:00 $HCHDT,323.1,T*2A
20220705 090127+00:00 $WIMWV,358.29,R,5.19,N,A*2B
20220705 090129+00:00 $IIMDA,29.9,I,1.013,B,13.9,C,,C,87.5,,,C,,T,,M,,N,,M*2A
20220705 090129+00:00 $GPRMC,090124,A,4905.3496,N,12323.4498,W,6.01,316,050722,11.8,E,A,V*6A
20220705 090129+00:00 $HCHDT,323.2,T*29
20220705 090129+00:00 $WIMWV,356.09,R,2.99,N,A*28
20220705 090131+00:00 $IIMDA,29.9,I,1.013,B,13.9,C,,C,87.5,,,C,,T,,M,,N,,M*2A
20220705 090131+00:00 $GPRMC,090126,A,4905.3598,N,12323.4600,W,6.01,316,050722,11.8,E,A,V*64
20220705 090131+00:00 $HCHDT,323.3,T*28
20220705 090131+00:00 $WIMWV,350.09,R,3.98,N,A*2E
20220705 090133+00:00 $IIMDA,29.9,I,1.013,B,13.9,C,,C,87.5,,,C,,T,,M,,N,,M*2A
20220705 090133+00:00 $GPRMC,090128,A,4905.3598,N,12323.4600,W,6.01,316,050722,11.8,E,A,V*6A
20220705 090133+00:00 $HCHDT,323.3,T*28
20220705 090133+00:00 $WIMWV,353.49,R,4.59,N,A*23
20220705 090135+00:00 $IIMDA,29.9,I,1.013,B,13.9,C,,C,87.5,,,C,,T,,M,,N,,M*2A
20220705 090135+00:00 $GPRMC,090130,A,4905.3598,N,12323.4600,W,6.01,316,050722,11.8,E,A,V*63
20220705 090135+00:00 $HCHDT,323.4,T*2F
20220705 090135+00:00 $WIMWV,351.09,R,3.98,N,A*2F
20220705 090137+00:00 $IIMDA,29.9,I,1.013,B,13.9,C,,C,87.5,,,C,,T,,M,,N,,M*2A
20220705 090137+00:00 $GPRMC,090132,A,4905.3598,N,12323.4696,W,6.01,316,050722,11.8,E,A,V*6E
20220705 090137+00:00 $HCHDT,323.3,T*28
20220705 090137+00:00 $WIMWV,345.29,R,2.8,N,A*10
20220705 090139+00:00 $IIMDA,29.9,I,1.013,B,13.9,C,,C,87.5,,,C,,T,,M,,N,,M*2A
20220705 090139+00:00 $GPRMC,090134,A,4905.3700,N,12323.4696,W,6.01,316,050722,11.8,E,A,V*6B
20220705 090139+00:00 $HCHDT,323.4,T*2F
20220705 090139+00:00 $WIMWV,5.8,R,2.1,N,A*2D
20220705 090141+00:00 $IIMDA,29.9,I,1.013,B,13.9,C,,C,87.5,,,C,,T,,M,,N,,M*2A
20220705 090141+00:00 $GPRMC,090136,A,4905.3700,N,12323.4696,W,6.01,316,050722,11.8,E,A,V*69
20220705 090141+00:00 $HCHDT,323.5,T*2E
20220705 090141+00:00 $WIMWV,344.79,R,2.8,N,A*14
20220705 090143+00:00 $IIMDA,29.9,I,1.013,B,13.9,C,,C,87.5,,,C,,T,,M,,N,,M*2A
20220705 090143+00:00 $GPRMC,090138,A,4905.3700,N,12323.4798,W,6.01,316,050722,11.8,E,A,V*68
20220705 090143+00:00 $HCHDT,323.5,T*2E
20220705 090143+00:00 $WIMWV,348.39,R,3.19,N,A*2D
20220705 090145+00:00 $IIMDA,29.9,I,1.013,B,13.9,C,,C,87.5,,,C,,T,,M,,N,,M*2A
20220705 090145+00:00 $GPRMC,090140,A,4905.3700,N,12323.4798,W,6.01,316,050722,11.8,E,A,V*67
20220705 090145+00:00 $HCHDT,323.4,T*2F
20220705 090145+00:00 $WIMWV,0.19,R,3.5,N,A*1D
20220705 090147+00:00 $IIMDA,29.9,I,1.013,B,13.9,C,,C,87.5,,,C,,T,,M,,N,,M*2A
20220705 090147+00:00 $GPRMC,090142,A,4905.3700,N,12323.4798,W,6.01,316,050722,11.8,E,A,V*65
20220705 090147+00:00 $HCHDT,323.5,T*2E
20220705 090147+00:00 $WIMWV,4.7,R,1.89,N,A*10
20220705 090149+00:00 $IIMDA,29.9,I,1.013,B,13.9,C,,C,87.5,,,C,,T,,M,,N,,M*2A
20220705 090149+00:00 $GPRMC,090144,A,4905.3796,N,12323.4900,W,6.01,316,050722,11.8,E,A,V*63
20220705 090149+00:00 $HCHDT,323.6,T*2D
20220705 090149+00:00 $WIMWV,337.59,R,3.79,N,A*25
20220705 090151+00:00 $IIMDA,29.9,I,1.013,B,13.9,C,,C,87.5,,,C,,T,,M,,N,,M*2A
20220705 090151+00:00 $GPRMC,090146,A,4905.3796,N,12323.4900,W,6.01,317,050722,11.8,E,A,V*60
20220705 090151+00:00 $HCHDT,323.6,T*2D
20220705 090151+00:00 $WIMWV,341.19,R,3.09,N,A*27
20220705 090153+00:00 $IIMDA,29.9,I,1.013,B,13.9,C,,C,87.5,,,C,,T,,M,,N,,M*2A
20220705 090153+00:00 $GPRMC,090148,A,4905.3796,N,12323.4900,W,6.01,317,050722,11.8,E,A,V*6E
20220705 090153+00:00 $HCHDT,323.5,T*2E
20220705 090153+00:00 $WIMWV,15.4,R,3.79,N,A*2E
20220705 090155+00:00 $IIMDA,29.9,I,1.013,B,13.9,C,,C,87.5,,,C,,T,,M,,N,,M*2A
20220705 090155+00:00 $GPRMC,090150,A,4905.3796,N,12323.4996,W,6.01,317,050722,11.8,E,A,V*68
20220705 090155+00:00 $HCHDT,323.5,T*2E
20220705 090155+00:00 $WIMWV,341.09,R,2.9,N,A*17
20220705 090157+00:00 $IIMDA,29.9,I,1.013,B,13.9,C,,C,87.5,,,C,,T,,M,,N,,M*2A
20220705 090157+00:00 $GPRMC,090152,A,4905.3898,N,12323.4996,W,6.01,317,050722,11.8,E,A,V*6B
20220705 090157+00:00 $HCHDT,323.5,T*2E
20220705 090157+00:00 $WIMWV,347.49,R,4.49,N,A*27
20220705 090159+00:00 $IIMDA,29.9,I,1.013,B,13.9,C,,C,87.5,,,C,,T,,M,,N,,M*2A
20220705 090159+00:00 $GPRMC,090154,A,4905.3898,N,12323.4996,W,6.01,317,050722,11.8,E,A,V*6D
20220705 090159+00:00 $HCHDT,323.4,T*2F
20220705 090159+00:00 $WIMWV,4.1,R,2.9,N,A*2D
20220705 090201+00:00 $IIMDA,29.9,I,1.013,B,13.9,C,,C,87.5,,,C,,T,,M,,N,,M*2A
20220705 090201+00:00 $GPRMC,090156,A,4905.3898,N,12323.5098,W,6.01,317,050722,11.8,E,A,V*69
20220705 090201+00:00 $HCHDT,323.4,T*2F
20220705 090201+00:00 $WIMWV,343.69,R,4.2,N,A*1E
20220705 090203+00:00 $IIMDA,29.9,I,1.013,B,13.9,C,,C,87.5,,,C,,T,,M,,N,,M*2A
20220705 090203+00:00 $GPRMC,090158,A,4905.3898,N,12323.5098,W,6.01,317,050722,11.8,E,A,V*67
20220705 090203+00:00 $HCHDT,323.5,T*2E
20220705 090203+00:00 $WIMWV,354.39,R,4.08,N,A*27
20220705 090205+00:00 $IIMDA,29.9,I,1.013,B,13.9,C,,C,87.5,,,C,,T,,M,,N,,M*2A
20220705 090205+00:00 $GPRMC,090200,A,4905.4000,N,12323.5098,W,6.01,317,050722,11.8,E,A,V*67
20220705 090205+00:00 $HCHDT,323.5,T*2E
20220705 090205+00:00 $WIMWV,353.39,R,4.59,N,A*24
20220705 090207+00:00 $IIMDA,29.9,I,1.013,B,13.9,C,,C,87.5,,,C,,T,,M,,N,,M*2A
20220705 090207+00:00 $GPRMC,090202,A,4905.4000,N,12323.5200,W,6.01,317,050722,11.8,E,A,V*66
20220705 090207+00:00 $HCHDT,323.6,T*2D
20220705 090207+00:00 $WIMWV,352.19,R,3.6,N,A*1A
20220705 090209+00:00 $IIMDA,29.9,I,1.013,B,13.9,C,,C,87.5,,,C,,T,,M,,N,,M*2A
20220705 090209+00:00 $GPRMC,090204,A,4905.4000,N,12323.5200,W,6.01,317,050722,11.8,E,A,V*60
20220705 090209+00:00 $HCHDT,323.7,T*2C
20220705 090209+00:00 $WIMWV,341.69,R,3.6,N,A*1F
20220705 090211+00:00 $IIMDA,29.9,I,1.013,B,13.9,C,,C,87.4,,,C,,T,,M,,N,,M*2B
20220705 090211+00:00 $GPRMC,090206,A,4905.4000,N,12323.5200,W,6.01,317,050722,11.8,E,A,V*62
20220705 090211+00:00 $HCHDT,323.7,T*2C
20220705 090211+00:00 $WIMWV,352.19,R,4.3,N,A*18
20220705 090213+00:00 $IIMDA,29.9,I,1.013,B,13.9,C,,C,87.5,,,C,,T,,M,,N,,M*2A
20220705 090213+00:00 $GPRMC,090208,A,4905.4096,N,12323.5296,W,6.01,317,050722,11.8,E,A,V*6C
20220705 090213+00:00 $HCHDT,323.6,T*2D
20220705 090213+00:00 $WIMWV,348.19,R,1.79,N,A*2B
20220705 090215+00:00 $IIMDA,29.9,I,1.013,B,13.9,C,,C,87.5,,,C,,T,,M,,N,,M*2A
20220705 090215+00:00 $GPRMC,090210,A,4905.4096,N,12323.5296,W,6.01,318,050722,11.8,E,A,V*6A
20220705 090215+00:00 $HCHDT,323.6,T*2D
20220705 090215+00:00 $WIMWV,331.49,R,2.49,N,A*20
20220705 090217+00:00 $IIMDA,29.9,I,1.013,B,13.9,C,,C,87.5,,,C,,T,,M,,N,,M*2A
20220705 090217+00:00 $GPRMC,090212,A,4905.4096,N,12323.5398,W,6.01,318,050722,11.8,E,A,V*67
20220705 090217+00:00 $HCHDT,323.5,T*2E
20220705 090217+00:00 $WIMWV,358.69,R,3.79,N,A*2F
20220705 090219+00:00 $IIMDA,29.9,I,1.013,B,13.9,C,,C,87.5,,,C,,T,,M,,N,,M*2A
20220705 090219+00:00 $GPRMC,090214,A,4905.4096,N,12323.5398,W,6.01,318,050722,11.8,E,A,V*61
20220705 090219+00:00 $HCHDT,323.4,T*2F
20220705 090219+00:00 $WIMWV,351.89,R,3.29,N,A*2D
20220705 090221+00:00 $IIMDA,29.9,I,1.013,B,13.9,C,,C,87.5,,,C,,T,,M,,N,,M*2A
20220705 090221+00:00 $GPRMC,090216,A,4905.4198,N,12323.5398,W,6.01,318,050722,11.8,E,A,V*6C
20220705 090221+00:00 $HCHDT,323.3,T*28
20220705 090221+00:00 $WIMWV,352.49,R,2.59,N,A*24
20220705 090223+00:00 $IIMDA,29.9,I,1.013,B,13.9,C,,C,87.5,,,C,,T,,M,,N,,M*2A
20220705 090223+00:00 $GPRMC,090218,A,4905.4198,N,12323.5500,W,6.01,318,050722,11.8,E,A,V*65
20220705 090223+00:00 $HCHDT,323.1,T*2A
20220705 090223+00:00 $WIMWV,334.19,R,4.08,N,A*23
20220705 090225+00:00 $IIMDA,29.9,I,1.013,B,13.9,C,,C,87.5,,,C,,T,,M,,N,,M*2A
20220705 090225+00:00 $GPRMC,090220,A,4905.4198,N,12323.5500,W,6.01,318,050722,11.8,E,A,V*6E
20220705 090225+00:00 $HCHDT,323,T*35
20220705 090225+00:00 $WIMWV,354.79,R,3.29,N,A*27
20220705 090227+00:00 $IIMDA,29.9,I,1.013,B,13.9,C,,C,87.5,,,C,,T,,M,,N,,M*2A
20220705 090227+00:00 $GPRMC,090222,A,4905.4198,N,12323.5500,W,6.01,318,050722,11.8,E,A,V*6C
20220705 090227+00:00 $HCHDT,322.9,T*23
20220705 090227+00:00 $WIMWV,345.89,R,3.98,N,A*22
20220705 090229+00:00 $IIMDA,29.9,I,1.013,B,13.9,C,,C,87.5,,,C,,T,,M,,N,,M*2A
20220705 090229+00:00 $GPRMC,090224,A,4905.4300,N,12323.5596,W,6.01,318,050722,11.8,E,A,V*66
20220705 090229+00:00 $HCHDT,322.7,T*2D
20220705 090229+00:00 $WIMWV,22.49,R,2.9,N,A*25
20220705 090231+00:00 $IIMDA,29.9,I,1.013,B,13.9,C,,C,87.5,,,C,,T,,M,,N,,M*2A
20220705 090231+00:00 $GPRMC,090226,A,4905.4300,N,12323.5596,W,6.01,318,050722,11.8,E,A,V*64
20220705 090231+00:00 $HCHDT,322.7,T*2D
20220705 090231+00:00 $WIMWV,352.39,R,3.69,N,A*21
20220705 090233+00:00 $IIMDA,29.9,I,1.013,B,13.9,C,,C,87.5,,,C,,T,,M,,N,,M*2A
20220705 090233+00:00 $GPRMC,090228,A,4905.4300,N,12323.5596,W,6.01,318,050722,11.8,E,A,V*6A
20220705 090233+00:00 $HCHDT,322.7,T*2D
20220705 090233+00:00 $WIMWV,351.79,R,3.38,N,A*22
20220705 090235+00:00 $IIMDA,29.9,I,1.013,B,13.9,C,,C,87.4,,,C,,T,,M,,N,,M*2B
20220705 090235+00:00 $GPRMC,090230,A,4905.4300,N,12323.5698,W,6.01,317,050722,11.8,E,A,V*61
20220705 090235+00:00 $HCHDT,322.6,T*2C
20220705 090235+00:00 $WIMWV,357.49,R,2.8,N,A*15
20220705 090237+00:00 $IIMDA,29.9,I,1.013,B,13.9,C,,C,87.4,,,C,,T,,M,,N,,M*2B
20220705 090237+00:00 $GPRMC,090232,A,4905.4396,N,12323.5698,W,6.01,317,050722,11.8,E,A,V*6C
20220705 090237+00:00 $HCHDT,322.7,T*2D
20220705 090237+00:00 $WIMWV,344.49,R,3.5,N,A*1B
20220705 090239+00:00 $IIMDA,29.9,I,1.013,B,13.9,C,,C,87.4,,,C,,T,,M,,N,,M*2B
20220705 090239+00:00 $GPRMC,090234,A,4905.4396,N,12323.5698,W,6.01,317,050722,11.8,E,A,V*6A
20220705 090239+00:00 $HCHDT,322.7,T*2D
20220705 090239+00:00 $WIMWV,351.79,R,2.59,N,A*24
20220705 090241+00:00 $IIMDA,29.9,I,1.013,B,13.9,C,,C,87.5,,,C,,T,,M,,N,,M*2A
20220705 090241+00:00 $GPRMC,090236,A,4905.4396,N,12323.5800,W,6.01,317,050722,11.8,E,A,V*67
20220705 090241+00:00 $HCHDT,322.8,T*22
20220705 090241+00:00 $WIMWV,350.49,R,4.49,N,A*21
20220705 090243+00:00 $IIMDA,29.9,I,1.013,B,13.9,C,,C,87.5,,,C,,T,,M,,N,,M*2A
20220705 090243+00:00 $GPRMC,090238,A,4905.4396,N,12323.5800,W,6.01,317,050722,11.8,E,A,V*69
20220705 090243+00:00 $HCHDT,322.8,T*22
20220705 090243+00:00 $WIMWV,351.19,R,3.98,N,A*2E
20220705 090245+00:00 $IIMDA,29.9,I,1.013,B,13.9,C,,C,87.4,,,C,,T,,M,,N,,M*2B
20220705 090245+00:00 $GPRMC,090240,A,4905.4498,N,12323.5800,W,6.01,317,050722,11.8,E,A,V*6F
20220705 090245+00:00 $HCHDT,322.9,T*23
20220705 090245+00:00 $WIMWV,350.99,R,4.3,N,A*12
20220705 090247+00:00 $IIMDA,29.9,I,1.013,B,13.9,C,,C,87.4,,,C,,T,,M,,N,,M*2B
20220705 090247+00:00 $GPRMC,090242,A,4905.4498,N,12323.5896,W,6.01,317,050722,11.8,E,A,V*62
20220705 090247+00:00 $HCHDT,322.9,T*23
20220705 090247+00:00 $WIMWV,351.69,R,4.2,N,A*1D
20220705 090249+00:00 $IIMDA,29.9,I,1.013,B,13.9,C,,C,87.4,,,C,,T,,M,,N,,M*2B
20220705 090249+00:00 $GPRMC,090244,A,4905.4498,N,12323.5896,W,6.01,317,050722,11.8,E,A,V*64
20220705 090249+00:00 $HCHDT,322.9,T*23
20220705 090249+00:00 $WIMWV,348.09,R,4.68,N,A*2F
20220705 090251+00:00 $IIMDA,29.9,I,1.013,B,13.9,C,,C,87.4,,,C,,T,,M,,N,,M*2B
20220705 090251+00:00 $GPRMC,090246,A,4905.4498,N,12323.5896,W,6.01,317,050722,11.8,E,A,V*66
20220705 090251+00:00 $HCHDT,322.9,T*23
20220705 090251+00:00 $WIMWV,349.39,R,4.49,N,A*2E
20220705 090253+00:00 $IIMDA,29.9,I,1.013,B,13.9,C,,C,87.3,,,C,,T,,M,,N,,M*2C
20220705 090253+00:00 $GPRMC,090248,A,4905.4600,N,12323.5998,W,6.01,317,050722,11.8,E,A,V*64
20220705 090253+00:00 $HCHDT,322.8,T*22
20220705 090253+00:00 $WIMWV,329.79,R,3.19,N,A*2E
20220705 090255+00:00 $IIMDA,29.9,I,1.013,B,13.9,C,,C,87.3,,,C,,T,,M,,N,,M*2C
20220705 090255+00:00 $GPRMC,090250,A,4905.4600,N,12323.5998,W,6.01,317,050722,11.8,E,A,V*6D
20220705 090255+00:00 $HCHDT,322.8,T*22
20220705 090255+00:00 $WIMWV,341.89,R,2.99,N,A*26
20220705 090257+00:00 $IIMDA,29.9,I,1.013,B,13.9,C,,C,87.3,,,C,,T,,M,,N,,M*2C
20220705 090257+00:00 $GPRMC,090252,A,4905.4600,N,12323.5998,W,6.01,317,050722,11.8,E,A,V*6F
20220705 090257+00:00 $HCHDT,322.7,T*2D
20220705 090257+00:00 $WIMWV,6.5,R,3.89,N,A*12
20220705 090259+00:00 $IIMDA,29.9,I,1.013,B,13.9,C,,C,87.3,,,C,,T,,M,,N,,M*2C
20220705 090259+00:00 $GPRMC,090254,A,4905.4600,N,12323.6100,W,6.01,317,050722,11.8,E,A,V*63
20220705 090259+00:00 $HCHDT,322.7,T*2D
20220705 090259+00:00 $WIMWV,344.59,R,3.29,N,A*24
20220705 090301+00:00 $IIMDA,29.9,I,1.013,B,13.9,C,,C,87.3,,,C,,T,,M,,N,,M*2C
20220705 090301+00:00 $GPRMC,090256,A,4905.4696,N,12323.6100,W,6.01,316,050722,11.8,E,A,V*6F
20220705 090301+00:00 $HCHDT,322.6,T*2C
20220705 090301+00:00 $WIMWV,348.59,R,4.59,N,A*28
20220705 090303+00:00 $IIMDA,29.9,I,1.013,B,13.9,C,,C,87.3,,,C,,T,,M,,N,,M*2C
20220705 090303+00:00 $GPRMC,090258,A,4905.4696,N,12323.6100,W,6.01,316,050722,11.8,E,A,V*61
20220705 090303+00:00 $HCHDT,322.6,T*2C
20220705 090303+00:00 $WIMWV,353.99,R,4.9,N,A*1B
20220705 090305+00:00 $IIMDA,29.9,I,1.013,B,13.9,C,,C,87.3,,,C,,T,,M,,N,,M*2C
20220705 090305+00:00 $GPRMC,090300,A,4905.4696,N,12323.6196,W,6.01,316,050722,11.8,E,A,V*62
20220705 090305+00:00 $HCHDT,322.6,T*2C
20220705 090305+00:00 $WIMWV,339.79,R,4.3,N,A*13
20220705 090307+00:00 $IIMDA,29.9,I,1.013,B,13.9,C,,C,87.3,,,C,,T,,M,,N,,M*2C
20220705 090307+00:00 $GPRMC,090302,A,4905.4696,N,12323.6196,W,6.01,316,050722,11.8,E,A,V*60
20220705 090307+00:00 $HCHDT,322.7,T*2D
20220705 090307+00:00 $WIMWV,348.09,R,5.19,N,A*28
20220705 090309+00:00 $IIMDA,29.9,I,1.013,B,13.9,C,,C,87.3,,,C,,T,,M,,N,,M*2C
20220705 090309+00:00 $GPRMC,090304,A,4905.4798,N,12323.6298,W,6.01,316,050722,11.8,E,A,V*64
20220705 090309+00:00 $HCHDT,322.8,T*22
20220705 090309+00:00 $WIMWV,356.69,R,4.78,N,A*27
20220705 090311+00:00 $IIMDA,29.9,I,1.013,B,13.9,C,,C,87.3,,,C,,T,,M,,N,,M*2C
20220705 090311+00:00 $GPRMC,090306,A,4905.4798,N,12323.6298,W,6.01,316,050722,11.8,E,A,V*66
20220705 090311+00:00 $HCHDT,322.8,T*22
20220705 090311+00:00 $WIMWV,347.49,R,4.08,N,A*22
20220705 090313+00:00 $IIMDA,29.9,I,1.013,B,13.9,C,,C,87.4,,,C,,T,,M,,N,,M*2B
20220705 090313+00:00 $GPRMC,090308,A,4905.4798,N,12323.6298,W,6.01,316,050722,11.8,E,A,V*68
20220705 090313+00:00 $HCHDT,323,T*35
20220705 090313+00:00 $WIMWV,351.39,R,3.79,N,A*23
20220705 090315+00:00 $IIMDA,29.9,I,1.013,B,13.9,C,,C,87.4,,,C,,T,,M,,N,,M*2B
20220705 090315+00:00 $GPRMC,090310,A,4905.4798,N,12323.6400,W,6.01,316,050722,11.8,E,A,V*66
20220705 090315+00:00 $HCHDT,323.2,T*29
20220705 090315+00:00 $WIMWV,345.79,R,3.69,N,A*23
20220705 090317+00:00 $IIMDA,29.9,I,1.013,B,13.9,C,,C,87.4,,,C,,T,,M,,N,,M*2B
20220705 090317+00:00 $GPRMC,090312,A,4905.4798,N,12323.6400,W,6.01,316,050722,11.8,E,A,V*64
20220705 090317+00:00 $HCHDT,323.4,T*2F
20220705 090317+00:00 $WIMWV,356.69,R,5.29,N,A*22
20220705 090319+00:00 $IIMDA,29.9,I,1.013,B,13.9,C,,C,87.4,,,C,,T,,M,,N,,M*2B
20220705 090319+00:00 $GPRMC,090314,A,4905.4900,N,12323.6400,W,6.01,316,050722,11.8,E,A,V*6D
20220705 090319+00:00 $HCHDT,323.6,T*2D
20220705 090319+00:00 $WIMWV,346.39,R,4.2,N,A*1E
20220705 090321+00:00 $IIMDA,29.9,I,1.013,B,13.9,C,,C,87.4,,,C,,T,,M,,N,,M*2B
20220705 090321+00:00 $GPRMC,090316,A,4905.4900,N,12323.6496,W,6.01,316,050722,11.8,E,A,V*60
20220705 090321+00:00 $HCHDT,323.8,T*23
20220705 090321+00:00 $WIMWV,349.39,R,2.68,N,A*2B
20220705 090323+00:00 $IIMDA,29.9,I,1.013,B,13.9,C,,C,87.4,,,C,,T,,M,,N,,M*2B
20220705 090323+00:00 $GPRMC,090318,A,4905.4900,N,12323.6496,W,6.01,316,050722,11.8,E,A,V*6E
20220705 090323+00:00 $HCHDT,324,T*32
20220705 090323+00:00 $WIMWV,320.79,R,4.78,N,A*27
20220705 090325+00:00 $IIMDA,29.9,I,1.013,B,13.9,C,,C,87.4,,,C,,T,,M,,N,,M*2B
20220705 090325+00:00 $GPRMC,090320,A,4905.4900,N,12323.6496,W,6.01,316,050722,11.8,E,A,V*65
20220705 090325+00:00 $HCHDT,324.2,T*2E
20220705 090325+00:00 $WIMWV,344.79,R,3.29,N,A*26
20220705 090327+00:00 $IIMDA,29.9,I,1.013,B,13.9,C,,C,87.4,,,C,,T,,M,,N,,M*2B
20220705 090327+00:00 $GPRMC,090322,A,4905.4996,N,12323.6598,W,6.01,317,050722,11.8,E,A,V*66
20220705 090327+00:00 $HCHDT,324.2,T*2E
20220705 090327+00:00 $WIMWV,350.79,R,3.69,N,A*27
20220705 090329+00:00 $IIMDA,29.9,I,1.013,B,13.9,C,,C,87.3,,,C,,T,,M,,N,,M*2C
20220705 090329+00:00 $GPRMC,090324,A,4905.4996,N,12323.6598,W,6.01,317,050722,11.8,E,A,V*60
20220705 090329+00:00 $HCHDT,324.3,T*2F
20220705 090329+00:00 $WIMWV,330.19,R,3.38,N,A*23
20220705 090331+00:00 $IIMDA,29.9,I,1.013,B,13.9,C,,C,87.3,,,C,,T,,M,,N,,M*2C
20220705 090331+00:00 $GPRMC,090326,A,4905.4996,N,12323.6598,W,6.01,317,050722,11.8,E,A,V*62
20220705 090331+00:00 $HCHDT,324.1,T*2D
20220705 090331+00:00 $WIMWV,3.5,R,3.19,N,A*1E
20220705 090333+00:00 $IIMDA,29.9,I,1.013,B,13.9,C,,C,87.3,,,C,,T,,M,,N,,M*2C
20220705 090333+00:00 $GPRMC,090328,A,4905.4996,N,12323.6700,W,6.01,317,050722,11.8,E,A,V*6F
20220705 090333+00:00 $HCHDT,323.9,T*22
20220705 090333+00:00 $WIMWV,342.59,R,4.3,N,A*1D
20220705 090335+00:00 $IIMDA,29.9,I,1.013,B,13.9,C,,C,87.3,,,C,,T,,M,,N,,M*2C
20220705 090335+00:00 $GPRMC,090330,A,4905.5098,N,12323.6700,W,6.1,317,050722,11.8,E,A,V*50
20220705 090335+00:00 $HCHDT,323.8,T*23
20220705 090335+00:00 $WIMWV,338.59,R,3.19,N,A*2C
20220705 090337+00:00 $IIMDA,29.9,I,1.013,B,13.9,C,,C,87.3,,,C,,T,,M,,N,,M*2C
20220705 090337+00:00 $GPRMC,090332,A,4905.5098,N,12323.6700,W,6.1,316,050722,11.8,E,A,V*53
20220705 090337+00:00 $HCHDT,323.6,T*2D
20220705 090337+00:00 $WIMWV,355.39,R,2.2,N,A*1A
20220705 090339+00:00 $IIMDA,29.9,I,1.013,B,13.9,C,,C,87.3,,,C,,T,,M,,N,,M*2C
20220705 090339+00:00 $GPRMC,090334,A,4905.5098,N,12323.6796,W,6.1,316,050722,11.8,E,A,V*5A
20220705 090339+00:00 $HCHDT,323.5,T*2E
20220705 090339+00:00 $WIMWV,346.69,R,3.89,N,A*2F
20220705 090341+00:00 $IIMDA,29.9,I,1.013,B,13.9,C,,C,87.3,,,C,,T,,M,,N,,M*2C
20220705 090341+00:00 $GPRMC,090336,A,4905.5098,N,12323.6796,W,6.1,316,050722,11.8,E,A,V*58
20220705 090341+00:00 $HCHDT,323.5,T*2E
20220705 090341+00:00 $WIMWV,349.89,R,3.79,N,A*21
20220705 090343+00:00 $IIMDA,29.9,I,1.013,B,13.9,C,,C,87.3,,,C,,T,,M,,N,,M*2C
20220705 090343+00:00 $GPRMC,090338,A,4905.5200,N,12323.6898,W,6.1,316,050722,11.8,E,A,V*54
20220705 090343+00:00 $HCHDT,323.5,T*2E
20220705 090343+00:00 $WIMWV,344.99,R,4.3,N,A*17
20220705 090345+00:00 $IIMDA,29.9,I,1.013,B,13.9,C,,C,87.2,,,C,,T,,M,,N,,M*2D
20220705 090345+00:00 $GPRMC,090340,A,4905.5200,N,12323.6898,W,6.1,316,050722,11.8,E,A,V*5B
20220705 090345+00:00 $HCHDT,323.6,T*2D
20220705 090345+00:00 $WIMWV,350.09,R,3.98,N,A*2E
20220705 090347+00:00 $IIMDA,29.9,I,1.013,B,13.9,C,,C,87.2,,,C,,T,,M,,N,,M*2D
20220705 090347+00:00 $GPRMC,090342,A,4905.5200,N,12323.6898,W,6.1,316,050722,11.8,E,A,V*59
20220705 090347+00:00 $HCHDT,323.8,T*23
20220705 090347+00:00 $WIMWV,350.59,R,3.6,N,A*1C
20220705 090349+00:00 $IIMDA,29.9,I,1.013,B,13.9,C,,C,87.2,,,C,,T,,M,,N,,M*2D
20220705 090349+00:00 $GPRMC,090344,A,4905.5200,N,12323.7000,W,6.1,316,050722,11.8,E,A,V*57
20220705 090349+00:00 $HCHDT,324.1,T*2D
20220705 090349+00:00 $WIMWV,351.69,R,2.59,N,A*25
20220705 090351+00:00 $IIMDA,29.9,I,1.013,B,13.9,C,,C,87.2,,,C,,T,,M,,N,,M*2D
20220705 090351+00:00 $GPRMC,090346,A,4905.5296,N,12323.7000,W,6.1,316,050722,11.8,E,A,V*5A
20220705 090351+00:00 $HCHDT,324.2,T*2E
20220705 090351+00:00 $WIMWV,305.29,R,3.19,N,A*25
20220705 090353+00:00 $IIMDA,29.9,I,1.013,B,13.9,C,,C,87.2,,,C,,T,,M,,N,,M*2D
20220705 090353+00:00 $GPRMC,090348,A,4905.5296,N,12323.7000,W,6.1,316,050722,11.8,E,A,V*54
20220705 090353+00:00 $HCHDT,324.3,T*2F
20220705 090353+00:00 $WIMWV,358.99,R,4.59,N,A*25
20220705 090355+00:00 $IIMDA,29.9,I,1.013,B,13.9,C,,C,87.2,,,C,,T,,M,,N,,M*2D
20220705 090355+00:00 $GPRMC,090350,A,4905.5296,N,12323.7096,W,6.1,316,050722,11.8,E,A,V*52
20220705 090355+00:00 $HCHDT,324.5,T*29
20220705 090355+00:00 $WIMWV,342.49,R,3.5,N,A*1D
20220705 090357+00:00 $IIMDA,29.9,I,1.013,B,13.9,C,,C,87.2,,,C,,T,,M,,N,,M*2D
20220705 090357+00:00 $GPRMC,090352,A,4905.5296,N,12323.7096,W,6.1,316,050722,11.8,E,A,V*50
20220705 090357+00:00 $HCHDT,324.6,T*2A
20220705 090357+00:00 $WIMWV,344.49,R,3.89,N,A*2F
20220705 090359+00:00 $IIMDA,29.9,I,1.013,B,13.9,C,,C,87.2,,,C,,T,,M,,N,,M*2D
20220705 090359+00:00 $GPRMC,090354,A,4905.5398,N,12323.7096,W,6.1,316,050722,11.8,E,A,V*59
20220705 090359+00:00 $HCHDT,324.7,T*2B
20220705 090359+00:00 $WIMWV,0.19,R,3.89,N,A*29
20220705 090401+00:00 $IIMDA,29.9,I,1.013,B,13.9,C,,C,87.1,,,C,,T,,M,,N,,M*2E
20220705 090401+00:00 $GPRMC,090356,A,4905.5398,N,12323.7198,W,6.1,316,050722,11.8,E,A,V*54
20220705 090401+00:00 $HCHDT,324.8,T*24
20220705 090401+00:00 $WIMWV,337.59,R,4.08,N,A*24
20220705 090403+00:00 $IIMDA,29.9,I,1.013,B,13.9,C,,C,87.1,,,C,,T,,M,,N,,M*2E
20220705 090403+00:00 $GPRMC,090358,A,4905.5398,N,12323.7198,W,6.1,316,050722,11.8,E,A,V*5A
20220705 090403+00:00 $HCHDT,324.9,T*25
20220705 090403+00:00 $WIMWV,357.49,R,3.29,N,A*27
20220705 090405+00:00 $IIMDA,29.9,I,1.013,B,13.9,C,,C,87.1,,,C,,T,,M,,N,,M*2E
20220705 090405+00:00 $GPRMC,090400,A,4905.5398,N,12323.7198,W,6.1,317,050722,11.8,E,A,V*51
20220705 090405+00:00 $HCHDT,324.9,T*25
20220705 090405+00:00 $WIMWV,338.49,R,4.08,N,A*2A
20220705 090407+00:00 $IIMDA,29.9,I,1.013,B,13.9,C,,C,87.1,,,C,,T,,M,,N,,M*2E
20220705 090407+00:00 $GPRMC,090402,A,4905.5500,N,12323.7300,W,6.1,317,050722,11.8,E,A,V*57
20220705 090407+00:00 $HCHDT,325,T*33
20220705 090407+00:00 $WIMWV,341.19,R,3.69,N,A*21
20220705 090409+00:00 $IIMDA,29.9,I,1.013,B,13.9,C,,C,87.1,,,C,,T,,M,,N,,M*2E
20220705 090409+00:00 $GPRMC,090404,A,4905.5500,N,12323.7300,W,6.2,317,050722,11.8,E,A,V*52
20220705 090409+00:00 $HCHDT,325,T*33
20220705 090409+00:00 $WIMWV,358.09,R,2.49,N,A*2B
20220705 090411+00:00 $IIMDA,29.9,I,1.013,B,13.9,C,,C,87.1,,,C,,T,,M,,N,,M*2E
20220705 090411+00:00 $GPRMC,090406,A,4905.5500,N,12323.7396,W,6.2,317,050722,11.8,E,A,V*5F
20220705 090411+00:00 $HCHDT,325.1,T*2C
20220705 090411+00:00 $WIMWV,342.49,R,3.6,N,A*1E
20220705 090413+00:00 $IIMDA,29.9,I,1.013,B,13.9,C,,C,87.1,,,C,,T,,M,,N,,M*2E
20220705 090413+00:00 $GPRMC,090408,A,4905.5500,N,12323.7396,W,6.2,317,050722,11.8,E,A,V*51
20220705 090413+00:00 $HCHDT,325.3,T*2E
20220705 090413+00:00 $WIMWV,353.49,R,2.1,N,A*18
20220705 090415+00:00 $IIMDA,29.9,I,1.013,B,13.9,C,,C,87.1,,,C,,T,,M,,N,,M*2E
20220705 090415+00:00 $GPRMC,090410,A,4905.5596,N,12323.7396,W,6.2,317,050722,11.8,E,A,V*57
20220705 090415+00:00 $HCHDT,325.2,T*2F
20220705 090415+00:00 $WIMWV,353.19,R,4.08,N,A*22
20220705 090417+00:00 $IIMDA,29.9,I,1.013,B,13.9,C,,C,87.1,,,C,,T,,M,,N,,M*2E
20220705 090417+00:00 $GPRMC,090412,A,4905.5596,N,12323.7498,W,6.2,317,050722,11.8,E,A,V*5C
20220705 090417+00:00 $HCHDT,325.1,T*2C
20220705 090417+00:00 $WIMWV,0.19,R,3.6,N,A*1E
20220705 090419+00:00 $IIMDA,29.9,I,1.013,B,13.9,C,,C,87.1,,,C,,T,,M,,N,,M*2E
20220705 090419+00:00 $GPRMC,090414,A,4905.5596,N,12323.7498,W,6.2,317,050722,11.8,E,A,V*5A
20220705 090419+00:00 $HCHDT,325.2,T*2F
20220705 090419+00:00 $WIMWV,6.3,R,3.19,N,A*1D
20220705 090421+00:00 $IIMDA,29.9,I,1.013,B,13.9,C,,C,87.1,,,C,,T,,M,,N,,M*2E
20220705 090421+00:00 $GPRMC,090416,A,4905.5596,N,12323.7498,W,6.2,317,050722,11.8,E,A,V*58
20220705 090421+00:00 $HCHDT,325.1,T*2C
20220705 090421+00:00 $WIMWV,14.6,R,2.8,N,A*1A
20220705 090423+00:00 $IIMDA,29.9,I,1.013,B,13.9,C,,C,87.1,,,C,,T,,M,,N,,M*2E
20220705 090423+00:00 $GPRMC,090418,A,4905.5698,N,12323.7600,W,6.2,317,050722,11.8,E,A,V*58
20220705 090423+00:00 $HCHDT,325.1,T*2C
20220705 090423+00:00 $WIMWV,346.59,R,3.79,N,A*23
20220705 090425+00:00 $IIMDA,29.9,I,1.013,B,13.9,C,,C,87.1,,,C,,T,,M,,N,,M*2E
20220705 090425+00:00 $GPRMC,090420,A,4905.5698,N,12323.7600,W,6.2,317,050722,11.8,E,A,V*53
20220705 090425+00:00 $HCHDT,325,T*33
20220705 090425+00:00 $WIMWV,330.29,R,3.89,N,A*2A
20220705 090427+00:00 $IIMDA,29.9,I,1.013,B,14,C,,C,87.1,,,C,,T,,M,,N,,M*3E
20220705 090427+00:00 $GPRMC,090422,A,4905.5698,N,12323.7600,W,6.2,317,050722,11.8,E,A,V*51
20220705 090427+00:00 $HCHDT,324.9,T*25
20220705 090427+00:00 $WIMWV,345.49,R,2.9,N,A*17
20220705 090429+00:00 $IIMDA,29.9,I,1.013,B,14,C,,C,87.1,,,C,,T,,M,,N,,M*3E
20220705 090429+00:00 $GPRMC,090424,A,4905.5698,N,12323.7696,W,6.2,317,050722,11.8,E,A,V*58
20220705 090429+00:00 $HCHDT,324.9,T*25
20220705 090429+00:00 $WIMWV,343.79,R,3.98,N,A*2B
20220705 090431+00:00 $IIMDA,29.9,I,1.013,B,14,C,,C,87,,,C,,T,,M,,N,,M*21
20220705 090431+00:00 $GPRMC,090426,A,4905.5800,N,12323.7696,W,6.2,317,050722,11.8,E,A,V*55
20220705 090431+00:00 $HCHDT,324.8,T*24
20220705 090431+00:00 $WIMWV,358.19,R,4.59,N,A*2D
20220705 090433+00:00 $IIMDA,29.9,I,1.013,B,14,C,,C,87,,,C,,T,,M,,N,,M*21
20220705 090433+00:00 $GPRMC,090428,A,4905.5800,N,12323.7696,W,6.2,317,050722,11.8,E,A,V*5B
20220705 090433+00:00 $HCHDT,324.6,T*2A
20220705 090433+00:00 $WIMWV,351.79,R,4.3,N,A*1D
20220705 090435+00:00 $IIMDA,29.9,I,1.013,B,14,C,,C,87,,,C,,T,,M,,N,,M*21
20220705 090435+00:00 $GPRMC,090430,A,4905.5800,N,12323.7798,W,6.2,317,050722,11.8,E,A,V*5D
20220705 090435+00:00 $HCHDT,324.4,T*28
20220705 090435+00:00 $WIMWV,357.59,R,5.19,N,A*23
20220705 090437+00:00 $IIMDA,29.9,I,1.013,B,14,C,,C,87,,,C,,T,,M,,N,,M*21
20220705 090437+00:00 $GPRMC,090432,A,4905.5800,N,12323.7798,W,6.2,317,050722,11.8,E,A,V*5F
20220705 090437+00:00 $HCHDT,324.4,T*28
20220705 090437+00:00 $WIMWV,356.09,R,4.3,N,A*1D
20220705 090439+00:00 $IIMDA,29.9,I,1.013,B,14,C,,C,87,,,C,,T,,M,,N,,M*21
20220705 090439+00:00 $GPRMC,090434,A,4905.5896,N,12323.7900,W,6.2,317,050722,11.8,E,A,V*59
20220705 090439+00:00 $HCHDT,324.2,T*2E
20220705 090439+00:00 $WIMWV,337.19,R,3.69,N,A*20
20220705 090441+00:00 $IIMDA,29.9,I,1.013,B,14,C,,C,87,,,C,,T,,M,,N,,M*21
20220705 090441+00:00 $GPRMC,090436,A,4905.5896,N,12323.7900,W,6.2,317,050722,11.8,E,A,V*5B
20220705 090441+00:00 $HCHDT,324.1,T*2D
20220705 090441+00:00 $WIMWV,334.79,R,1.98,N,A*29
20220705 090443+00:00 $IIMDA,29.9,I,1.013,B,14,C,,C,87,,,C,,T,,M,,N,,M*21
20220705 090443+00:00 $GPRMC,090438,A,4905.5896,N,12323.7900,W,6.2,317,050722,11.8,E,A,V*55
20220705 090443+00:00 $HCHDT,324.1,T*2D
20220705 090443+00:00 $WIMWV,346.69,R,3.98,N,A*2F
20220705 090445+00:00 $IIMDA,29.9,I,1.013,B,14,C,,C,87,,,C,,T,,M,,N,,M*21
20220705 090445+00:00 $GPRMC,090440,A,4905.5896,N,12323.7996,W,6.2,317,050722,11.8,E,A,V*55
20220705 090445+00:00 $HCHDT,324.1,T*2D
20220705 090445+00:00 $WIMWV,0.19,R,2.59,N,A*25
20220705 090447+00:00 $IIMDA,29.9,I,1.013,B,14,C,,C,87,,,C,,T,,M,,N,,M*21
20220705 090447+00:00 $GPRMC,090442,A,4905.5998,N,12323.7996,W,6.2,316,050722,11.8,E,A,V*59
20220705 090447+00:00 $HCHDT,324.2,T*2E
20220705 090447+00:00 $WIMWV,349.79,R,2.9,N,A*18
20220705 090449+00:00 $IIMDA,29.9,I,1.013,B,14,C,,C,87,,,C,,T,,M,,N,,M*21
20220705 090449+00:00 $GPRMC,090444,A,4905.5998,N,12323.7996,W,6.2,316,050722,11.8,E,A,V*5F
20220705 090449+00:00 $HCHDT,324.3,T*2F
20220705 090449+00:00 $WIMWV,336.09,R,4.3,N,A*1B
20220705 090451+00:00 $IIMDA,29.9,I,1.013,B,14,C,,C,87,,,C,,T,,M,,N,,M*21
20220705 090451+00:00 $GPRMC,090446,A,4905.5998,N,12323.8098,W,6.2,317,050722,11.8,E,A,V*54
20220705 090451+00:00 $HCHDT,324.3,T*2F
20220705 090451+00:00 $WIMWV,9.8,R,3.79,N,A*1F
20220705 090453+00:00 $IIMDA,29.9,I,1.013,B,14,C,,C,87,,,C,,T,,M,,N,,M*21
20220705 090453+00:00 $GPRMC,090448,A,4905.5998,N,12323.8098,W,6.2,317,050722,11.8,E,A,V*5A
20220705 090453+00:00 $HCHDT,324.5,T*29
20220705 090453+00:00 $WIMWV,350.29,R,4.59,N,A*26
20220705 090455+00:00 $IIMDA,29.9,I,1.013,B,14,C,,C,87,,,C,,T,,M,,N,,M*21
20220705 090455+00:00 $GPRMC,090450,A,4905.6100,N,12323.8098,W,6.2,317,050722,11.8,E,A,V*59
20220705 090455+00:00 $HCHDT,324.6,T*2A
20220705 090455+00:00 $WIMWV,335.09,R,3.79,N,A*22
20220705 090457+00:00 $IIMDA,29.9,I,1.013,B,14,C,,C,87,,,C,,T,,M,,N,,M*21
20220705 090457+00:00 $GPRMC,090452,A,4905.6100,N,12323.8200,W,6.2,317,050722,11.8,E,A,V*58
20220705 090457+00:00 $HCHDT,324.6,T*2A
20220705 090457+00:00 $WIMWV,2.7,R,3.69,N,A*1A
20220705 090459+00:00 $IIMDA,29.9,I,1.013,B,14,C,,C,87,,,C,,T,,M,,N,,M*21
20220705 090459+00:00 $GPRMC,090454,A,4905.6100,N,12323.8200,W,6.2,317,050722,11.8,E,A,V*5E
20220705 090459+00:00 $HCHDT,324.6,T*2A
20220705 090459+00:00 $WIMWV,348.79,R,3.5,N,A*14
20220705 090501+00:00 $IIMDA,29.9,I,1.013,B,14,C,,C,87,,,C,,T,,M,,N,,M*21
20220705 090501+00:00 $GPRMC,090456,A,4905.6100,N,12323.8296,W,6.2,317,050722,11.8,E,A,V*53
20220705 090501+00:00 $HCHDT,324.6,T*2A
20220705 090501+00:00 $WIMWV,344.99,R,3.89,N,A*22
20220705 090503+00:00 $IIMDA,29.9,I,1.013,B,14,C,,C,87,,,C,,T,,M,,N,,M*21
20220705 090503+00:00 $GPRMC,090458,A,4905.6196,N,12323.8296,W,6.2,317,050722,11.8,E,A,V*52
20220705 090503+00:00 $HCHDT,324.6,T*2A
20220705 090503+00:00 $WIMWV,344.99,R,3.5,N,A*16
20220705 090505+00:00 $IIMDA,29.9,I,1.013,B,14,C,,C,87,,,C,,T,,M,,N,,M*21
20220705 090505+00:00 $GPRMC,090500,A,4905.6196,N,12323.8296,W,6.2,317,050722,11.8,E,A,V*5E
20220705 090505+00:00 $HCHDT,324.6,T*2A
20220705 090505+00:00 $WIMWV,356.09,R,3.5,N,A*1C
20220705 090507+00:00 $IIMDA,29.9,I,1.013,B,14,C,,C,87,,,C,,T,,M,,N,,M*21
20220705 090507+00:00 $GPRMC,090502,A,4905.6196,N,12323.8398,W,6.2,317,050722,11.8,E,A,V*53
20220705 090507+00:00 $HCHDT,324.5,T*29
20220705 090507+00:00 $WIMWV,357.09,R,4.08,N,A*27
20220705 090509+00:00 $IIMDA,29.9,I,1.013,B,14,C,,C,87,,,C,,T,,M,,N,,M*21
20220705 090509+00:00 $GPRMC,090504,A,4905.6196,N,12323.8398,W,6.2,317,050722,11.8,E,A,V*55
20220705 090509+00:00 $HCHDT,324.5,T*29
20220705 090509+00:00 $WIMWV,349.79,R,3.98,N,A*21
20220705 090511+00:00 $IIMDA,29.9,I,1.013,B,14,C,,C,87,,,C,,T,,M,,N,,M*21
20220705 090511+00:00 $GPRMC,090506,A,4905.6298,N,12323.8398,W,6.2,317,050722,11.8,E,A,V*5A
20220705 090511+00:00 $HCHDT,324.4,T*28
20220705 090511+00:00 $WIMWV,351.89,R,3.98,N,A*27
20220705 090513+00:00 $IIMDA,29.9,I,1.013,B,14,C,,C,87,,,C,,T,,M,,N,,M*21
20220705 090513+00:00 $GPRMC,090508,A,4905.6298,N,12323.8500,W,6.2,317,050722,11.8,E,A,V*53
20220705 090513+00:00 $HCHDT,324.4,T*28
20220705 090513+00:00 $WIMWV,341.89,R,3.69,N,A*28
20220705 090515+00:00 $IIMDA,29.9,I,1.013,B,14,C,,C,87,,,C,,T,,M,,N,,M*21
20220705 090515+00:00 $GPRMC,090510,A,4905.6298,N,12323.8500,W,6.2,317,050722,11.8,E,A,V*5A
20220705 090515+00:00 $HCHDT,324.4,T*28
20220705 090515+00:00 $WIMWV,353.89,R,2.68,N,A*2B
20220705 090517+00:00 $IIMDA,29.9,I,1.013,B,14,C,,C,87.1,,,C,,T,,M,,N,,M*3E
20220705 090517+00:00 $GPRMC,090512,A,4905.6298,N,12323.8500,W,6.2,317,050722,11.8,E,A,V*58
20220705 090517+00:00 $HCHDT,324.3,T*2F
20220705 090517+00:00 $WIMWV,351.69,R,4.2,N,A*1D
20220705 090519+00:00 $IIMDA,29.9,I,1.013,B,14,C,,C,87,,,C,,T,,M,,N,,M*21
20220705 090519+00:00 $GPRMC,090514,A,4905.6400,N,12323.8596,W,6.2,317,050722,11.8,E,A,V*56
20220705 090519+00:00 $HCHDT,324.3,T*2F
20220705 090519+00:00 $WIMWV,343.79,R,4.08,N,A*25
20220705 090521+00:00 $IIMDA,29.9,I,1.013,B,14,C,,C,87,,,C,,T,,M,,N,,M*21
20220705 090521+00:00 $GPRMC,090516,A,4905.6400,N,12323.8596,W,6.2,317,050722,11.8,E,A,V*54
20220705 090521+00:00 $HCHDT,324.2,T*2E
20220705 090521+00:00 $WIMWV,355.29,R,4.3,N,A*1C
20220705 090523+00:00 $IIMDA,29.9,I,1.013,B,14,C,,C,87.1,,,C,,T,,M,,N,,M*3E
20220705 090523+00:00 $GPRMC,090518,A,4905.6400,N,12323.8596,W,6.3,317,050722,11.8,E,A,V*5B
20220705 090523+00:00 $HCHDT,324.1,T*2D
20220705 090523+00:00 $WIMWV,351.69,R,4.9,N,A*16
20220705 090525+00:00 $IIMDA,29.9,I,1.013,B,14,C,,C,87.1,,,C,,T,,M,,N,,M*3E
20220705 090525+00:00 $GPRMC,090520,A,4905.6400,N,12323.8698,W,6.3,317,050722,11.8,E,A,V*5D
20220705 090525+00:00 $HCHDT,324.1,T*2D
20220705 090525+00:00 $WIMWV,353.59,R,4.49,N,A*23
20220705 090527+00:00 $IIMDA,29.9,I,1.013,B,14,C,,C,87.1,,,C,,T,,M,,N,,M*3E
20220705 090527+00:00 $GPRMC,090522,A,4905.6496,N,12323.8698,W,6.3,317,050722,11.8,E,A,V*50
20220705 090527+00:00 $HCHDT,324,T*32
20220705 090527+00:00 $WIMWV,350.49,R,4.39,N,A*26
20220705 090529+00:00 $IIMDA,29.9,I,1.013,B,14,C,,C,87.1,,,C,,T,,M,,N,,M*3E
20220705 090529+00:00 $GPRMC,090524,A,4905.6496,N,12323.8800,W,6.3,317,050722,11.8,E,A,V*59
20220705 090529+00:00 $HCHDT,324,T*32
20220705 090529+00:00 $WIMWV,354.79,R,4.59,N,A*27
20220705 090531+00:00 $IIMDA,29.9,I,1.013,B,14,C,,C,87.1,,,C,,T,,M,,N,,M*3E
20220705 090531+00:00 $GPRMC,090526,A,4905.6496,N,12323.8800,W,6.3,317,050722,11.8,E,A,V*5B
20220705 090531+00:00 $HCHDT,324,T*32
20220705 090531+00:00 $WIMWV,313.29,R,2.49,N,A*26
20220705 090533+00:00 $IIMDA,29.9,I,1.013,B,14,C,,C,87.1,,,C,,T,,M,,N,,M*3E
20220705 090533+00:00 $GPRMC,090528,A,4905.6496,N,12323.8800,W,6.3,317,050722,11.8,E,A,V*55
20220705 090533+00:00 $HCHDT,324.1,T*2D
20220705 090533+00:00 $WIMWV,345.99,R,4.68,N,A*2B
20220705 090535+00:00 $IIMDA,29.9,I,1.013,B,14,C,,C,87.1,,,C,,T,,M,,N,,M*3E
20220705 090535+00:00 $GPRMC,090530,A,4905.6598,N,12323.8896,W,6.3,317,050722,11.8,E,A,V*5C
20220705 090535+00:00 $HCHDT,324.2,T*2E
20220705 090535+00:00 $WIMWV,351.69,R,3.38,N,A*23
20220705 090537+00:00 $IIMDA,29.9,I,1.013,B,14,C,,C,87.1,,,C,,T,,M,,N,,M*3E
20220705 090537+00:00 $GPRMC,090532,A,4905.6598,N,12323.8896,W,6.2,317,050722,11.8,E,A,V*5F
20220705 090537+00:00 $HCHDT,324.4,T*28
20220705 090537+00:00 $WIMWV,339.29,R,3.89,N,A*23
20220705 090539+00:00 $IIMDA,29.9,I,1.013,B,14,C,,C,87.1,,,C,,T,,M,,N,,M*3E
20220705 090539+00:00 $GPRMC,090534,A,4905.6598,N,12323.8896,W,6.2,317,050722,11.8,E,A,V*59
20220705 090539+00:00 $HCHDT,324.5,T*29
20220705 090539+00:00 $WIMWV,352.79,R,3.38,N,A*21
20220705 090541+00:00 $IIMDA,29.9,I,1.013,B,14,C,,C,87.1,,,C,,T,,M,,N,,M*3E
20220705 090541+00:00 $GPRMC,090536,A,4905.6598,N,12323.8998,W,6.2,317,050722,11.8,E,A,V*54
20220705 090541+00:00 $HCHDT,324.6,T*2A
20220705 090541+00:00 $WIMWV,355.59,R,2.9,N,A*17
20220705 090543+00:00 $IIMDA,29.9,I,1.013,B,14,C,,C,87.1,,,C,,T,,M,,N,,M*3E
20220705 090543+00:00 $GPRMC,090538,A,4905.6700,N,12323.8998,W,6.2,317,050722,11.8,E,A,V*59
20220705 090543+00:00 $HCHDT,324.5,T*29
20220705 090543+00:00 $WIMWV,0.19,R,4.39,N,A*25
20220705 090545+00:00 $IIMDA,29.9,I,1.013,B,14,C,,C,87.1,,,C,,T,,M,,N,,M*3E
20220705 090545+00:00 $GPRMC,090540,A,4905.6700,N,12323.8998,W,6.2,317,050722,11.8,E,A,V*56
20220705 090545+00:00 $HCHDT,324.4,T*28
20220705 090545+00:00 $WIMWV,350.19,R,1.5,N,A*19
20220705 090547+00:00 $IIMDA,29.9,I,1.013,B,14,C,,C,87.1,,,C,,T,,M,,N,,M*3E
20220705 090547+00:00 $GPRMC,090542,A,4905.6700,N,12323.9100,W,6.2,317,050722,11.8,E,A,V*5C
20220705 090547+00:00 $HCHDT,324.3,T*2F
20220705 090547+00:00 $WIMWV,339.19,R,2.49,N,A*2D
20220705 090549+00:00 $IIMDA,29.9,I,1.013,B,14,C,,C,87.1,,,C,,T,,M,,N,,M*3E
20220705 090549+00:00 $GPRMC,090544,A,4905.6700,N,12323.9100,W,6.2,317,050722,11.8,E,A,V*5A
20220705 090549+00:00 $HCHDT,324.2,T*2E
20220705 090549+00:00 $WIMWV,337.59,R,3.5,N,A*1E
20220705 090551+00:00 $IIMDA,29.9,I,1.013,B,14,C,,C,87.1,,,C,,T,,M,,N,,M*3E
20220705 090551+00:00 $GPRMC,090546,A,4905.6796,N,12323.9196,W,6.2,317,050722,11.8,E,A,V*58
20220705 090551+00:00 $HCHDT,324.1,T*2D
20220705 090551+00:00 $WIMWV,344.49,R,3.19,N,A*26
20220705 090553+00:00 $IIMDA,29.9,I,1.013,B,14,C,,C,87.1,,,C,,T,,M,,N,,M*3E
20220705 090553+00:00 $GPRMC,090548,A,4905.6796,N,12323.9196,W,6.2,317,050722,11.8,E,A,V*56
20220705 090553+00:00 $HCHDT,324,T*32
20220705 090553+00:00 $WIMWV,338.09,R,4.49,N,A*2B
20220705 090555+00:00 $IIMDA,29.9,I,1.013,B,14,C,,C,87.1,,,C,,T,,M,,N,,M*3E
20220705 090555+00:00 $GPRMC,090550,A,4905.6796,N,12323.9196,W,6.2,317,050722,11.8,E,A,V*5F
20220705 090555+00:00 $HCHDT,323.9,T*22
20220705 090555+00:00 $WIMWV,335.09,R,2.29,N,A*26
20220705 090557+00:00 $IIMDA,29.9,I,1.013,B,14,C,,C,87.1,,,C,,T,,M,,N,,M*3E
20220705 090557+00:00 $GPRMC,090552,A,4905.6796,N,12323.9298,W,6.2,317,050722,11.8,E,A,V*50
20220705 090557+00:00 $HCHDT,323.9,T*22
20220705 090557+00:00 $WIMWV,14.4,R,3.38,N,A*2A
20220705 090559+00:00 $IIMDA,29.9,I,1.013,B,14,C,,C,87.1,,,C,,T,,M,,N,,M*3E
20220705 090559+00:00 $GPRMC,090554,A,4905.6898,N,12323.9298,W,6.2,317,050722,11.8,E,A,V*57
20220705 090559+00:00 $HCHDT,323.9,T*22
20220705 090559+00:00 $WIMWV,329.89,R,4.59,N,A*22
20220705 090601+00:00 $IIMDA,29.9,I,1.013,B,14,C,,C,87.1,,,C,,T,,M,,N,,M*3E
20220705 090601+00:00 $GPRMC,090556,A,4905.6898,N,12323.9298,W,6.2,317,050722,11.8,E,A,V*55
20220705 090601+00:00 $HCHDT,324,T*32
20220705 090601+00:00 $WIMWV,355.09,R,4.08,N,A*25
20220705 090603+00:00 $IIMDA,29.9,I,1.013,B,14,C,,C,87.1,,,C,,T,,M,,N,,M*3E
20220705 090603+00:00 $GPRMC,090558,A,4905.6898,N,12323.9400,W,6.3,317,050722,11.8,E,A,V*5D
20220705 090603+00:00 $HCHDT,324,T*32
20220705 090603+00:00 $WIMWV,9.1,R,3.09,N,A*11
20220705 090605+00:00 $IIMDA,29.9,I,1.013,B,14,C,,C,87.1,,,C,,T,,M,,N,,M*3E
20220705 090605+00:00 $GPRMC,090600,A,4905.7000,N,12323.9400,W,6.3,317,050722,11.8,E,A,V*5B
20220705 090605+00:00 $HCHDT,324,T*32
20220705 090605+00:00 $WIMWV,6.1,R,3.19,N,A*1F
20220705 090607+00:00 $IIMDA,29.9,I,1.013,B,14,C,,C,87.1,,,C,,T,,M,,N,,M*3E
20220705 090607+00:00 $GPRMC,090602,A,4905.7000,N,12323.9400,W,6.3,317,050722,11.8,E,A,V*59
20220705 090607+00:00 $HCHDT,324.2,T*2E
20220705 090607+00:00 $WIMWV,336.19,R,2.99,N,A*2F
20220705 090609+00:00 $IIMDA,29.9,I,1.013,B,14,C,,C,87.1,,,C,,T,,M,,N,,M*3E
20220705 090609+00:00 $GPRMC,090604,A,4905.7000,N,12323.9496,W,6.3,317,050722,11.8,E,A,V*50
20220705 090609+00:00 $HCHDT,324.4,T*28
20220705 090609+00:00 $WIMWV,76.9,R,1.98,N,A*2B
20220705 090611+00:00 $IIMDA,29.9,I,1.013,B,14,C,,C,87.1,,,C,,T,,M,,N,,M*3E
20220705 090611+00:00 $GPRMC,090606,A,4905.7000,N,12323.9496,W,6.3,317,050722,11.8,E,A,V*52
20220705 090611+00:00 $HCHDT,324.6,T*2A
20220705 090611+00:00 $WIMWV,358.49,R,3.5,N,A*16
20220705 090613+00:00 $IIMDA,29.9,I,1.013,B,14,C,,C,87.1,,,C,,T,,M,,N,,M*3E
20220705 090613+00:00 $GPRMC,090608,A,4905.7096,N,12323.9496,W,6.3,317,050722,11.8,E,A,V*53
20220705 090613+00:00 $HCHDT,324.5,T*29
20220705 090613+00:00 $WIMWV,332.19,R,2.68,N,A*25
20220705 090615+00:00 $IIMDA,29.9,I,1.013,B,14,C,,C,87.2,,,C,,T,,M,,N,,M*3D
20220705 090615+00:00 $GPRMC,090610,A,4905.7096,N,12323.9598,W,6.3,317,050722,11.8,E,A,V*55
20220705 090615+00:00 $HCHDT,324.5,T*29
20220705 090615+00:00 $WIMWV,32.19,R,1.09,N,A*12
20220705 090617+00:00 $IIMDA,29.9,I,1.013,B,14,C,,C,87.1,,,C,,T,,M,,N,,M*3E
20220705 090617+00:00 $GPRMC,090612,A,4905.7096,N,12323.9598,W,6.3,317,050722,11.8,E,A,V*57
20220705 090617+00:00 $HCHDT,324.3,T*2F
20220705 090617+00:00 $WIMWV,6.7,R,2.2,N,A*22
20220705 090619+00:00 $IIMDA,29.9,I,1.013,B,14,C,,C,87.2,,,C,,T,,M,,N,,M*3D
20220705 090619+00:00 $GPRMC,090614,A,4905.7096,N,12323.9700,W,6.3,317,050722,11.8,E,A,V*52
20220705 090619+00:00 $HCHDT,324.2,T*2E
20220705 090619+00:00 $WIMWV,338.19,R,2.9,N,A*18
20220705 090621+00:00 $IIMDA,29.9,I,1.013,B,14,C,,C,87.2,,,C,,T,,M,,N,,M*3D
20220705 090621+00:00 $GPRMC,090616,A,4905.7198,N,12323.9700,W,6.3,317,050722,11.8,E,A,V*5F
20220705 090621+00:00 $HCHDT,323.9,T*22
20220705 090621+00:00 $WIMWV,0.19,R,3.89,N,A*29
20220705 090623+00:00 $IIMDA,29.9,I,1.013,B,14,C,,C,87.2,,,C,,T,,M,,N,,M*3D
20220705 090623+00:00 $GPRMC,090618,A,4905.7198,N,12323.9700,W,6.3,317,050722,11.8,E,A,V*51
20220705 090623+00:00 $HCHDT,323.7,T*2C
20220705 090623+00:00 $WIMWV,346.79,R,3.09,N,A*26
20220705 090625+00:00 $IIMDA,29.9,I,1.013,B,14,C,,C,87.2,,,C,,T,,M,,N,,M*3D
20220705 090625+00:00 $GPRMC,090620,A,4905.7198,N,12323.9796,W,6.3,317,050722,11.8,E,A,V*55
20220705 090625+00:00 $HCHDT,323.5,T*2E
20220705 090625+00:00 $WIMWV,354.69,R,4.39,N,A*20
20220705 090627+00:00 $IIMDA,29.9,I,1.013,B,14,C,,C,87.2,,,C,,T,,M,,N,,M*3D
20220705 090627+00:00 $GPRMC,090622,A,4905.7198,N,12323.9796,W,6.3,317,050722,11.8,E,A,V*57
20220705 090627+00:00 $HCHDT,323.5,T*2E
20220705 090627+00:00 $WIMWV,336.99,R,3.69,N,A*29
20220705 090629+00:00 $IIMDA,29.9,I,1.013,B,14,C,,C,87.2,,,C,,T,,M,,N,,M*3D
20220705 090629+00:00 $GPRMC,090624,A,4905.7300,N,12323.9796,W,6.3,317,050722,11.8,E,A,V*52
20220705 090629+00:00 $HCHDT,323.5,T*2E
20220705 090629+00:00 $WIMWV,356.09,R,3.79,N,A*27
20220705 090631+00:00 $IIMDA,29.9,I,1.013,B,14,C,,C,87.1,,,C,,T,,M,,N,,M*3E
20220705 090631+00:00 $GPRMC,090626,A,4905.7300,N,12323.9898,W,6.3,317,050722,11.8,E,A,V*51
20220705 090631+00:00 $HCHDT,323.5,T*2E
20220705 090631+00:00 $WIMWV,343.39,R,4.08,N,A*21
20220705 090633+00:00 $IIMDA,29.9,I,1.013,B,14,C,,C,87.2,,,C,,T,,M,,N,,M*3D
20220705 090633+00:00 $GPRMC,090628,A,4905.7300,N,12323.9898,W,6.3,316,050722,11.8,E,A,V*5E
20220705 090633+00:00 $HCHDT,323.6,T*2D
20220705 090633+00:00 $WIMWV,351.69,R,3.89,N,A*29
20220705 090635+00:00 $IIMDA,29.9,I,1.013,B,14,C,,C,87.2,,,C,,T,,M,,N,,M*3D
20220705 090635+00:00 $GPRMC,090630,A,4905.7300,N,12323.9898,W,6.3,316,050722,11.8,E,A,V*57
20220705 090635+00:00 $HCHDT,323.7,T*2C
20220705 090635+00:00 $WIMWV,356.79,R,4.2,N,A*1B
20220705 090637+00:00 $IIMDA,29.9,I,1.013,B,14,C,,C,87.2,,,C,,T,,M,,N,,M*3D
20220705 090637+00:00 $GPRMC,090632,A,4905.7396,N,12324.0000,W,6.3,316,050722,11.8,E,A,V*5D
20220705 090637+00:00 $HCHDT,323.8,T*23
20220705 090637+00:00 $WIMWV,342.49,R,3.5,N,A*1D
20220705 090639+00:00 $IIMDA,29.9,I,1.013,B,14,C,,C,87.2,,,C,,T,,M,,N,,M*3D
20220705 090639+00:00 $GPRMC,090634,A,4905.7396,N,12324.0000,W,6.3,316,050722,11.8,E,A,V*5B
20220705 090639+00:00 $HCHDT,324,T*32
20220705 090639+00:00 $WIMWV,279.89,R,1.09,N,A*26
20220705 090641+00:00 $IIMDA,29.9,I,1.013,B,14,C,,C,87.2,,,C,,T,,M,,N,,M*3D
20220705 090641+00:00 $GPRMC,090636,A,4905.7396,N,12324.0096,W,6.3,316,050722,11.8,E,A,V*56
20220705 090641+00:00 $HCHDT,324.1,T*2D
20220705 090641+00:00 $WIMWV,340.19,R,3.69,N,A*20
20220705 090643+00:00 $IIMDA,29.9,I,1.013,B,14,C,,C,87.2,,,C,,T,,M,,N,,M*3D
20220705 090643+00:00 $GPRMC,090638,A,4905.7396,N,12324.0096,W,6.3,317,050722,11.8,E,A,V*59
20220705 090643+00:00 $HCHDT,324.2,T*2E
20220705 090643+00:00 $WIMWV,344.79,R,3.5,N,A*18
20220705 090645+00:00 $IIMDA,29.9,I,1.013,B,14,C,,C,87.2,,,C,,T,,M,,N,,M*3D
20220705 090645+00:00 $GPRMC,090640,A,4905.7498,N,12324.0096,W,6.2,317,050722,11.8,E,A,V*5E
20220705 090645+00:00 $HCHDT,324.4,T*28
20220705 090645+00:00 $WIMWV,56.8,R,1.4,N,A*1D
20220705 090647+00:00 $IIMDA,29.9,I,1.013,B,14,C,,C,87.2,,,C,,T,,M,,N,,M*3D
20220705 090647+00:00 $GPRMC,090642,A,4905.7498,N,12324.0198,W,6.2,317,050722,11.8,E,A,V*53
20220705 090647+00:00 $HCHDT,324.5,T*29
20220705 090647+00:00 $WIMWV,348.59,R,3.79,N,A*2D
20220705 090649+00:00 $IIMDA,29.9,I,1.013,B,14,C,,C,87.2,,,C,,T,,M,,N,,M*3D
20220705 090649+00:00 $GPRMC,090644,A,4905.7498,N,12324.0198,W,6.2,317,050722,11.8,E,A,V*55
20220705 090649+00:00 $HCHDT,324.6,T*2A
20220705 090649+00:00 $WIMWV,355.29,R,3.89,N,A*29
20220705 090651+00:00 $IIMDA,29.9,I,1.013,B,14,C,,C,87.2,,,C,,T,,M,,N,,M*3D
20220705 090651+00:00 $GPRMC,090646,A,4905.7498,N,12324.0198,W,6.2,317,050722,11.8,E,A,V*57
20220705 090651+00:00 $HCHDT,324.7,T*2B
20220705 090651+00:00 $WIMWV,1.6,R,4.68,N,A*1E
20220705 090653+00:00 $IIMDA,29.9,I,1.013,B,14,C,,C,87.2,,,C,,T,,M,,N,,M*3D
20220705 090653+00:00 $GPRMC,090648,A,4905.7600,N,12324.0300,W,6.2,317,050722,11.8,E,A,V*59
20220705 090653+00:00 $HCHDT,324.8,T*24
20220705 090653+00:00 $WIMWV,354.79,R,4.68,N,A*25
20220705 090655+00:00 $IIMDA,29.9,I,1.013,B,14,C,,C,87.3,,,C,,T,,M,,N,,M*3C
20220705 090655+00:00 $GPRMC,090650,A,4905.7600,N,12324.0300,W,6.2,317,050722,11.8,E,A,V*50
20220705 090655+00:00 $HCHDT,324.9,T*25
20220705 090655+00:00 $WIMWV,340.69,R,4.39,N,A*25
20220705 090657+00:00 $IIMDA,29.9,I,1.013,B,14,C,,C,87.3,,,C,,T,,M,,N,,M*3C
20220705 090657+00:00 $GPRMC,090652,A,4905.7600,N,12324.0300,W,6.2,317,050722,11.8,E,A,V*52
20220705 090657+00:00 $HCHDT,325.1,T*2C
20220705 090657+00:00 $WIMWV,353.49,R,4.08,N,A*27
20220705 090659+00:00 $IIMDA,29.9,I,1.013,B,14,C,,C,87.3,,,C,,T,,M,,N,,M*3C
20220705 090659+00:00 $GPRMC,090654,A,4905.7600,N,12324.0396,W,6.2,317,050722,11.8,E,A,V*5B
20220705 090659+00:00 $HCHDT,325.5,T*28
20220705 090659+00:00 $WIMWV,347.09,R,4.59,N,A*22
20220705 090701+00:00 $IIMDA,29.9,I,1.013,B,14,C,,C,87.3,,,C,,T,,M,,N,,M*3C
20220705 090701+00:00 $GPRMC,090656,A,4905.7696,N,12324.0396,W,6.2,317,050722,11.8,E,A,V*56
20220705 090701+00:00 $HCHDT,325.9,T*24
20220705 090701+00:00 $WIMWV,3.7,R,3.6,N,A*22
20220705 090703+00:00 $IIMDA,29.9,I,1.013,B,14,C,,C,87.3,,,C,,T,,M,,N,,M*3C
20220705 090703+00:00 $GPRMC,090658,A,4905.7696,N,12324.0498,W,6.2,317,050722,11.8,E,A,V*51
20220705 090703+00:00 $HCHDT,326.3,T*2D
20220705 090703+00:00 $WIMWV,333.99,R,4.9,N,A*1D
20220705 090705+00:00 $IIMDA,29.9,I,1.013,B,14,C,,C,87.3,,,C,,T,,M,,N,,M*3C
20220705 090705+00:00 $GPRMC,090700,A,4905.7696,N,12324.0498,W,6.2,318,050722,11.8,E,A,V*52
20220705 090705+00:00 $HCHDT,326.8,T*26
20220705 090705+00:00 $WIMWV,9.8,R,3.89,N,A*10
20220705 090707+00:00 $IIMDA,29.9,I,1.013,B,14,C,,C,87.4,,,C,,T,,M,,N,,M*3B
20220705 090707+00:00 $GPRMC,090702,A,4905.7696,N,12324.0498,W,6.2,318,050722,11.8,E,A,V*50
20220705 090707+00:00 $HCHDT,327.3,T*2C
20220705 090707+00:00 $WIMWV,345.09,R,4.68,N,A*22
20220705 090709+00:00 $IIMDA,29.9,I,1.013,B,14,C,,C,87.4,,,C,,T,,M,,N,,M*3B
20220705 090709+00:00 $GPRMC,090704,A,4905.7798,N,12324.0600,W,6.2,318,050722,11.8,E,A,V*5A
20220705 090709+00:00 $HCHDT,327.9,T*26
20220705 090709+00:00 $WIMWV,19.8,R,3.69,N,A*2F
20220705 090711+00:00 $IIMDA,29.9,I,1.013,B,14,C,,C,87.3,,,C,,T,,M,,N,,M*3C
20220705 090711+00:00 $GPRMC,090706,A,4905.7798,N,12324.0600,W,6.2,318,050722,11.8,E,A,V*58
20220705 090711+00:00 $HCHDT,328.3,T*23
20220705 090711+00:00 $WIMWV,353.89,R,4.3,N,A*10
20220705 090713+00:00 $IIMDA,29.9,I,1.013,B,14,C,,C,87.4,,,C,,T,,M,,N,,M*3B
20220705 090713+00:00 $GPRMC,090708,A,4905.7798,N,12324.0600,W,6.2,319,050722,11.8,E,A,V*57
20220705 090713+00:00 $HCHDT,328.7,T*27
20220705 090713+00:00 $WIMWV,344.19,R,3.89,N,A*2A
20220705 090715+00:00 $IIMDA,29.9,I,1.013,B,14,C,,C,87.4,,,C,,T,,M,,N,,M*3B
20220705 090715+00:00 $GPRMC,090710,A,4905.7798,N,12324.0696,W,6.2,319,050722,11.8,E,A,V*51
20220705 090715+00:00 $HCHDT,329,T*3F
20220705 090715+00:00 $WIMWV,1.9,R,3.38,N,A*13
20220705 090717+00:00 $IIMDA,29.9,I,1.013,B,14,C,,C,87.4,,,C,,T,,M,,N,,M*3B
20220705 090717+00:00 $GPRMC,090712,A,4905.7900,N,12324.0696,W,6.2,320,050722,11.8,E,A,V*56
20220705 090717+00:00 $HCHDT,329.2,T*23
20220705 090717+00:00 $WIMWV,348.79,R,3.79,N,A*2F
20220705 090719+00:00 $IIMDA,29.9,I,1.013,B,14,C,,C,87.4,,,C,,T,,M,,N,,M*3B
20220705 090719+00:00 $GPRMC,090714,A,4905.7900,N,12324.0696,W,6.2,320,050722,11.8,E,A,V*50
20220705 090719+00:00 $HCHDT,329.2,T*23
20220705 090719+00:00 $WIMWV,347.09,R,4.08,N,A*26
20220705 090721+00:00 $IIMDA,29.9,I,1.013,B,14,C,,C,87.4,,,C,,T,,M,,N,,M*3B
20220705 090721+00:00 $GPRMC,090716,A,4905.7900,N,12324.0798,W,6.2,320,050722,11.8,E,A,V*5D
20220705 090721+00:00 $HCHDT,329.2,T*23
20220705 090721+00:00 $WIMWV,10.6,R,2.1,N,A*17
20220705 090723+00:00 $IIMDA,29.9,I,1.013,B,14,C,,C,87.4,,,C,,T,,M,,N,,M*3B
20220705 090723+00:00 $GPRMC,090718,A,4905.7996,N,12324.0798,W,6.2,321,050722,11.8,E,A,V*5D
20220705 090723+00:00 $HCHDT,329.1,T*20
20220705 090723+00:00 $WIMWV,357.39,R,4.68,N,A*22
20220705 090725+00:00 $IIMDA,29.9,I,1.013,B,14,C,,C,87.4,,,C,,T,,M,,N,,M*3B
20220705 090725+00:00 $GPRMC,090720,A,4905.7996,N,12324.0798,W,6.2,321,050722,11.8,E,A,V*56
20220705 090725+00:00 $HCHDT,328.9,T*29
20220705 090725+00:00 $WIMWV,353.59,R,3.79,N,A*27
20220705 090727+00:00 $IIMDA,29.9,I,1.013,B,14,C,,C,87.3,,,C,,T,,M,,N,,M*3C
20220705 090727+00:00 $GPRMC,090722,A,4905.7996,N,12324.0900,W,6.2,321,050722,11.8,E,A,V*5B
20220705 090727+00:00 $HCHDT,328.4,T*24
20220705 090727+00:00 $WIMWV,355.49,R,5.09,N,A*21
20220705 090729+00:00 $IIMDA,29.9,I,1.013,B,14,C,,C,87.3,,,C,,T,,M,,N,,M*3C
20220705 090729+00:00 $GPRMC,090724,A,4905.7996,N,12324.0900,W,6.3,321,050722,11.8,E,A,V*5C
20220705 090729+00:00 $HCHDT,327.8,T*27
20220705 090729+00:00 $WIMWV,357.69,R,4.2,N,A*1B
20220705 090731+00:00 $IIMDA,29.9,I,1.013,B,14,C,,C,87.3,,,C,,T,,M,,N,,M*3C
20220705 090731+00:00 $GPRMC,090726,A,4905.8098,N,12324.0900,W,6.3,321,050722,11.8,E,A,V*56
20220705 090731+00:00 $HCHDT,327.3,T*2C
20220705 090731+00:00 $WIMWV,0.19,R,3.98,N,A*29
20220705 090733+00:00 $IIMDA,29.9,I,1.013,B,14,C,,C,87.3,,,C,,T,,M,,N,,M*3C
20220705 090733+00:00 $GPRMC,090728,A,4905.8098,N,12324.0996,W,6.3,321,050722,11.8,E,A,V*57
20220705 090733+00:00 $HCHDT,326.8,T*26
20220705 090733+00:00 $WIMWV,0.19,R,3.6,N,A*1E
20220705 090735+00:00 $IIMDA,29.9,I,1.013,B,14,C,,C,87.3,,,C,,T,,M,,N,,M*3C
20220705 090735+00:00 $GPRMC,090730,A,4905.8098,N,12324.0996,W,6.3,321,050722,11.8,E,A,V*5E
20220705 090735+00:00 $HCHDT,326.5,T*2B
20220705 090735+00:00 $WIMWV,340.39,R,4.08,N,A*22
20220705 090737+00:00 $IIMDA,29.9,I,1.013,B,14,C,,C,87.3,,,C,,T,,M,,N,,M*3C
20220705 090737+00:00 $GPRMC,090732,A,4905.8098,N,12324.0996,W,6.3,321,050722,11.8,E,A,V*5C
20220705 090737+00:00 $HCHDT,326.3,T*2D
20220705 090737+00:00 $WIMWV,344.39,R,1.98,N,A*2A
20220705 090739+00:00 $IIMDA,29.9,I,1.013,B,14,C,,C,87.3,,,C,,T,,M,,N,,M*3C
20220705 090739+00:00 $GPRMC,090734,A,4905.8200,N,12324.1098,W,6.3,321,050722,11.8,E,A,V*5F
20220705 090739+00:00 $HCHDT,326.2,T*2C
20220705 090739+00:00 $WIMWV,12.6,R,2.9,N,A*1D
20220705 090741+00:00 $IIMDA,29.9,I,1.013,B,14,C,,C,87.3,,,C,,T,,M,,N,,M*3C
20220705 090741+00:00 $GPRMC,090736,A,4905.8200,N,12324.1098,W,6.3,320,050722,11.8,E,A,V*5C
20220705 090741+00:00 $HCHDT,326.1,T*2F
20220705 090741+00:00 $WIMWV,7.69,R,3.79,N,A*26
20220705 090743+00:00 $IIMDA,29.9,I,1.013,B,14,C,,C,87.3,,,C,,T,,M,,N,,M*3C
20220705 090743+00:00 $GPRMC,090738,A,4905.8200,N,12324.1098,W,6.3,320,050722,11.8,E,A,V*52
20220705 090743+00:00 $HCHDT,326,T*30
20220705 090743+00:00 $WIMWV,330.99,R,2.1,N,A*10
