20220704 070001+00:00 $IIMDA,29.9,I,1.011,B,11.5,C,,C,94.6,,,C,,T,,M,,N,,M*27
20220704 070001+00:00 $HCHDT,206.7,T*2A
20220704 070001+00:00 $GPRMC,065956,A,4926.4300,N,12646.9698,W,9.19,209,040722,12.3,E,A,V*6A
20220704 070001+00:00 $WIMWV,86.49,R,23.09,N,A*28
20220704 070003+00:00 $IIMDA,29.9,I,1.011,B,11.5,C,,C,94.6,,,C,,T,,M,,N,,M*27
20220704 070003+00:00 $HCHDT,206.8,T*25
20220704 070003+00:00 $GPRMC,065958,A,4926.4300,N,12646.9698,W,9.19,210,040722,12.3,E,A,V*6C
20220704 070003+00:00 $WIMWV,81.8,R,18.29,N,A*10
20220704 070005+00:00 $IIMDA,29.9,I,1.011,B,11.5,C,,C,94.6,,,C,,T,,M,,N,,M*27
20220704 070005+00:00 $HCHDT,206.1,T*2C
20220704 070005+00:00 $GPRMC,070000,A,4926.4198,N,12646.9800,W,9.19,210,040722,12.3,E,A,V*60
20220704 070005+00:00 $WIMWV,87.39,R,14.89,N,A*22
20220704 070007+00:00 $IIMDA,29.9,I,1.011,B,11.5,C,,C,94.6,,,C,,T,,M,,N,,M*27
20220704 070007+00:00 $HCHDT,206.2,T*2F
20220704 070007+00:00 $GPRMC,070002,A,4926.4198,N,12646.9800,W,9.19,209,040722,12.3,E,A,V*6A
20220704 070007+00:00 $WIMWV,85.79,R,15.3,N,A*17
20220704 070009+00:00 $IIMDA,29.9,I,1.011,B,11.5,C,,C,94.6,,,C,,T,,M,,N,,M*27
20220704 070009+00:00 $HCHDT,206.4,T*29
20220704 070009+00:00 $GPRMC,070004,A,4926.4096,N,12646.9800,W,9.19,209,040722,12.3,E,A,V*63
20220704 070009+00:00 $WIMWV,77.19,R,16.1,N,A*1D
20220704 070011+00:00 $IIMDA,29.9,I,1.011,B,11.5,C,,C,94.6,,,C,,T,,M,,N,,M*27
20220704 070011+00:00 $HCHDT,206.2,T*2F
20220704 070011+00:00 $GPRMC,070006,A,4926.4096,N,12646.9896,W,9.19,209,040722,12.3,E,A,V*6E
20220704 070011+00:00 $WIMWV,76.7,R,15.4,N,A*25
20220704 070013+00:00 $IIMDA,29.9,I,1.011,B,11.5,C,,C,94.6,,,C,,T,,M,,N,,M*27
20220704 070013+00:00 $HCHDT,205.7,T*29
20220704 070013+00:00 $GPRMC,070008,A,4926.4000,N,12646.9896,W,9.19,209,040722,12.3,E,A,V*6F
20220704 070013+00:00 $WIMWV,86.89,R,18.19,N,A*2D
20220704 070015+00:00 $IIMDA,29.9,I,1.011,B,11.5,C,,C,94.6,,,C,,T,,M,,N,,M*27
20220704 070015+00:00 $HCHDT,205.6,T*28
20220704 070015+00:00 $GPRMC,070010,A,4926.4000,N,12646.9998,W,9.29,209,040722,12.3,E,A,V*6A
20220704 070015+00:00 $WIMWV,74,R,15.4,N,A*3E
20220704 070017+00:00 $IIMDA,29.9,I,1.011,B,11.6,C,,C,94.6,,,C,,T,,M,,N,,M*24
20220704 070017+00:00 $HCHDT,206.1,T*2C
20220704 070017+00:00 $GPRMC,070012,A,4926.4000,N,12646.9998,W,9.29,209,040722,12.3,E,A,V*68
20220704 070017+00:00 $WIMWV,68.39,R,15.3,N,A*10
20220704 070019+00:00 $IIMDA,29.9,I,1.011,B,11.6,C,,C,94.6,,,C,,T,,M,,N,,M*24
20220704 070019+00:00 $HCHDT,205.5,T*2B
20220704 070019+00:00 $GPRMC,070014,A,4926.3898,N,12646.9998,W,9.29,209,040722,12.3,E,A,V*60
20220704 070019+00:00 $WIMWV,79.7,R,18.19,N,A*1B
20220704 070021+00:00 $IIMDA,29.9,I,1.011,B,11.6,C,,C,94.6,,,C,,T,,M,,N,,M*24
20220704 070021+00:00 $HCHDT,205.6,T*28
20220704 070021+00:00 $GPRMC,070016,A,4926.3898,N,12647.0100,W,9.29,209,040722,12.3,E,A,V*63
20220704 070021+00:00 $WIMWV,87.79,R,16.29,N,A*2E
20220704 070023+00:00 $IIMDA,29.9,I,1.011,B,11.6,C,,C,94.6,,,C,,T,,M,,N,,M*24
20220704 070023+00:00 $HCHDT,206.2,T*2F
20220704 070023+00:00 $GPRMC,070018,A,4926.3796,N,12647.0100,W,9.29,209,040722,12.3,E,A,V*6C
20220704 070023+00:00 $WIMWV,84.69,R,15.49,N,A*29
20220704 070025+00:00 $IIMDA,29.9,I,1.011,B,11.6,C,,C,94.7,,,C,,T,,M,,N,,M*25
20220704 070025+00:00 $HCHDT,205.6,T*28
20220704 070025+00:00 $GPRMC,070020,A,4926.3796,N,12647.0196,W,9.29,209,040722,12.3,E,A,V*68
20220704 070025+00:00 $WIMWV,81.1,R,17.28,N,A*17
20220704 070027+00:00 $IIMDA,29.9,I,1.011,B,11.6,C,,C,94.6,,,C,,T,,M,,N,,M*24
20220704 070027+00:00 $HCHDT,205.7,T*29
20220704 070027+00:00 $GPRMC,070022,A,4926.3700,N,12647.0196,W,9.29,209,040722,12.3,E,A,V*65
20220704 070027+00:00 $WIMWV,82.2,R,17.59,N,A*11
20220704 070029+00:00 $IIMDA,29.9,I,1.011,B,11.6,C,,C,94.7,,,C,,T,,M,,N,,M*25
20220704 070029+00:00 $HCHDT,206.1,T*2C
20220704 070029+00:00 $GPRMC,070024,A,4926.3700,N,12647.0196,W,9.29,209,040722,12.3,E,A,V*63
20220704 070029+00:00 $WIMWV,89.9,R,13.78,N,A*16
20220704 070031+00:00 $IIMDA,29.9,I,1.011,B,11.6,C,,C,94.7,,,C,,T,,M,,N,,M*25
20220704 070031+00:00 $HCHDT,205.8,T*26
20220704 070031+00:00 $GPRMC,070026,A,4926.3598,N,12647.0298,W,9.29,209,040722,12.3,E,A,V*6F
20220704 070031+00:00 $WIMWV,81.39,R,19.79,N,A*26
20220704 070033+00:00 $IIMDA,29.9,I,1.011,B,11.6,C,,C,94.7,,,C,,T,,M,,N,,M*25
20220704 070033+00:00 $HCHDT,205.7,T*29
20220704 070033+00:00 $GPRMC,070028,A,4926.3598,N,12647.0298,W,9.29,209,040722,12.3,E,A,V*61
20220704 070033+00:00 $WIMWV,81.3,R,17.59,N,A*13
20220704 070035+00:00 $IIMDA,29.9,I,1.011,B,11.6,C,,C,94.7,,,C,,T,,M,,N,,M*25
20220704 070035+00:00 $HCHDT,205.6,T*28
20220704 070035+00:00 $GPRMC,070030,A,4926.3598,N,12647.0298,W,9.29,209,040722,12.3,E,A,V*68
20220704 070035+00:00 $WIMWV,90.4,R,23,N,A*31
20220704 070037+00:00 $IIMDA,29.9,I,1.011,B,11.6,C,,C,94.7,,,C,,T,,M,,N,,M*25
20220704 070037+00:00 $HCHDT,205.5,T*2B
20220704 070037+00:00 $GPRMC,070032,A,4926.3496,N,12647.0400,W,9.29,209,040722,12.3,E,A,V*62
20220704 070037+00:00 $WIMWV,88.49,R,20.68,N,A*22
20220704 070039+00:00 $IIMDA,29.9,I,1.011,B,11.6,C,,C,94.7,,,C,,T,,M,,N,,M*25
20220704 070039+00:00 $HCHDT,206.2,T*2F
20220704 070039+00:00 $GPRMC,070034,A,4926.3496,N,12647.0400,W,9.29,209,040722,12.3,E,A,V*64
20220704 070039+00:00 $WIMWV,91.7,R,25.29,N,A*10
20220704 070041+00:00 $IIMDA,29.9,I,1.011,B,11.6,C,,C,94.7,,,C,,T,,M,,N,,M*25
20220704 070041+00:00 $HCHDT,205.1,T*2F
20220704 070041+00:00 $GPRMC,070036,A,4926.3400,N,12647.0496,W,9.29,209,040722,12.3,E,A,V*66
20220704 070041+00:00 $WIMWV,87.99,R,23.99,N,A*2D
20220704 070043+00:00 $IIMDA,29.9,I,1.011,B,11.6,C,,C,94.7,,,C,,T,,M,,N,,M*25
20220704 070043+00:00 $HCHDT,204.9,T*26
20220704 070043+00:00 $GPRMC,070038,A,4926.3400,N,12647.0496,W,9.29,209,040722,12.3,E,A,V*68
20220704 070043+00:00 $WIMWV,90.69,R,23.89,N,A*25
20220704 070045+00:00 $IIMDA,29.9,I,1.011,B,11.6,C,,C,94.7,,,C,,T,,M,,N,,M*25
20220704 070045+00:00 $HCHDT,205.3,T*2D
20220704 070045+00:00 $GPRMC,070040,A,4926.3298,N,12647.0496,W,9.29,209,040722,12.3,E,A,V*60
20220704 070045+00:00 $WIMWV,90.49,R,23.19,N,A*2E
20220704 070047+00:00 $IIMDA,29.9,I,1.011,B,11.6,C,,C,94.6,,,C,,T,,M,,N,,M*24
20220704 070047+00:00 $HCHDT,205.1,T*2F
20220704 070047+00:00 $GPRMC,070042,A,4926.3298,N,12647.0598,W,9.19,208,040722,12.3,E,A,V*6F
20220704 070047+00:00 $WIMWV,87.79,R,21.19,N,A*29
20220704 070049+00:00 $IIMDA,29.9,I,1.011,B,11.6,C,,C,94.7,,,C,,T,,M,,N,,M*25
20220704 070049+00:00 $HCHDT,204.8,T*27
20220704 070049+00:00 $GPRMC,070044,A,4926.3196,N,12647.0598,W,9.19,208,040722,12.3,E,A,V*64
20220704 070049+00:00 $WIMWV,77.19,R,17.28,N,A*27
20220704 070051+00:00 $IIMDA,29.9,I,1.011,B,11.6,C,,C,94.7,,,C,,T,,M,,N,,M*25
20220704 070051+00:00 $HCHDT,205.8,T*26
20220704 070051+00:00 $GPRMC,070046,A,4926.3196,N,12647.0598,W,9.19,208,040722,12.3,E,A,V*66
20220704 070051+00:00 $WIMWV,74.9,R,16.7,N,A*29
20220704 070053+00:00 $IIMDA,29.9,I,1.011,B,11.6,C,,C,94.7,,,C,,T,,M,,N,,M*25
20220704 070053+00:00 $HCHDT,205.1,T*2F
20220704 070053+00:00 $GPRMC,070048,A,4926.3100,N,12647.0700,W,9.19,208,040722,12.3,E,A,V*64
20220704 070053+00:00 $WIMWV,74.9,R,16.7,N,A*29
20220704 070055+00:00 $IIMDA,29.9,I,1.011,B,11.6,C,,C,94.7,,,C,,T,,M,,N,,M*25
20220704 070055+00:00 $HCHDT,205.5,T*2B
20220704 070055+00:00 $GPRMC,070050,A,4926.3100,N,12647.0700,W,9.19,208,040722,12.3,E,A,V*6D
20220704 070055+00:00 $WIMWV,78.9,R,14.6,N,A*26
20220704 070057+00:00 $IIMDA,29.9,I,1.011,B,11.6,C,,C,94.7,,,C,,T,,M,,N,,M*25
20220704 070057+00:00 $HCHDT,206.3,T*2E
20220704 070057+00:00 $GPRMC,070052,A,4926.3100,N,12647.0796,W,9.29,208,040722,12.3,E,A,V*63
20220704 070057+00:00 $WIMWV,90.69,R,31.88,N,A*27
20220704 070059+00:00 $IIMDA,29.9,I,1.011,B,11.6,C,,C,94.6,,,C,,T,,M,,N,,M*24
20220704 070059+00:00 $HCHDT,205.1,T*2F
20220704 070059+00:00 $GPRMC,070054,A,4926.2998,N,12647.0796,W,9.29,208,040722,12.3,E,A,V*6D
20220704 070059+00:00 $WIMWV,90.69,R,32.89,N,A*25
20220704 070101+00:00 $IIMDA,29.9,I,1.011,B,11.6,C,,C,94.6,,,C,,T,,M,,N,,M*24
20220704 070101+00:00 $HCHDT,205.7,T*29
20220704 070101+00:00 $GPRMC,070056,A,4926.2998,N,12647.0796,W,9.29,208,040722,12.3,E,A,V*6F
20220704 070101+00:00 $WIMWV,92.1,R,29.29,N,A*19
20220704 070103+00:00 $IIMDA,29.9,I,1.011,B,11.6,C,,C,94.6,,,C,,T,,M,,N,,M*24
20220704 070103+00:00 $HCHDT,205.9,T*27
20220704 070103+00:00 $GPRMC,070058,A,4926.2896,N,12647.0898,W,9.29,208,040722,12.3,E,A,V*6F
20220704 070103+00:00 $WIMWV,94.5,R,23.38,N,A*11
20220704 070105+00:00 $IIMDA,29.9,I,1.011,B,11.6,C,,C,94.7,,,C,,T,,M,,N,,M*25
20220704 070105+00:00 $HCHDT,205,T*30
20220704 070105+00:00 $GPRMC,070100,A,4926.2896,N,12647.0898,W,9.29,208,040722,12.3,E,A,V*63
20220704 070105+00:00 $WIMWV,94.5,R,23.29,N,A*11
20220704 070107+00:00 $IIMDA,29.9,I,1.011,B,11.6,C,,C,94.7,,,C,,T,,M,,N,,M*25
20220704 070107+00:00 $HCHDT,205.6,T*28
20220704 070107+00:00 $GPRMC,070102,A,4926.2800,N,12647.0898,W,9.29,208,040722,12.3,E,A,V*6E
20220704 070107+00:00 $WIMWV,87.3,R,18.89,N,A*17
20220704 070109+00:00 $IIMDA,29.9,I,1.011,B,11.6,C,,C,94.6,,,C,,T,,M,,N,,M*24
20220704 070109+00:00 $HCHDT,205.6,T*28
20220704 070109+00:00 $GPRMC,070104,A,4926.2800,N,12647.1000,W,9.29,208,040722,12.3,E,A,V*60
20220704 070109+00:00 $WIMWV,87,R,18.8,N,A*33
20220704 070111+00:00 $IIMDA,29.9,I,1.011,B,11.6,C,,C,94.7,,,C,,T,,M,,N,,M*25
20220704 070111+00:00 $HCHDT,204.8,T*27
20220704 070111+00:00 $GPRMC,070106,A,4926.2698,N,12647.1000,W,9.29,208,040722,12.3,E,A,V*6D
20220704 070111+00:00 $WIMWV,87,R,18.8,N,A*33
20220704 070113+00:00 $IIMDA,29.9,I,1.011,B,11.6,C,,C,94.7,,,C,,T,,M,,N,,M*25
20220704 070113+00:00 $HCHDT,205.3,T*2D
20220704 070113+00:00 $GPRMC,070108,A,4926.2698,N,12647.1096,W,9.29,208,040722,12.3,E,A,V*6C
20220704 070113+00:00 $WIMWV,87,R,18.8,N,A*33
20220704 070115+00:00 $IIMDA,29.9,I,1.011,B,11.6,C,,C,94.6,,,C,,T,,M,,N,,M*24
20220704 070115+00:00 $HCHDT,205.6,T*28
20220704 070115+00:00 $GPRMC,070110,A,4926.2596,N,12647.1096,W,9.29,208,040722,12.3,E,A,V*68
20220704 070115+00:00 $WIMWV,95,R,17.09,N,A*0E
20220704 070117+00:00 $IIMDA,29.9,I,1.011,B,11.6,C,,C,94.7,,,C,,T,,M,,N,,M*25
20220704 070117+00:00 $HCHDT,204.9,T*26
20220704 070117+00:00 $GPRMC,070112,A,4926.2596,N,12647.1096,W,9.29,208,040722,12.3,E,A,V*6A
20220704 070117+00:00 $WIMWV,95.7,R,17.28,N,A*14
20220704 070119+00:00 $IIMDA,29.9,I,1.011,B,11.6,C,,C,94.7,,,C,,T,,M,,N,,M*25
20220704 070119+00:00 $HCHDT,205.5,T*2B
20220704 070119+00:00 $GPRMC,070114,A,4926.2596,N,12647.1198,W,9.29,208,040722,12.3,E,A,V*63
20220704 070119+00:00 $WIMWV,95.7,R,17.28,N,A*14
20220704 070121+00:00 $IIMDA,29.9,I,1.011,B,11.6,C,,C,94.7,,,C,,T,,M,,N,,M*25
20220704 070121+00:00 $HCHDT,205.1,T*2F
20220704 070121+00:00 $GPRMC,070116,A,4926.2500,N,12647.1198,W,9.29,208,040722,12.3,E,A,V*6E
20220704 070121+00:00 $WIMWV,95.4,R,18.19,N,A*1A
20220704 070123+00:00 $IIMDA,29.9,I,1.011,B,11.6,C,,C,94.7,,,C,,T,,M,,N,,M*25
20220704 070123+00:00 $HCHDT,205.3,T*2D
20220704 070123+00:00 $GPRMC,070118,A,4926.2500,N,12647.1198,W,9.29,208,040722,12.3,E,A,V*60
20220704 070123+00:00 $WIMWV,77.89,R,14.29,N,A*2C
20220704 070125+00:00 $IIMDA,29.9,I,1.011,B,11.6,C,,C,94.7,,,C,,T,,M,,N,,M*25
20220704 070125+00:00 $HCHDT,205.6,T*28
20220704 070125+00:00 $GPRMC,070120,A,4926.2398,N,12647.1300,W,9.29,208,040722,12.3,E,A,V*6F
20220704 070125+00:00 $WIMWV,86.2,R,17.79,N,A*17
20220704 070127+00:00 $IIMDA,29.9,I,1.011,B,11.6,C,,C,94.7,,,C,,T,,M,,N,,M*25
20220704 070127+00:00 $HCHDT,205.7,T*29
20220704 070127+00:00 $GPRMC,070122,A,4926.2398,N,12647.1300,W,9.19,209,040722,12.3,E,A,V*6F
20220704 070127+00:00 $WIMWV,75.8,R,14.7,N,A*2B
20220704 070129+00:00 $IIMDA,29.9,I,1.011,B,11.6,C,,C,94.7,,,C,,T,,M,,N,,M*25
20220704 070129+00:00 $HCHDT,204.8,T*27
20220704 070129+00:00 $GPRMC,070124,A,4926.2296,N,12647.1396,W,9.19,209,040722,12.3,E,A,V*69
20220704 070129+00:00 $WIMWV,77.8,R,16.7,N,A*2B
20220704 070131+00:00 $IIMDA,29.9,I,1.011,B,11.6,C,,C,94.7,,,C,,T,,M,,N,,M*25
20220704 070131+00:00 $HCHDT,205.4,T*2A
20220704 070131+00:00 $GPRMC,070126,A,4926.2296,N,12647.1396,W,9.29,208,040722,12.3,E,A,V*69
20220704 070131+00:00 $WIMWV,82.2,R,18.1,N,A*23
20220704 070133+00:00 $IIMDA,29.9,I,1.011,B,11.6,C,,C,94.7,,,C,,T,,M,,N,,M*25
20220704 070133+00:00 $HCHDT,205.2,T*2C
20220704 070133+00:00 $GPRMC,070128,A,4926.2200,N,12647.1396,W,9.29,208,040722,12.3,E,A,V*68
20220704 070133+00:00 $WIMWV,81.9,R,18.19,N,A*12
20220704 070135+00:00 $IIMDA,29.9,I,1.011,B,11.6,C,,C,94.7,,,C,,T,,M,,N,,M*25
20220704 070135+00:00 $HCHDT,204.7,T*28
20220704 070135+00:00 $GPRMC,070130,A,4926.2200,N,12647.1498,W,9.29,208,040722,12.3,E,A,V*68
20220704 070135+00:00 $WIMWV,81.9,R,18.19,N,A*12
20220704 070137+00:00 $IIMDA,29.9,I,1.011,B,11.6,C,,C,94.7,,,C,,T,,M,,N,,M*25
20220704 070137+00:00 $HCHDT,204.4,T*2B
20220704 070137+00:00 $GPRMC,070132,A,4926.2098,N,12647.1498,W,9.29,208,040722,12.3,E,A,V*69
20220704 070137+00:00 $WIMWV,81.9,R,18.19,N,A*12
20220704 070139+00:00 $IIMDA,29.9,I,1.011,B,11.6,C,,C,94.7,,,C,,T,,M,,N,,M*25
20220704 070139+00:00 $HCHDT,202.8,T*21
20220704 070139+00:00 $GPRMC,070134,A,4926.2098,N,12647.1498,W,9.19,208,040722,12.3,E,A,V*6C
20220704 070139+00:00 $WIMWV,81.9,R,18.19,N,A*12
20220704 070141+00:00 $IIMDA,29.9,I,1.011,B,11.6,C,,C,94.7,,,C,,T,,M,,N,,M*25
20220704 070141+00:00 $HCHDT,201.9,T*23
20220704 070141+00:00 $GPRMC,070136,A,4926.2098,N,12647.1600,W,9.29,208,040722,12.3,E,A,V*6E
20220704 070141+00:00 $WIMWV,81.9,R,18.19,N,A*12
20220704 070143+00:00 $IIMDA,29.9,I,1.011,B,11.6,C,,C,94.7,,,C,,T,,M,,N,,M*25
20220704 070143+00:00 $HCHDT,200.6,T*2D
20220704 070143+00:00 $GPRMC,070138,A,4926.1996,N,12647.1600,W,9.29,207,040722,12.3,E,A,V*6B
20220704 070143+00:00 $WIMWV,81.9,R,18.19,N,A*12
20220704 070145+00:00 $IIMDA,29.9,I,1.011,B,11.6,C,,C,94.7,,,C,,T,,M,,N,,M*25
20220704 070145+00:00 $HCHDT,198.9,T*20
20220704 070145+00:00 $GPRMC,070140,A,4926.1996,N,12647.1600,W,9.19,207,040722,12.3,E,A,V*67
20220704 070145+00:00 $WIMWV,81.9,R,18.19,N,A*12
20220704 070147+00:00 $IIMDA,29.9,I,1.011,B,11.6,C,,C,94.6,,,C,,T,,M,,N,,M*24
20220704 070147+00:00 $HCHDT,198.3,T*2A
20220704 070147+00:00 $GPRMC,070142,A,4926.1900,N,12647.1696,W,9.19,206,040722,12.3,E,A,V*64
20220704 070147+00:00 $WIMWV,81.9,R,18.19,N,A*12
20220704 070149+00:00 $IIMDA,29.9,I,1.011,B,11.6,C,,C,94.6,,,C,,T,,M,,N,,M*24
20220704 070149+00:00 $HCHDT,198.7,T*2E
20220704 070149+00:00 $GPRMC,070144,A,4926.1900,N,12647.1696,W,9.19,205,040722,12.3,E,A,V*61
20220704 070149+00:00 $WIMWV,81.9,R,18.19,N,A*12
20220704 070151+00:00 $IIMDA,29.9,I,1.011,B,11.6,C,,C,94.7,,,C,,T,,M,,N,,M*25
20220704 070151+00:00 $HCHDT,198.7,T*2E
20220704 070151+00:00 $GPRMC,070146,A,4926.1798,N,12647.1696,W,9.19,204,040722,12.3,E,A,V*6D
20220704 070151+00:00 $WIMWV,81.9,R,18.19,N,A*12
20220704 070153+00:00 $IIMDA,29.9,I,1.011,B,11.6,C,,C,94.7,,,C,,T,,M,,N,,M*25
20220704 070153+00:00 $HCHDT,198.6,T*2F
20220704 070153+00:00 $GPRMC,070148,A,4926.1798,N,12647.1798,W,9.19,203,040722,12.3,E,A,V*6B
20220704 070153+00:00 $WIMWV,81.9,R,18.19,N,A*12
20220704 070155+00:00 $IIMDA,29.9,I,1.011,B,11.6,C,,C,94.7,,,C,,T,,M,,N,,M*25
20220704 070155+00:00 $HCHDT,199.1,T*29
20220704 070155+00:00 $GPRMC,070150,A,4926.1696,N,12647.1798,W,9.19,203,040722,12.3,E,A,V*6D
20220704 070155+00:00 $WIMWV,81.9,R,18.19,N,A*12
20220704 070157+00:00 $IIMDA,29.9,I,1.011,B,11.6,C,,C,94.7,,,C,,T,,M,,N,,M*25
20220704 070157+00:00 $HCHDT,199.7,T*2F
20220704 070157+00:00 $GPRMC,070152,A,4926.1696,N,12647.1798,W,9.19,203,040722,12.3,E,A,V*6F
20220704 070157+00:00 $WIMWV,81.9,R,18.19,N,A*12
20220704 070159+00:00 $IIMDA,29.9,I,1.011,B,11.6,C,,C,94.6,,,C,,T,,M,,N,,M*24
20220704 070159+00:00 $HCHDT,199.7,T*2F
20220704 070159+00:00 $GPRMC,070154,A,4926.1600,N,12647.1900,W,9.19,203,040722,12.3,E,A,V*69
20220704 070159+00:00 $WIMWV,81.9,R,18.19,N,A*12
20220704 070201+00:00 $IIMDA,29.9,I,1.011,B,11.6,C,,C,94.7,,,C,,T,,M,,N,,M*25
20220704 070201+00:00 $HCHDT,199.8,T*20
20220704 070201+00:00 $GPRMC,070156,A,4926.1600,N,12647.1900,W,9.19,203,040722,12.3,E,A,V*6B
20220704 070201+00:00 $WIMWV,81.9,R,18.19,N,A*12
20220704 070203+00:00 $IIMDA,29.9,I,1.011,B,11.6,C,,C,94.6,,,C,,T,,M,,N,,M*24
20220704 070203+00:00 $HCHDT,199.7,T*2F
20220704 070203+00:00 $GPRMC,070158,A,4926.1498,N,12647.1900,W,9.19,203,040722,12.3,E,A,V*66
20220704 070203+00:00 $WIMWV,84.6,R,17.98,N,A*1E
20220704 070205+00:00 $IIMDA,29.9,I,1.011,B,11.6,C,,C,94.7,,,C,,T,,M,,N,,M*25
20220704 070205+00:00 $HCHDT,200.5,T*2E
20220704 070205+00:00 $GPRMC,070200,A,4926.1498,N,12647.1900,W,9.29,203,040722,12.3,E,A,V*6B
20220704 070205+00:00 $WIMWV,85.19,R,17.98,N,A*21
20220704 070207+00:00 $IIMDA,29.9,I,1.011,B,11.6,C,,C,94.7,,,C,,T,,M,,N,,M*25
20220704 070207+00:00 $HCHDT,201.1,T*2B
20220704 070207+00:00 $GPRMC,070202,A,4926.1396,N,12647.1996,W,9.29,203,040722,12.3,E,A,V*6F
20220704 070207+00:00 $WIMWV,85.19,R,17.98,N,A*21
20220704 070209+00:00 $IIMDA,29.9,I,1.011,B,11.6,C,,C,94.7,,,C,,T,,M,,N,,M*25
20220704 070209+00:00 $HCHDT,200,T*35
20220704 070209+00:00 $GPRMC,070204,A,4926.1396,N,12647.1996,W,9.29,203,040722,12.3,E,A,V*69
20220704 070209+00:00 $WIMWV,89.7,R,19.79,N,A*13
20220704 070211+00:00 $IIMDA,29.9,I,1.011,B,11.6,C,,C,94.7,,,C,,T,,M,,N,,M*25
20220704 070211+00:00 $HCHDT,200.4,T*2F
20220704 070211+00:00 $GPRMC,070206,A,4926.1396,N,12647.1996,W,9.29,204,040722,12.3,E,A,V*6C
20220704 070211+00:00 $WIMWV,91,R,20.49,N,A*0A
20220704 070213+00:00 $IIMDA,29.9,I,1.011,B,11.6,C,,C,94.7,,,C,,T,,M,,N,,M*25
20220704 070213+00:00 $HCHDT,198.7,T*2E
20220704 070213+00:00 $GPRMC,070208,A,4926.1300,N,12647.2098,W,9.29,204,040722,12.3,E,A,V*69
20220704 070213+00:00 $WIMWV,91.99,R,20.68,N,A*27
20220704 070215+00:00 $IIMDA,29.9,I,1.011,B,11.6,C,,C,94.6,,,C,,T,,M,,N,,M*24
20220704 070215+00:00 $HCHDT,197.1,T*27
20220704 070215+00:00 $GPRMC,070210,A,4926.1300,N,12647.2098,W,9.29,203,040722,12.3,E,A,V*67
20220704 070215+00:00 $WIMWV,92.19,R,20.78,N,A*2D
20220704 070217+00:00 $IIMDA,29.9,I,1.011,B,11.6,C,,C,94.6,,,C,,T,,M,,N,,M*24
20220704 070217+00:00 $HCHDT,196,T*39
20220704 070217+00:00 $GPRMC,070212,A,4926.1198,N,12647.2098,W,9.19,203,040722,12.3,E,A,V*65
20220704 070217+00:00 $WIMWV,110,R,19.98,N,A*34
20220704 070219+00:00 $IIMDA,29.9,I,1.011,B,11.6,C,,C,94.6,,,C,,T,,M,,N,,M*24
20220704 070219+00:00 $HCHDT,194.3,T*26
20220704 070219+00:00 $GPRMC,070214,A,4926.1198,N,12647.2200,W,9.19,202,040722,12.3,E,A,V*61
20220704 070219+00:00 $WIMWV,114.4,R,23.89,N,A*23
20220704 070221+00:00 $IIMDA,29.9,I,1.011,B,11.6,C,,C,94.6,,,C,,T,,M,,N,,M*24
20220704 070221+00:00 $HCHDT,194.5,T*20
20220704 070221+00:00 $GPRMC,070216,A,4926.1096,N,12647.2200,W,9.19,201,040722,12.3,E,A,V*6F
20220704 070221+00:00 $WIMWV,116.09,R,26.18,N,A*11
20220704 070223+00:00 $IIMDA,29.9,I,1.011,B,11.6,C,,C,94.6,,,C,,T,,M,,N,,M*24
20220704 070223+00:00 $HCHDT,194.4,T*21
20220704 070223+00:00 $GPRMC,070218,A,4926.1096,N,12647.2200,W,9.19,200,040722,12.3,E,A,V*60
20220704 070223+00:00 $WIMWV,116,R,26.28,N,A*35
20220704 070225+00:00 $IIMDA,29.9,I,1.011,B,11.6,C,,C,94.6,,,C,,T,,M,,N,,M*24
20220704 070225+00:00 $HCHDT,194.8,T*2D
20220704 070225+00:00 $GPRMC,070220,A,4926.1000,N,12647.2200,W,9.1,200,040722,12.3,E,A,V*5D
20220704 070225+00:00 $WIMWV,116,R,26.28,N,A*35
20220704 070227+00:00 $IIMDA,29.9,I,1.011,B,11.6,C,,C,94.6,,,C,,T,,M,,N,,M*24
20220704 070227+00:00 $HCHDT,194.8,T*2D
20220704 070227+00:00 $GPRMC,070222,A,4926.1000,N,12647.2296,W,9.1,199,040722,12.3,E,A,V*53
20220704 070227+00:00 $WIMWV,116,R,26.28,N,A*35
20220704 070229+00:00 $IIMDA,29.9,I,1.011,B,11.6,C,,C,94.6,,,C,,T,,M,,N,,M*24
20220704 070229+00:00 $HCHDT,195.3,T*27
20220704 070229+00:00 $GPRMC,070224,A,4926.0898,N,12647.2296,W,9.1,199,040722,12.3,E,A,V*5D
20220704 070229+00:00 $WIMWV,104.3,R,17.98,N,A*22
20220704 070231+00:00 $IIMDA,29.9,I,1.011,B,11.6,C,,C,94.6,,,C,,T,,M,,N,,M*24
20220704 070231+00:00 $HCHDT,195.9,T*2D
20220704 070231+00:00 $GPRMC,070226,A,4926.0898,N,12647.2296,W,9.19,199,040722,12.3,E,A,V*66
20220704 070231+00:00 $WIMWV,102.9,R,17.98,N,A*2E
20220704 070233+00:00 $IIMDA,29.9,I,1.011,B,11.6,C,,C,94.6,,,C,,T,,M,,N,,M*24
20220704 070233+00:00 $HCHDT,195.8,T*2C
20220704 070233+00:00 $GPRMC,070228,A,4926.0796,N,12647.2296,W,9.19,199,040722,12.3,E,A,V*69
20220704 070233+00:00 $WIMWV,102.9,R,17.98,N,A*2E
20220704 070235+00:00 $IIMDA,29.9,I,1.011,B,11.6,C,,C,94.6,,,C,,T,,M,,N,,M*24
20220704 070235+00:00 $HCHDT,196,T*39
20220704 070235+00:00 $GPRMC,070230,A,4926.0796,N,12647.2398,W,9.19,199,040722,12.3,E,A,V*6F
20220704 070235+00:00 $WIMWV,102.9,R,17.98,N,A*2E
20220704 070237+00:00 $IIMDA,29.9,I,1.011,B,11.6,C,,C,94.7,,,C,,T,,M,,N,,M*25
20220704 070237+00:00 $HCHDT,196,T*39
20220704 070237+00:00 $GPRMC,070232,A,4926.0700,N,12647.2398,W,9.19,199,040722,12.3,E,A,V*62
20220704 070237+00:00 $WIMWV,102.9,R,17.98,N,A*2E
20220704 070239+00:00 $IIMDA,29.9,I,1.011,B,11.6,C,,C,94.7,,,C,,T,,M,,N,,M*25
20220704 070239+00:00 $HCHDT,195.1,T*25
20220704 070239+00:00 $GPRMC,070234,A,4926.0700,N,12647.2398,W,9.29,199,040722,12.3,E,A,V*67
20220704 070239+00:00 $WIMWV,66.9,R,18.8,N,A*2B
20220704 070241+00:00 $IIMDA,29.9,I,1.011,B,11.6,C,,C,94.7,,,C,,T,,M,,N,,M*25
20220704 070241+00:00 $HCHDT,194.9,T*2C
20220704 070241+00:00 $GPRMC,070236,A,4926.0598,N,12647.2398,W,9.29,199,040722,12.3,E,A,V*66
20220704 070241+00:00 $WIMWV,95.2,R,10.69,N,A*13
20220704 070243+00:00 $IIMDA,29.9,I,1.011,B,11.6,C,,C,94.7,,,C,,T,,M,,N,,M*25
20220704 070243+00:00 $HCHDT,193.5,T*27
20220704 070243+00:00 $GPRMC,070238,A,4926.0598,N,12647.2500,W,9.29,199,040722,12.3,E,A,V*6F
20220704 070243+00:00 $WIMWV,120.29,R,8.4,N,A*17
20220704 070245+00:00 $IIMDA,29.9,I,1.011,B,11.6,C,,C,94.7,,,C,,T,,M,,N,,M*25
20220704 070245+00:00 $HCHDT,191.8,T*28
20220704 070245+00:00 $GPRMC,070240,A,4926.0496,N,12647.2500,W,9.19,199,040722,12.3,E,A,V*6C
20220704 070245+00:00 $WIMWV,95.2,R,10.28,N,A*16
20220704 070247+00:00 $IIMDA,29.9,I,1.011,B,11.6,C,,C,94.7,,,C,,T,,M,,N,,M*25
20220704 070247+00:00 $HCHDT,191.2,T*22
20220704 070247+00:00 $GPRMC,070242,A,4926.0496,N,12647.2500,W,9.19,198,040722,12.3,E,A,V*6F
20220704 070247+00:00 $WIMWV,101.6,R,6.88,N,A*13
20220704 070249+00:00 $IIMDA,29.9,I,1.011,B,11.6,C,,C,94.7,,,C,,T,,M,,N,,M*25
20220704 070249+00:00 $HCHDT,191.3,T*23
20220704 070249+00:00 $GPRMC,070244,A,4926.0400,N,12647.2500,W,9.19,198,040722,12.3,E,A,V*66
20220704 070249+00:00 $WIMWV,91,R,14.89,N,A*01
20220704 070251+00:00 $IIMDA,29.9,I,1.011,B,11.6,C,,C,94.7,,,C,,T,,M,,N,,M*25
20220704 070251+00:00 $HCHDT,190.8,T*29
20220704 070251+00:00 $GPRMC,070246,A,4926.0400,N,12647.2500,W,9.1,197,040722,12.3,E,A,V*52
20220704 070251+00:00 $WIMWV,88.2,R,11.68,N,A*1F
20220704 070253+00:00 $IIMDA,29.9,I,1.011,B,11.6,C,,C,94.7,,,C,,T,,M,,N,,M*25
20220704 070253+00:00 $HCHDT,191.2,T*22
20220704 070253+00:00 $GPRMC,070248,A,4926.0298,N,12647.2596,W,9.1,196,040722,12.3,E,A,V*55
20220704 070253+00:00 $WIMWV,87.99,R,11.59,N,A*20
20220704 070255+00:00 $IIMDA,29.9,I,1.011,B,11.6,C,,C,94.7,,,C,,T,,M,,N,,M*25
20220704 070255+00:00 $HCHDT,191.4,T*24
20220704 070255+00:00 $GPRMC,070250,A,4926.0298,N,12647.2596,W,9.1,196,040722,12.3,E,A,V*5C
20220704 070255+00:00 $WIMWV,77.69,R,12.89,N,A*2E
20220704 070257+00:00 $IIMDA,29.9,I,1.011,B,11.6,C,,C,94.7,,,C,,T,,M,,N,,M*25
20220704 070257+00:00 $HCHDT,191.7,T*27
20220704 070257+00:00 $GPRMC,070252,A,4926.0196,N,12647.2596,W,9.1,196,040722,12.3,E,A,V*53
20220704 070257+00:00 $WIMWV,83.39,R,15.4,N,A*12
20220704 070259+00:00 $IIMDA,29.9,I,1.011,B,11.6,C,,C,94.8,,,C,,T,,M,,N,,M*2A
20220704 070259+00:00 $HCHDT,192,T*3D
20220704 070259+00:00 $GPRMC,070254,A,4926.0196,N,12647.2596,W,9.1,196,040722,12.3,E,A,V*55
20220704 070259+00:00 $WIMWV,93.99,R,9.99,N,A*10
20220704 070301+00:00 $IIMDA,29.9,I,1.011,B,11.6,C,,C,94.7,,,C,,T,,M,,N,,M*25
20220704 070301+00:00 $HCHDT,192.2,T*21
20220704 070301+00:00 $GPRMC,070256,A,4926.0100,N,12647.2698,W,9.1,196,040722,12.3,E,A,V*55
20220704 070301+00:00 $WIMWV,79.6,R,10.38,N,A*11
20220704 070303+00:00 $IIMDA,29.9,I,1.011,B,11.6,C,,C,94.7,,,C,,T,,M,,N,,M*25
20220704 070303+00:00 $HCHDT,192.2,T*21
20220704 070303+00:00 $GPRMC,070258,A,4926.0100,N,12647.2698,W,9.19,196,040722,12.3,E,A,V*62
20220704 070303+00:00 $WIMWV,78.29,R,15.08,N,A*2B
20220704 070305+00:00 $IIMDA,29.9,I,1.011,B,11.6,C,,C,94.7,,,C,,T,,M,,N,,M*25
20220704 070305+00:00 $HCHDT,191.8,T*28
20220704 070305+00:00 $GPRMC,070300,A,4925.9998,N,12647.2698,W,9.19,196,040722,12.3,E,A,V*6D
20220704 070305+00:00 $WIMWV,79.89,R,15.18,N,A*21
20220704 070307+00:00 $IIMDA,29.9,I,1.011,B,11.6,C,,C,94.7,,,C,,T,,M,,N,,M*25
20220704 070307+00:00 $HCHDT,191.4,T*24
20220704 070307+00:00 $GPRMC,070302,A,4925.9998,N,12647.2698,W,9.19,196,040722,12.3,E,A,V*6F
20220704 070307+00:00 $WIMWV,83.59,R,15.3,N,A*13
20220704 070309+00:00 $IIMDA,29.9,I,1.011,B,11.6,C,,C,94.7,,,C,,T,,M,,N,,M*25
20220704 070309+00:00 $HCHDT,191.5,T*25
20220704 070309+00:00 $GPRMC,070304,A,4925.9896,N,12647.2698,W,9.19,196,040722,12.3,E,A,V*66
20220704 070309+00:00 $WIMWV,85.9,R,15.4,N,A*27
20220704 070311+00:00 $IIMDA,29.9,I,1.011,B,11.6,C,,C,94.7,,,C,,T,,M,,N,,M*25
20220704 070311+00:00 $HCHDT,191.7,T*27
20220704 070311+00:00 $GPRMC,070306,A,4925.9896,N,12647.2800,W,9.19,196,040722,12.3,E,A,V*6B
20220704 070311+00:00 $WIMWV,90.49,R,7.39,N,A*1A
20220704 070313+00:00 $IIMDA,29.9,I,1.011,B,11.6,C,,C,94.7,,,C,,T,,M,,N,,M*25
20220704 070313+00:00 $HCHDT,191.8,T*28
20220704 070313+00:00 $GPRMC,070308,A,4925.9800,N,12647.2800,W,9.19,196,040722,12.3,E,A,V*6A
20220704 070313+00:00 $WIMWV,92.8,R,10.28,N,A*1B
20220704 070315+00:00 $IIMDA,29.9,I,1.011,B,11.6,C,,C,94.7,,,C,,T,,M,,N,,M*25
20220704 070315+00:00 $HCHDT,191.4,T*24
20220704 070315+00:00 $GPRMC,070310,A,4925.9800,N,12647.2800,W,9.29,196,040722,12.3,E,A,V*60
20220704 070315+00:00 $WIMWV,92.8,R,10.28,N,A*1B
20220704 070317+00:00 $IIMDA,29.9,I,1.011,B,11.6,C,,C,94.7,,,C,,T,,M,,N,,M*25
20220704 070317+00:00 $HCHDT,190.4,T*25
20220704 070317+00:00 $GPRMC,070312,A,4925.9698,N,12647.2800,W,9.19,196,040722,12.3,E,A,V*6E
20220704 070317+00:00 $WIMWV,85.39,R,11.9,N,A*1D
20220704 070319+00:00 $IIMDA,29.9,I,1.011,B,11.6,C,,C,94.7,,,C,,T,,M,,N,,M*25
20220704 070319+00:00 $HCHDT,189.8,T*21
20220704 070319+00:00 $GPRMC,070314,A,4925.9698,N,12647.2896,W,9.19,196,040722,12.3,E,A,V*67
20220704 070319+00:00 $WIMWV,74.9,R,12.38,N,A*11
20220704 070321+00:00 $IIMDA,29.9,I,1.011,B,11.6,C,,C,94.7,,,C,,T,,M,,N,,M*25
20220704 070321+00:00 $HCHDT,189.3,T*2A
20220704 070321+00:00 $GPRMC,070316,A,4925.9698,N,12647.2896,W,9.19,196,040722,12.3,E,A,V*65
20220704 070321+00:00 $WIMWV,96.3,R,9.68,N,A*28
20220704 070323+00:00 $IIMDA,29.9,I,1.011,B,11.6,C,,C,94.7,,,C,,T,,M,,N,,M*25
20220704 070323+00:00 $HCHDT,185.5,T*20
20220704 070323+00:00 $GPRMC,070318,A,4925.9596,N,12647.2896,W,9.1,195,040722,12.3,E,A,V*5C
20220704 070323+00:00 $WIMWV,89.79,R,5.38,N,A*12
20220704 070325+00:00 $IIMDA,29.9,I,1.011,B,11.6,C,,C,94.7,,,C,,T,,M,,N,,M*25
20220704 070325+00:00 $HCHDT,183.9,T*2A
20220704 070325+00:00 $GPRMC,070320,A,4925.9596,N,12647.2896,W,9.1,194,040722,12.3,E,A,V*56
20220704 070325+00:00 $WIMWV,83.9,R,8.18,N,A*20
20220704 070327+00:00 $IIMDA,29.9,I,1.011,B,11.6,C,,C,94.7,,,C,,T,,M,,N,,M*25
20220704 070327+00:00 $HCHDT,184,T*3A
20220704 070327+00:00 $GPRMC,070322,A,4925.9500,N,12647.2896,W,9.1,193,040722,12.3,E,A,V*5C
20220704 070327+00:00 $WIMWV,61.79,R,5.99,N,A*1F
20220704 070329+00:00 $IIMDA,29.9,I,1.011,B,11.6,C,,C,94.7,,,C,,T,,M,,N,,M*25
20220704 070329+00:00 $HCHDT,181.2,T*23
20220704 070329+00:00 $GPRMC,070324,A,4925.9500,N,12647.2896,W,9,192,040722,12.3,E,A,V*44
20220704 070329+00:00 $WIMWV,44.09,R,4.78,N,A*11
20220704 070331+00:00 $IIMDA,29.9,I,1.011,B,11.6,C,,C,94.7,,,C,,T,,M,,N,,M*25
20220704 070331+00:00 $HCHDT,178,T*39
20220704 070331+00:00 $GPRMC,070326,A,4925.9398,N,12647.2896,W,9,190,040722,12.3,E,A,V*43
20220704 070331+00:00 $WIMWV,72.79,R,1.79,N,A*17
20220704 070333+00:00 $IIMDA,29.9,I,1.011,B,11.6,C,,C,94.7,,,C,,T,,M,,N,,M*25
20220704 070333+00:00 $HCHDT,178.1,T*26
20220704 070333+00:00 $GPRMC,070328,A,4925.9398,N,12647.2896,W,8.9,189,040722,12.3,E,A,V*53
20220704 070333+00:00 $WIMWV,66.9,R,3.6,N,A*1F
20220704 070335+00:00 $IIMDA,29.9,I,1.011,B,11.6,C,,C,94.7,,,C,,T,,M,,N,,M*25
20220704 070335+00:00 $HCHDT,179.4,T*22
20220704 070335+00:00 $GPRMC,070330,A,4925.9296,N,12647.2896,W,8.9,187,040722,12.3,E,A,V*5B
20220704 070335+00:00 $WIMWV,59.4,R,4.39,N,A*25
20220704 070337+00:00 $IIMDA,29.9,I,1.011,B,11.6,C,,C,94.7,,,C,,T,,M,,N,,M*25
20220704 070337+00:00 $HCHDT,179.2,T*24
20220704 070337+00:00 $GPRMC,070332,A,4925.9296,N,12647.2896,W,9,186,040722,12.3,E,A,V*4E
20220704 070337+00:00 $WIMWV,58.5,R,5.29,N,A*25
20220704 070339+00:00 $IIMDA,29.9,I,1.011,B,11.6,C,,C,94.6,,,C,,T,,M,,N,,M*24
20220704 070339+00:00 $HCHDT,178.5,T*22
20220704 070339+00:00 $GPRMC,070334,A,4925.9200,N,12647.2998,W,9,185,040722,12.3,E,A,V*4B
20220704 070339+00:00 $WIMWV,66.9,R,2.39,N,A*22
20220704 070341+00:00 $IIMDA,29.9,I,1.011,B,11.6,C,,C,94.6,,,C,,T,,M,,N,,M*24
20220704 070341+00:00 $HCHDT,178.3,T*24
20220704 070341+00:00 $GPRMC,070336,A,4925.9200,N,12647.2998,W,9,184,040722,12.3,E,A,V*48
20220704 070341+00:00 $WIMWV,87.59,R,1.69,N,A*1E
20220704 070343+00:00 $IIMDA,29.9,I,1.011,B,11.6,C,,C,94.6,,,C,,T,,M,,N,,M*24
20220704 070343+00:00 $HCHDT,180.1,T*21
20220704 070343+00:00 $GPRMC,070338,A,4925.9098,N,12647.2998,W,9.1,184,040722,12.3,E,A,V*5A
20220704 070343+00:00 $WIMWV,60.1,R,5.89,N,A*20
20220704 070345+00:00 $IIMDA,29.9,I,1.011,B,11.6,C,,C,94.6,,,C,,T,,M,,N,,M*24
20220704 070345+00:00 $HCHDT,181.3,T*22
20220704 070345+00:00 $GPRMC,070340,A,4925.9098,N,12647.2998,W,9.19,184,040722,12.3,E,A,V*6C
20220704 070345+00:00 $WIMWV,85.3,R,6.88,N,A*2B
20220704 070347+00:00 $IIMDA,29.9,I,1.011,B,11.6,C,,C,94.7,,,C,,T,,M,,N,,M*25
20220704 070347+00:00 $HCHDT,180.2,T*22
20220704 070347+00:00 $GPRMC,070342,A,4925.8996,N,12647.2998,W,9.19,185,040722,12.3,E,A,V*69
20220704 070347+00:00 $WIMWV,142.4,R,4.49,N,A*19
20220704 070349+00:00 $IIMDA,29.9,I,1.011,B,11.6,C,,C,94.6,,,C,,T,,M,,N,,M*24
20220704 070349+00:00 $HCHDT,179.2,T*24
20220704 070349+00:00 $GPRMC,070344,A,4925.8900,N,12647.2998,W,9.29,185,040722,12.3,E,A,V*63
20220704 070349+00:00 $WIMWV,91.7,R,5.6,N,A*1F
20220704 070351+00:00 $IIMDA,29.9,I,1.011,B,11.6,C,,C,94.6,,,C,,T,,M,,N,,M*24
20220704 070351+00:00 $HCHDT,179.5,T*23
20220704 070351+00:00 $GPRMC,070346,A,4925.8900,N,12647.2998,W,9.41,184,040722,12.3,E,A,V*6E
20220704 070351+00:00 $WIMWV,74,R,6.49,N,A*35
20220704 070353+00:00 $IIMDA,29.9,I,1.011,B,11.6,C,,C,94.7,,,C,,T,,M,,N,,M*25
20220704 070353+00:00 $HCHDT,180.1,T*21
20220704 070353+00:00 $GPRMC,070348,A,4925.8798,N,12647.2998,W,9.41,184,040722,12.3,E,A,V*6F
20220704 070353+00:00 $WIMWV,79.7,R,7.7,N,A*1A
20220704 070355+00:00 $IIMDA,29.9,I,1.011,B,11.6,C,,C,94.7,,,C,,T,,M,,N,,M*25
20220704 070355+00:00 $HCHDT,179.6,T*20
20220704 070355+00:00 $GPRMC,070350,A,4925.8798,N,12647.2998,W,9.41,185,040722,12.3,E,A,V*67
20220704 070355+00:00 $WIMWV,78.99,R,4.59,N,A*14
20220704 070357+00:00 $IIMDA,29.9,I,1.011,B,11.6,C,,C,94.7,,,C,,T,,M,,N,,M*25
20220704 070357+00:00 $HCHDT,179.1,T*27
20220704 070357+00:00 $GPRMC,070352,A,4925.8696,N,12647.2998,W,9.29,185,040722,12.3,E,A,V*64
20220704 070357+00:00 $WIMWV,112.79,R,2.9,N,A*14
20220704 070359+00:00 $IIMDA,29.9,I,1.011,B,11.6,C,,C,94.7,,,C,,T,,M,,N,,M*25
20220704 070359+00:00 $HCHDT,179.7,T*21
20220704 070359+00:00 $GPRMC,070354,A,4925.8696,N,12647.2998,W,9.29,185,040722,12.3,E,A,V*62
20220704 070359+00:00 $WIMWV,90.2,R,4.68,N,A*22
20220704 070401+00:00 $IIMDA,29.9,I,1.011,B,11.6,C,,C,94.7,,,C,,T,,M,,N,,M*25
20220704 070401+00:00 $HCHDT,179.9,T*2F
20220704 070401+00:00 $GPRMC,070356,A,4925.8600,N,12647.2998,W,9.29,185,040722,12.3,E,A,V*6F
20220704 070401+00:00 $WIMWV,102.5,R,3.79,N,A*18
20220704 070403+00:00 $IIMDA,29.9,I,1.011,B,11.6,C,,C,94.7,,,C,,T,,M,,N,,M*25
20220704 070403+00:00 $HCHDT,179.5,T*23
20220704 070403+00:00 $GPRMC,070358,A,4925.8600,N,12647.2998,W,9.19,185,040722,12.3,E,A,V*62
20220704 070403+00:00 $WIMWV,117.7,R,5.29,N,A*1D
20220704 070405+00:00 $IIMDA,29.9,I,1.011,B,11.6,C,,C,94.7,,,C,,T,,M,,N,,M*25
20220704 070405+00:00 $HCHDT,179.5,T*23
20220704 070405+00:00 $GPRMC,070400,A,4925.8498,N,12647.2998,W,9.19,185,040722,12.3,E,A,V*6B
20220704 070405+00:00 $WIMWV,79.6,R,4.68,N,A*21
20220704 070407+00:00 $IIMDA,29.9,I,1.011,B,11.6,C,,C,94.7,,,C,,T,,M,,N,,M*25
20220704 070407+00:00 $HCHDT,179.2,T*24
20220704 070407+00:00 $GPRMC,070402,A,4925.8498,N,12647.2998,W,9.19,185,040722,12.3,E,A,V*69
20220704 070407+00:00 $WIMWV,102.99,R,3.19,N,A*2B
20220704 070409+00:00 $IIMDA,29.9,I,1.011,B,11.6,C,,C,94.6,,,C,,T,,M,,N,,M*24
20220704 070409+00:00 $HCHDT,178.7,T*20
20220704 070409+00:00 $GPRMC,070404,A,4925.8396,N,12647.2998,W,9.1,185,040722,12.3,E,A,V*5F
20220704 070409+00:00 $WIMWV,114.69,R,3.98,N,A*2A
20220704 070411+00:00 $IIMDA,29.9,I,1.011,B,11.6,C,,C,94.7,,,C,,T,,M,,N,,M*25
20220704 070411+00:00 $HCHDT,179,T*38
20220704 070411+00:00 $GPRMC,070406,A,4925.8396,N,12647.3100,W,9.1,185,040722,12.3,E,A,V*55
20220704 070411+00:00 $WIMWV,74.7,R,2.9,N,A*1C
20220704 070413+00:00 $IIMDA,29.9,I,1.011,B,11.6,C,,C,94.7,,,C,,T,,M,,N,,M*25
20220704 070413+00:00 $HCHDT,178.5,T*22
20220704 070413+00:00 $GPRMC,070408,A,4925.8300,N,12647.3100,W,9.1,185,040722,12.3,E,A,V*54
20220704 070413+00:00 $WIMWV,85.1,R,2.1,N,A*1C
20220704 070415+00:00 $IIMDA,29.9,I,1.011,B,11.6,C,,C,94.6,,,C,,T,,M,,N,,M*24
20220704 070415+00:00 $HCHDT,178.1,T*26
20220704 070415+00:00 $GPRMC,070410,A,4925.8300,N,12647.3100,W,9.1,185,040722,12.3,E,A,V*5D
20220704 070415+00:00 $WIMWV,87.1,R,8.79,N,A*2B
20220704 070417+00:00 $IIMDA,29.9,I,1.011,B,11.6,C,,C,94.6,,,C,,T,,M,,N,,M*24
20220704 070417+00:00 $HCHDT,179,T*38
20220704 070417+00:00 $GPRMC,070412,A,4925.8198,N,12647.3100,W,9.1,184,040722,12.3,E,A,V*5D
20220704 070417+00:00 $WIMWV,146.69,R,5.89,N,A*2B
20220704 070419+00:00 $IIMDA,29.9,I,1.011,B,11.6,C,,C,94.7,,,C,,T,,M,,N,,M*25
20220704 070419+00:00 $HCHDT,177.8,T*20
20220704 070419+00:00 $GPRMC,070414,A,4925.8198,N,12647.3100,W,9.1,184,040722,12.3,E,A,V*5B
20220704 070419+00:00 $WIMWV,144.6,R,1.5,N,A*20
20220704 070421+00:00 $IIMDA,29.9,I,1.011,B,11.6,C,,C,94.6,,,C,,T,,M,,N,,M*24
20220704 070421+00:00 $HCHDT,177.9,T*21
20220704 070421+00:00 $GPRMC,070416,A,4925.8096,N,12647.3100,W,9,184,040722,12.3,E,A,V*49
20220704 070421+00:00 $WIMWV,88.1,R,9.89,N,A*2A
20220704 070423+00:00 $IIMDA,29.9,I,1.011,B,11.6,C,,C,94.6,,,C,,T,,M,,N,,M*24
20220704 070423+00:00 $HCHDT,179,T*38
20220704 070423+00:00 $GPRMC,070418,A,4925.8096,N,12647.3100,W,9,184,040722,12.3,E,A,V*47
20220704 070423+00:00 $WIMWV,89.59,R,5.6,N,A*2D
20220704 070425+00:00 $IIMDA,29.9,I,1.011,B,11.6,C,,C,94.6,,,C,,T,,M,,N,,M*24
20220704 070425+00:00 $HCHDT,178.5,T*22
20220704 070425+00:00 $GPRMC,070420,A,4925.8000,N,12647.3100,W,9,184,040722,12.3,E,A,V*43
20220704 070425+00:00 $WIMWV,72.5,R,6.88,N,A*25
20220704 070427+00:00 $IIMDA,29.9,I,1.011,B,11.6,C,,C,94.6,,,C,,T,,M,,N,,M*24
20220704 070427+00:00 $HCHDT,178.1,T*26
20220704 070427+00:00 $GPRMC,070422,A,4925.8000,N,12647.3100,W,9,184,040722,12.3,E,A,V*41
20220704 070427+00:00 $WIMWV,95,R,6.78,N,A*38
20220704 070429+00:00 $IIMDA,29.9,I,1.011,B,11.6,C,,C,94.6,,,C,,T,,M,,N,,M*24
20220704 070429+00:00 $HCHDT,177.4,T*2C
20220704 070429+00:00 $GPRMC,070424,A,4925.7898,N,12647.3100,W,9,184,040722,12.3,E,A,V*41
20220704 070429+00:00 $WIMWV,104.79,R,3.6,N,A*1D
20220704 070431+00:00 $IIMDA,29.9,I,1.011,B,11.6,C,,C,94.6,,,C,,T,,M,,N,,M*24
20220704 070431+00:00 $HCHDT,177.6,T*2E
20220704 070431+00:00 $GPRMC,070426,A,4925.7898,N,12647.3100,W,9,183,040722,12.3,E,A,V*44
20220704 070431+00:00 $WIMWV,150.49,R,3.19,N,A*21
20220704 070433+00:00 $IIMDA,29.9,I,1.011,B,11.6,C,,C,94.6,,,C,,T,,M,,N,,M*24
20220704 070433+00:00 $HCHDT,177.6,T*2E
20220704 070433+00:00 $GPRMC,070428,A,4925.7796,N,12647.3100,W,9,183,040722,12.3,E,A,V*4B
20220704 070433+00:00 $WIMWV,88.49,R,3.29,N,A*16
20220704 070435+00:00 $IIMDA,29.9,I,1.011,B,11.6,C,,C,94.6,,,C,,T,,M,,N,,M*24
20220704 070435+00:00 $HCHDT,177.9,T*21
20220704 070435+00:00 $GPRMC,070430,A,4925.7796,N,12647.3100,W,9,183,040722,12.3,E,A,V*42
20220704 070435+00:00 $WIMWV,114.69,R,3.19,N,A*23
20220704 070437+00:00 $IIMDA,29.9,I,1.011,B,11.6,C,,C,94.6,,,C,,T,,M,,N,,M*24
20220704 070437+00:00 $HCHDT,178.3,T*24
20220704 070437+00:00 $GPRMC,070432,A,4925.7700,N,12647.3100,W,9,183,040722,12.3,E,A,V*4F
20220704 070437+00:00 $WIMWV,96.59,R,3.98,N,A*12
20220704 070439+00:00 $IIMDA,29.9,I,1.011,B,11.6,C,,C,94.6,,,C,,T,,M,,N,,M*24
20220704 070439+00:00 $HCHDT,177.3,T*2B
20220704 070439+00:00 $GPRMC,070434,A,4925.7700,N,12647.3100,W,9,183,040722,12.3,E,A,V*49
20220704 070439+00:00 $WIMWV,72.7,R,6.3,N,A*14
20220704 070441+00:00 $IIMDA,29.9,I,1.011,B,11.6,C,,C,94.6,,,C,,T,,M,,N,,M*24
20220704 070441+00:00 $HCHDT,177.3,T*2B
20220704 070441+00:00 $GPRMC,070436,A,4925.7598,N,12647.3100,W,9,183,040722,12.3,E,A,V*48
20220704 070441+00:00 $WIMWV,70.3,R,11.59,N,A*1B
20220704 070443+00:00 $IIMDA,29.9,I,1.011,B,11.6,C,,C,94.6,,,C,,T,,M,,N,,M*24
20220704 070443+00:00 $HCHDT,177.7,T*2F
20220704 070443+00:00 $GPRMC,070438,A,4925.7598,N,12647.3100,W,9.1,183,040722,12.3,E,A,V*59
20220704 070443+00:00 $WIMWV,82.49,R,4.39,N,A*1A
20220704 070445+00:00 $IIMDA,29.9,I,1.011,B,11.6,C,,C,94.6,,,C,,T,,M,,N,,M*24
20220704 070445+00:00 $HCHDT,176.6,T*2F
20220704 070445+00:00 $GPRMC,070440,A,4925.7496,N,12647.3100,W,9.1,183,040722,12.3,E,A,V*59
20220704 070445+00:00 $WIMWV,142.79,R,3.6,N,A*1F
20220704 070447+00:00 $IIMDA,29.9,I,1.011,B,11.6,C,,C,94.7,,,C,,T,,M,,N,,M*25
20220704 070447+00:00 $HCHDT,175.3,T*29
20220704 070447+00:00 $GPRMC,070442,A,4925.7496,N,12647.3100,W,9.1,183,040722,12.3,E,A,V*5B
20220704 070447+00:00 $WIMWV,93.29,R,4.68,N,A*18
20220704 070449+00:00 $IIMDA,29.9,I,1.011,B,11.6,C,,C,94.6,,,C,,T,,M,,N,,M*24
20220704 070449+00:00 $HCHDT,173.7,T*2B
20220704 070449+00:00 $GPRMC,070444,A,4925.7400,N,12647.3100,W,9,182,040722,12.3,E,A,V*4C
20220704 070449+00:00 $WIMWV,147.59,R,3.6,N,A*18
20220704 070451+00:00 $IIMDA,29.9,I,1.011,B,11.6,C,,C,94.7,,,C,,T,,M,,N,,M*25
20220704 070451+00:00 $HCHDT,172.1,T*2C
20220704 070451+00:00 $GPRMC,070446,A,4925.7400,N,12647.3100,W,9,181,040722,12.3,E,A,V*4D
20220704 070451+00:00 $WIMWV,138.59,R,2.8,N,A*1F
20220704 070453+00:00 $IIMDA,29.9,I,1.011,B,11.6,C,,C,94.6,,,C,,T,,M,,N,,M*24
20220704 070453+00:00 $HCHDT,169.6,T*21
20220704 070453+00:00 $GPRMC,070448,A,4925.7298,N,12647.3100,W,9,180,040722,12.3,E,A,V*45
20220704 070453+00:00 $WIMWV,112.49,R,2.9,N,A*17
20220704 070455+00:00 $IIMDA,29.9,I,1.011,B,11.6,C,,C,94.6,,,C,,T,,M,,N,,M*24
20220704 070455+00:00 $HCHDT,169.4,T*23
20220704 070455+00:00 $GPRMC,070450,A,4925.7298,N,12647.3100,W,8.9,179,040722,12.3,E,A,V*5C
20220704 070455+00:00 $WIMWV,83.7,R,4.78,N,A*24
20220704 070457+00:00 $IIMDA,29.9,I,1.011,B,11.6,C,,C,94.7,,,C,,T,,M,,N,,M*25
20220704 070457+00:00 $HCHDT,169.9,T*2E
20220704 070457+00:00 $GPRMC,070452,A,4925.7196,N,12647.3100,W,8.9,178,040722,12.3,E,A,V*52
20220704 070457+00:00 $WIMWV,93.7,R,3.89,N,A*2C
20220704 070459+00:00 $IIMDA,29.9,I,1.011,B,11.6,C,,C,94.6,,,C,,T,,M,,N,,M*24
20220704 070459+00:00 $HCHDT,169.1,T*26
20220704 070459+00:00 $GPRMC,070454,A,4925.7196,N,12647.3100,W,8.81,177,040722,12.3,E,A,V*6B
20220704 070459+00:00 $WIMWV,114.6,R,1.79,N,A*1E
20220704 070501+00:00 $IIMDA,29.9,I,1.011,B,11.6,C,,C,94.6,,,C,,T,,M,,N,,M*24
20220704 070501+00:00 $HCHDT,168.9,T*2F
20220704 070501+00:00 $GPRMC,070456,A,4925.7100,N,12647.3100,W,8.81,176,040722,12.3,E,A,V*67
20220704 070501+00:00 $WIMWV,112.49,R,2.59,N,A*22
20220704 070503+00:00 $IIMDA,29.9,I,1.011,B,11.6,C,,C,94.6,,,C,,T,,M,,N,,M*24
20220704 070503+00:00 $HCHDT,170.2,T*2D
20220704 070503+00:00 $GPRMC,070458,A,4925.7100,N,12647.3100,W,8.9,176,040722,12.3,E,A,V*59
20220704 070503+00:00 $WIMWV,112.9,R,2.9,N,A*23
20220704 070505+00:00 $IIMDA,29.9,I,1.011,B,11.6,C,,C,94.7,,,C,,T,,M,,N,,M*25
20220704 070505+00:00 $HCHDT,169.7,T*20
20220704 070505+00:00 $GPRMC,070500,A,4925.6998,N,12647.3100,W,8.9,175,040722,12.3,E,A,V*5E
20220704 070505+00:00 $WIMWV,86.89,R,3.69,N,A*10
20220704 070507+00:00 $IIMDA,29.9,I,1.011,B,11.6,C,,C,94.6,,,C,,T,,M,,N,,M*24
20220704 070507+00:00 $HCHDT,169.6,T*21
20220704 070507+00:00 $GPRMC,070502,A,4925.6998,N,12647.3100,W,8.9,175,040722,12.3,E,A,V*5C
20220704 070507+00:00 $WIMWV,151.5,R,5.09,N,A*1F
20220704 070509+00:00 $IIMDA,29.9,I,1.011,B,11.6,C,,C,94.7,,,C,,T,,M,,N,,M*25
20220704 070509+00:00 $HCHDT,170.8,T*27
20220704 070509+00:00 $GPRMC,070504,A,4925.6896,N,12647.3100,W,9,175,040722,12.3,E,A,V*43
20220704 070509+00:00 $WIMWV,109.3,R,4.2,N,A*2E
20220704 070511+00:00 $IIMDA,29.9,I,1.011,B,11.6,C,,C,94.7,,,C,,T,,M,,N,,M*25
20220704 070511+00:00 $HCHDT,170.6,T*29
20220704 070511+00:00 $GPRMC,070506,A,4925.6896,N,12647.3100,W,9.1,175,040722,12.3,E,A,V*5E
20220704 070511+00:00 $WIMWV,126.39,R,3.5,N,A*1A
20220704 070513+00:00 $IIMDA,29.9,I,1.011,B,11.6,C,,C,94.6,,,C,,T,,M,,N,,M*24
20220704 070513+00:00 $HCHDT,169.4,T*23
20220704 070513+00:00 $GPRMC,070508,A,4925.6800,N,12647.3100,W,9.1,175,040722,12.3,E,A,V*5F
20220704 070513+00:00 $WIMWV,122.69,R,2.68,N,A*21
20220704 070515+00:00 $IIMDA,29.9,I,1.011,B,11.6,C,,C,94.7,,,C,,T,,M,,N,,M*25
20220704 070515+00:00 $HCHDT,170.7,T*28
20220704 070515+00:00 $GPRMC,070510,A,4925.6800,N,12647.3100,W,9.1,175,040722,12.3,E,A,V*56
20220704 070515+00:00 $WIMWV,94.3,R,4.39,N,A*23
20220704 070517+00:00 $IIMDA,29.9,I,1.011,B,11.6,C,,C,94.7,,,C,,T,,M,,N,,M*25
20220704 070517+00:00 $HCHDT,171.3,T*2D
20220704 070517+00:00 $GPRMC,070512,A,4925.6698,N,12647.3100,W,9.1,175,040722,12.3,E,A,V*5B
20220704 070517+00:00 $WIMWV,122.1,R,4.68,N,A*19
20220704 070519+00:00 $IIMDA,29.9,I,1.011,B,11.6,C,,C,94.6,,,C,,T,,M,,N,,M*24
20220704 070519+00:00 $HCHDT,169.9,T*2E
20220704 070519+00:00 $GPRMC,070514,A,4925.6698,N,12647.2998,W,9.1,175,040722,12.3,E,A,V*55
20220704 070519+00:00 $WIMWV,126.69,R,3.89,N,A*2B
20220704 070521+00:00 $IIMDA,29.9,I,1.011,B,11.6,C,,C,94.6,,,C,,T,,M,,N,,M*24
20220704 070521+00:00 $HCHDT,169.6,T*21
20220704 070521+00:00 $GPRMC,070516,A,4925.6596,N,12647.2998,W,9.1,175,040722,12.3,E,A,V*5A
20220704 070521+00:00 $WIMWV,88.29,R,5.48,N,A*11
20220704 070523+00:00 $IIMDA,29.9,I,1.011,B,11.6,C,,C,94.6,,,C,,T,,M,,N,,M*24
20220704 070523+00:00 $HCHDT,170.7,T*28
20220704 070523+00:00 $GPRMC,070518,A,4925.6596,N,12647.2998,W,9.1,175,040722,12.3,E,A,V*54
20220704 070523+00:00 $WIMWV,88.2,R,5.09,N,A*2D
20220704 070525+00:00 $IIMDA,29.9,I,1.011,B,11.6,C,,C,94.6,,,C,,T,,M,,N,,M*24
20220704 070525+00:00 $HCHDT,170.6,T*29
20220704 070525+00:00 $GPRMC,070520,A,4925.6500,N,12647.2998,W,9,175,040722,12.3,E,A,V*4F
20220704 070525+00:00 $WIMWV,115.59,R,2.59,N,A*24
20220704 070527+00:00 $IIMDA,29.9,I,1.011,B,11.6,C,,C,94.6,,,C,,T,,M,,N,,M*24
20220704 070527+00:00 $HCHDT,170,T*31
20220704 070527+00:00 $GPRMC,070522,A,4925.6500,N,12647.2998,W,9,175,040722,12.3,E,A,V*4D
20220704 070527+00:00 $WIMWV,116.29,R,2.39,N,A*26
20220704 070529+00:00 $IIMDA,29.9,I,1.011,B,11.6,C,,C,94.6,,,C,,T,,M,,N,,M*24
20220704 070529+00:00 $HCHDT,170.2,T*2D
20220704 070529+00:00 $GPRMC,070524,A,4925.6398,N,12647.2998,W,9,175,040722,12.3,E,A,V*4C
20220704 070529+00:00 $WIMWV,117.5,R,2.39,N,A*19
20220704 070531+00:00 $IIMDA,29.9,I,1.011,B,11.6,C,,C,94.6,,,C,,T,,M,,N,,M*24
20220704 070531+00:00 $HCHDT,169.8,T*2F
20220704 070531+00:00 $GPRMC,070526,A,4925.6398,N,12647.2998,W,8.9,175,040722,12.3,E,A,V*58
20220704 070531+00:00 $WIMWV,109.69,R,2.49,N,A*2B
20220704 070533+00:00 $IIMDA,29.9,I,1.011,B,11.6,C,,C,94.6,,,C,,T,,M,,N,,M*24
20220704 070533+00:00 $HCHDT,170.4,T*2B
20220704 070533+00:00 $GPRMC,070528,A,4925.6296,N,12647.2998,W,8.9,175,040722,12.3,E,A,V*59
20220704 070533+00:00 $WIMWV,190.59,R,1.4,N,A*12
20220704 070535+00:00 $IIMDA,29.9,I,1.011,B,11.6,C,,C,94.6,,,C,,T,,M,,N,,M*24
20220704 070535+00:00 $HCHDT,169.9,T*2E
20220704 070535+00:00 $GPRMC,070530,A,4925.6296,N,12647.2998,W,8.9,175,040722,12.3,E,A,V*50
20220704 070535+00:00 $WIMWV,180.6,R,1.59,N,A*11
20220704 070537+00:00 $IIMDA,29.9,I,1.011,B,11.6,C,,C,94.6,,,C,,T,,M,,N,,M*24
20220704 070537+00:00 $HCHDT,169.3,T*24
20220704 070537+00:00 $GPRMC,070532,A,4925.6200,N,12647.2998,W,8.9,175,040722,12.3,E,A,V*5D
20220704 070537+00:00 $WIMWV,329.49,R,1.79,N,A*29
20220704 070539+00:00 $IIMDA,29.9,I,1.011,B,11.6,C,,C,94.7,,,C,,T,,M,,N,,M*25
20220704 070539+00:00 $HCHDT,169.3,T*24
20220704 070539+00:00 $GPRMC,070534,A,4925.6200,N,12647.2998,W,8.9,175,040722,12.3,E,A,V*5B
20220704 070539+00:00 $WIMWV,121.79,R,2.29,N,A*26
20220704 070541+00:00 $IIMDA,29.9,I,1.011,B,11.6,C,,C,94.7,,,C,,T,,M,,N,,M*25
20220704 070541+00:00 $HCHDT,168.1,T*27
20220704 070541+00:00 $GPRMC,070536,A,4925.6200,N,12647.2998,W,8.9,175,040722,12.3,E,A,V*59
20220704 070541+00:00 $WIMWV,141.3,R,1.5,N,A*20
20220704 070543+00:00 $IIMDA,29.9,I,1.011,B,11.6,C,,C,94.7,,,C,,T,,M,,N,,M*25
20220704 070543+00:00 $HCHDT,169.1,T*26
20220704 070543+00:00 $GPRMC,070538,A,4925.6098,N,12647.2998,W,8.9,174,040722,12.3,E,A,V*55
20220704 070543+00:00 $WIMWV,107.49,R,4.68,N,A*22
20220704 070545+00:00 $IIMDA,29.9,I,1.011,B,11.6,C,,C,94.7,,,C,,T,,M,,N,,M*25
20220704 070545+00:00 $HCHDT,169.3,T*24
20220704 070545+00:00 $GPRMC,070540,A,4925.6098,N,12647.2998,W,8.9,174,040722,12.3,E,A,V*5A
20220704 070545+00:00 $WIMWV,164.39,R,1.09,N,A*22
20220704 070547+00:00 $IIMDA,29.9,I,1.011,B,11.6,C,,C,94.6,,,C,,T,,M,,N,,M*24
20220704 070547+00:00 $HCHDT,168.6,T*20
20220704 070547+00:00 $GPRMC,070542,A,4925.5996,N,12647.2896,W,8.9,174,040722,12.3,E,A,V*53
20220704 070547+00:00 $WIMWV,149.5,R,3.29,N,A*12
20220704 070549+00:00 $IIMDA,29.9,I,1.011,B,11.6,C,,C,94.7,,,C,,T,,M,,N,,M*25
20220704 070549+00:00 $HCHDT,167.8,T*21
20220704 070549+00:00 $GPRMC,070544,A,4925.5996,N,12647.2896,W,8.9,173,040722,12.3,E,A,V*52
20220704 070549+00:00 $WIMWV,106.39,R,3.09,N,A*24
20220704 070551+00:00 $IIMDA,29.9,I,1.011,B,11.6,C,,C,94.6,,,C,,T,,M,,N,,M*24
20220704 070551+00:00 $HCHDT,166.9,T*21
20220704 070551+00:00 $GPRMC,070546,A,4925.5900,N,12647.2896,W,8.9,173,040722,12.3,E,A,V*5F
20220704 070551+00:00 $WIMWV,204.49,R,0.7,N,A*1F
20220704 070553+00:00 $IIMDA,29.9,I,1.011,B,11.6,C,,C,94.7,,,C,,T,,M,,N,,M*25
20220704 070553+00:00 $HCHDT,166,T*36
20220704 070553+00:00 $GPRMC,070548,A,4925.5900,N,12647.2896,W,8.9,173,040722,12.3,E,A,V*51
20220704 070553+00:00 $WIMWV,85,R,5.09,N,A*3C
20220704 070555+00:00 $IIMDA,29.9,I,1.011,B,11.6,C,,C,94.7,,,C,,T,,M,,N,,M*25
20220704 070555+00:00 $HCHDT,165.2,T*29
20220704 070555+00:00 $GPRMC,070550,A,4925.5798,N,12647.2896,W,8.9,172,040722,12.3,E,A,V*56
20220704 070555+00:00 $WIMWV,118.29,R,4.59,N,A*28
20220704 070557+00:00 $IIMDA,29.9,I,1.011,B,11.6,C,,C,94.6,,,C,,T,,M,,N,,M*24
20220704 070557+00:00 $HCHDT,163.2,T*2F
20220704 070557+00:00 $GPRMC,070552,A,4925.5798,N,12647.2896,W,8.9,172,040722,12.3,E,A,V*54
20220704 070557+00:00 $WIMWV,166.39,R,3.19,N,A*23
20220704 070559+00:00 $IIMDA,29.9,I,1.011,B,11.6,C,,C,94.6,,,C,,T,,M,,N,,M*24
20220704 070559+00:00 $HCHDT,162,T*32
20220704 070559+00:00 $GPRMC,070554,A,4925.5696,N,12647.2896,W,8.81,171,040722,12.3,E,A,V*6E
20220704 070559+00:00 $WIMWV,118.6,R,3.09,N,A*17
20220704 070601+00:00 $IIMDA,29.9,I,1.011,B,11.6,C,,C,94.6,,,C,,T,,M,,N,,M*24
20220704 070601+00:00 $HCHDT,161.1,T*2E
20220704 070601+00:00 $GPRMC,070556,A,4925.5696,N,12647.2896,W,8.81,170,040722,12.3,E,A,V*6D
20220704 070601+00:00 $WIMWV,78.09,R,2.29,N,A*1C
20220704 070603+00:00 $IIMDA,29.9,I,1.011,B,11.6,C,,C,94.6,,,C,,T,,M,,N,,M*24
20220704 070603+00:00 $HCHDT,161.7,T*28
20220704 070603+00:00 $GPRMC,070558,A,4925.5600,N,12647.2800,W,8.81,169,040722,12.3,E,A,V*6B
20220704 070603+00:00 $WIMWV,97.29,R,2.2,N,A*26
20220704 070605+00:00 $IIMDA,29.9,I,1.011,B,11.6,C,,C,94.6,,,C,,T,,M,,N,,M*24
20220704 070605+00:00 $HCHDT,162.7,T*2B
20220704 070605+00:00 $GPRMC,070600,A,4925.5600,N,12647.2800,W,8.81,168,040722,12.3,E,A,V*64
20220704 070605+00:00 $WIMWV,95.9,R,3.38,N,A*2E
20220704 070607+00:00 $IIMDA,29.9,I,1.011,B,11.6,C,,C,94.6,,,C,,T,,M,,N,,M*24
20220704 070607+00:00 $HCHDT,163,T*33
20220704 070607+00:00 $GPRMC,070602,A,4925.5498,N,12647.2800,W,8.9,168,040722,12.3,E,A,V*55
20220704 070607+00:00 $WIMWV,148.49,R,5.09,N,A*2F
20220704 070609+00:00 $IIMDA,29.9,I,1.011,B,11.6,C,,C,94.6,,,C,,T,,M,,N,,M*24
20220704 070609+00:00 $HCHDT,163,T*33
20220704 070609+00:00 $GPRMC,070604,A,4925.5498,N,12647.2800,W,8.9,168,040722,12.3,E,A,V*53
20220704 070609+00:00 $WIMWV,117.9,R,5.89,N,A*19
20220704 070611+00:00 $IIMDA,29.9,I,1.011,B,11.6,C,,C,94.6,,,C,,T,,M,,N,,M*24
20220704 070611+00:00 $HCHDT,162.4,T*28
20220704 070611+00:00 $GPRMC,070606,A,4925.5396,N,12647.2800,W,8.9,168,040722,12.3,E,A,V*58
20220704 070611+00:00 $WIMWV,193,R,2.2,N,A*36
20220704 070613+00:00 $IIMDA,29.9,I,1.011,B,11.6,C,,C,94.6,,,C,,T,,M,,N,,M*24
20220704 070613+00:00 $HCHDT,162.9,T*25
20220704 070613+00:00 $GPRMC,070608,A,4925.5396,N,12647.2800,W,8.9,168,040722,12.3,E,A,V*56
20220704 070613+00:00 $WIMWV,75.2,R,2.49,N,A*2C
20220704 070615+00:00 $IIMDA,29.9,I,1.011,B,11.6,C,,C,94.6,,,C,,T,,M,,N,,M*24
20220704 070615+00:00 $HCHDT,163.9,T*24
20220704 070615+00:00 $GPRMC,070610,A,4925.5300,N,12647.2698,W,9,168,040722,12.3,E,A,V*49
20220704 070615+00:00 $WIMWV,120.1,R,4.68,N,A*1B
20220704 070617+00:00 $IIMDA,29.9,I,1.011,B,11.6,C,,C,94.6,,,C,,T,,M,,N,,M*24
20220704 070617+00:00 $HCHDT,164.5,T*2F
20220704 070617+00:00 $GPRMC,070612,A,4925.5300,N,12647.2698,W,9,168,040722,12.3,E,A,V*4B
20220704 070617+00:00 $WIMWV,126.1,R,2.59,N,A*19
20220704 070619+00:00 $IIMDA,29.9,I,1.011,B,11.6,C,,C,94.6,,,C,,T,,M,,N,,M*24
20220704 070619+00:00 $HCHDT,163.5,T*28
20220704 070619+00:00 $GPRMC,070614,A,4925.5198,N,12647.2698,W,9,168,040722,12.3,E,A,V*4E
20220704 070619+00:00 $WIMWV,117.9,R,2.8,N,A*27
20220704 070621+00:00 $IIMDA,29.9,I,1.011,B,11.6,C,,C,94.6,,,C,,T,,M,,N,,M*24
20220704 070621+00:00 $HCHDT,161.7,T*28
20220704 070621+00:00 $GPRMC,070616,A,4925.5198,N,12647.2698,W,9,168,040722,12.3,E,A,V*4C
20220704 070621+00:00 $WIMWV,123.7,R,5.6,N,A*27
20220704 070623+00:00 $IIMDA,29.9,I,1.011,B,11.6,C,,C,94.6,,,C,,T,,M,,N,,M*24
20220704 070623+00:00 $HCHDT,161.6,T*29
20220704 070623+00:00 $GPRMC,070618,A,4925.5096,N,12647.2698,W,9,168,040722,12.3,E,A,V*4D
20220704 070623+00:00 $WIMWV,113.89,R,3.89,N,A*23
20220704 070625+00:00 $IIMDA,29.9,I,1.011,B,11.6,C,,C,94.6,,,C,,T,,M,,N,,M*24
20220704 070625+00:00 $HCHDT,163,T*33
20220704 070625+00:00 $GPRMC,070620,A,4925.5096,N,12647.2698,W,9,168,040722,12.3,E,A,V*46
20220704 070625+00:00 $WIMWV,91.7,R,2.99,N,A*2E
20220704 070627+00:00 $IIMDA,29.9,I,1.011,B,11.6,C,,C,94.6,,,C,,T,,M,,N,,M*24
20220704 070627+00:00 $HCHDT,163.1,T*2C
20220704 070627+00:00 $GPRMC,070622,A,4925.5000,N,12647.2596,W,9,168,040722,12.3,E,A,V*46
20220704 070627+00:00 $WIMWV,100.39,R,4.08,N,A*24
20220704 070629+00:00 $IIMDA,29.9,I,1.011,B,11.6,C,,C,94.6,,,C,,T,,M,,N,,M*24
20220704 070629+00:00 $HCHDT,161,T*31
20220704 070629+00:00 $GPRMC,070624,A,4925.5000,N,12647.2596,W,8.9,167,040722,12.3,E,A,V*59
20220704 070629+00:00 $WIMWV,97.99,R,3.5,N,A*2B
20220704 070631+00:00 $IIMDA,29.9,I,1.011,B,11.6,C,,C,94.5,,,C,,T,,M,,N,,M*27
20220704 070631+00:00 $HCHDT,158.7,T*22
20220704 070631+00:00 $GPRMC,070626,A,4925.4898,N,12647.2596,W,8.9,167,040722,12.3,E,A,V*53
20220704 070631+00:00 $WIMWV,159.9,R,3.98,N,A*15
20220704 070633+00:00 $IIMDA,29.9,I,1.011,B,11.6,C,,C,94.5,,,C,,T,,M,,N,,M*27
20220704 070633+00:00 $HCHDT,158.1,T*24
20220704 070633+00:00 $GPRMC,070628,A,4925.4898,N,12647.2596,W,8.9,167,040722,12.3,E,A,V*5D
20220704 070633+00:00 $WIMWV,240.59,R,0.49,N,A*24
20220704 070635+00:00 $IIMDA,29.9,I,1.011,B,11.6,C,,C,94.5,,,C,,T,,M,,N,,M*27
20220704 070635+00:00 $HCHDT,156.7,T*2C
20220704 070635+00:00 $GPRMC,070630,A,4925.4796,N,12647.2596,W,8.81,166,040722,12.3,E,A,V*64
20220704 070635+00:00 $WIMWV,98.7,R,3.09,N,A*2F
20220704 070637+00:00 $IIMDA,29.9,I,1.011,B,11.6,C,,C,94.5,,,C,,T,,M,,N,,M*27
20220704 070637+00:00 $HCHDT,154.8,T*21
20220704 070637+00:00 $GPRMC,070632,A,4925.4796,N,12647.2500,W,8.81,165,040722,12.3,E,A,V*6A
20220704 070637+00:00 $WIMWV,134.59,R,4.59,N,A*21
20220704 070639+00:00 $IIMDA,29.9,I,1.011,B,11.6,C,,C,94.5,,,C,,T,,M,,N,,M*27
20220704 070639+00:00 $HCHDT,153.7,T*29
20220704 070639+00:00 $GPRMC,070634,A,4925.4796,N,12647.2500,W,8.81,164,040722,12.3,E,A,V*6D
20220704 070639+00:00 $WIMWV,142.4,R,3.79,N,A*1D
20220704 070641+00:00 $IIMDA,29.9,I,1.011,B,11.6,C,,C,94.5,,,C,,T,,M,,N,,M*27
20220704 070641+00:00 $HCHDT,153.5,T*2B
20220704 070641+00:00 $GPRMC,070636,A,4925.4700,N,12647.2500,W,8.71,163,040722,12.3,E,A,V*68
20220704 070641+00:00 $WIMWV,120.49,R,5.38,N,A*23
20220704 070643+00:00 $IIMDA,29.9,I,1.011,B,11.6,C,,C,94.5,,,C,,T,,M,,N,,M*27
20220704 070643+00:00 $HCHDT,153.9,T*27
20220704 070643+00:00 $GPRMC,070638,A,4925.4700,N,12647.2500,W,8.71,162,040722,12.3,E,A,V*67
20220704 070643+00:00 $WIMWV,134.59,R,1.69,N,A*27
20220704 070645+00:00 $IIMDA,29.9,I,1.011,B,11.6,C,,C,94.5,,,C,,T,,M,,N,,M*27
20220704 070645+00:00 $HCHDT,154.6,T*2F
20220704 070645+00:00 $GPRMC,070640,A,4925.4598,N,12647.2398,W,8.71,161,040722,12.3,E,A,V*6F
20220704 070645+00:00 $WIMWV,91.7,R,2.8,N,A*16
20220704 070647+00:00 $IIMDA,29.9,I,1.011,B,11.7,C,,C,94.5,,,C,,T,,M,,N,,M*26
20220704 070647+00:00 $HCHDT,153.5,T*2B
20220704 070647+00:00 $GPRMC,070642,A,4925.4598,N,12647.2398,W,8.81,160,040722,12.3,E,A,V*63
20220704 070647+00:00 $WIMWV,135.8,R,2.1,N,A*2F
20220704 070649+00:00 $IIMDA,29.9,I,1.011,B,11.7,C,,C,94.5,,,C,,T,,M,,N,,M*26
20220704 070649+00:00 $HCHDT,153.5,T*2B
20220704 070649+00:00 $GPRMC,070644,A,4925.4496,N,12647.2398,W,8.81,160,040722,12.3,E,A,V*6A
20220704 070649+00:00 $WIMWV,145.79,R,5.29,N,A*23
20220704 070651+00:00 $IIMDA,29.9,I,1.011,B,11.7,C,,C,94.5,,,C,,T,,M,,N,,M*26
20220704 070651+00:00 $HCHDT,155.5,T*2D
20220704 070651+00:00 $GPRMC,070646,A,4925.4496,N,12647.2398,W,8.9,160,040722,12.3,E,A,V*58
20220704 070651+00:00 $WIMWV,100,R,4.68,N,A*06
20220704 070653+00:00 $IIMDA,29.9,I,1.011,B,11.7,C,,C,94.5,,,C,,T,,M,,N,,M*26
20220704 070653+00:00 $HCHDT,155.6,T*2E
20220704 070653+00:00 $GPRMC,070648,A,4925.4400,N,12647.2296,W,8.9,160,040722,12.3,E,A,V*56
20220704 070653+00:00 $WIMWV,157.4,R,1.79,N,A*1B
20220704 070655+00:00 $IIMDA,29.9,I,1.011,B,11.7,C,,C,94.5,,,C,,T,,M,,N,,M*26
20220704 070655+00:00 $HCHDT,153.8,T*26
20220704 070655+00:00 $GPRMC,070650,A,4925.4400,N,12647.2296,W,9,160,040722,12.3,E,A,V*49
20220704 070655+00:00 $WIMWV,127.4,R,3.6,N,A*26
20220704 070657+00:00 $IIMDA,29.9,I,1.011,B,11.7,C,,C,94.5,,,C,,T,,M,,N,,M*26
20220704 070657+00:00 $HCHDT,152.1,T*2E
20220704 070657+00:00 $GPRMC,070652,A,4925.4298,N,12647.2296,W,9,160,040722,12.3,E,A,V*4C
20220704 070657+00:00 $WIMWV,111.1,R,2.9,N,A*28
20220704 070659+00:00 $IIMDA,29.9,I,1.011,B,11.7,C,,C,94.5,,,C,,T,,M,,N,,M*26
20220704 070659+00:00 $HCHDT,151.3,T*2F
20220704 070659+00:00 $GPRMC,070654,A,4925.4298,N,12647.2296,W,9,159,040722,12.3,E,A,V*40
20220704 070659+00:00 $WIMWV,87.1,R,3.38,N,A*25
20220704 070701+00:00 $IIMDA,29.9,I,1.011,B,11.7,C,,C,94.5,,,C,,T,,M,,N,,M*26
20220704 070701+00:00 $HCHDT,151,T*32
20220704 070701+00:00 $GPRMC,070656,A,4925.4196,N,12647.2200,W,9,159,040722,12.3,E,A,V*40
20220704 070701+00:00 $WIMWV,120.89,R,3.5,N,A*17
20220704 070703+00:00 $IIMDA,29.9,I,1.011,B,11.7,C,,C,94.5,,,C,,T,,M,,N,,M*26
20220704 070703+00:00 $HCHDT,150.3,T*2E
20220704 070703+00:00 $GPRMC,070658,A,4925.4196,N,12647.2200,W,9,159,040722,12.3,E,A,V*4E
20220704 070703+00:00 $WIMWV,145.3,R,4.49,N,A*19
20220704 070705+00:00 $IIMDA,29.9,I,1.011,B,11.7,C,,C,94.6,,,C,,T,,M,,N,,M*25
20220704 070705+00:00 $HCHDT,150,T*33
20220704 070705+00:00 $GPRMC,070700,A,4925.4196,N,12647.2200,W,9,158,040722,12.3,E,A,V*43
20220704 070705+00:00 $WIMWV,186.29,R,2.1,N,A*14
20220704 070707+00:00 $IIMDA,29.9,I,1.011,B,11.7,C,,C,94.6,,,C,,T,,M,,N,,M*25
20220704 070707+00:00 $HCHDT,148.5,T*21
20220704 070707+00:00 $GPRMC,070702,A,4925.4100,N,12647.2098,W,8.9,157,040722,12.3,E,A,V*54
20220704 070707+00:00 $WIMWV,117.7,R,2.49,N,A*1C
20220704 070709+00:00 $IIMDA,29.9,I,1.011,B,11.7,C,,C,94.5,,,C,,T,,M,,N,,M*26
20220704 070709+00:00 $HCHDT,147.9,T*22
20220704 070709+00:00 $GPRMC,070704,A,4925.4100,N,12647.2098,W,8.9,156,040722,12.3,E,A,V*53
20220704 070709+00:00 $WIMWV,109.3,R,2.9,N,A*23
20220704 070711+00:00 $IIMDA,29.9,I,1.011,B,11.7,C,,C,94.6,,,C,,T,,M,,N,,M*25
20220704 070711+00:00 $HCHDT,147.9,T*22
20220704 070711+00:00 $GPRMC,070706,A,4925.3998,N,12647.2098,W,8.81,155,040722,12.3,E,A,V*6C
20220704 070711+00:00 $WIMWV,96.5,R,2.49,N,A*26
20220704 070713+00:00 $IIMDA,29.9,I,1.011,B,11.7,C,,C,94.6,,,C,,T,,M,,N,,M*25
20220704 070713+00:00 $HCHDT,148.2,T*26
20220704 070713+00:00 $GPRMC,070708,A,4925.3998,N,12647.1996,W,8.81,155,040722,12.3,E,A,V*66
20220704 070713+00:00 $WIMWV,120.89,R,3.09,N,A*2B
20220704 070715+00:00 $IIMDA,29.9,I,1.011,B,11.7,C,,C,94.6,,,C,,T,,M,,N,,M*25
20220704 070715+00:00 $HCHDT,148.1,T*25
20220704 070715+00:00 $GPRMC,070710,A,4925.3896,N,12647.1996,W,8.81,154,040722,12.3,E,A,V*61
20220704 070715+00:00 $WIMWV,113.59,R,2.39,N,A*24
20220704 070717+00:00 $IIMDA,29.9,I,1.011,B,11.7,C,,C,94.6,,,C,,T,,M,,N,,M*25
20220704 070717+00:00 $HCHDT,147.5,T*2E
20220704 070717+00:00 $GPRMC,070712,A,4925.3896,N,12647.1996,W,8.9,154,040722,12.3,E,A,V*53
20220704 070717+00:00 $WIMWV,114.4,R,2.68,N,A*1F
20220704 070719+00:00 $IIMDA,29.9,I,1.011,B,11.7,C,,C,94.6,,,C,,T,,M,,N,,M*25
20220704 070719+00:00 $HCHDT,147.1,T*2A
20220704 070719+00:00 $GPRMC,070714,A,4925.3800,N,12647.1900,W,8.9,153,040722,12.3,E,A,V*52
20220704 070719+00:00 $WIMWV,133.2,R,4.2,N,A*26
20220704 070721+00:00 $IIMDA,29.9,I,1.011,B,11.7,C,,C,94.6,,,C,,T,,M,,N,,M*25
20220704 070721+00:00 $HCHDT,147,T*35
20220704 070721+00:00 $GPRMC,070716,A,4925.3800,N,12647.1900,W,8.9,153,040722,12.3,E,A,V*50
20220704 070721+00:00 $WIMWV,113.8,R,2.99,N,A*1A
20220704 070723+00:00 $IIMDA,29.9,I,1.011,B,11.7,C,,C,94.6,,,C,,T,,M,,N,,M*25
20220704 070723+00:00 $HCHDT,147,T*35
20220704 070723+00:00 $GPRMC,070718,A,4925.3800,N,12647.1900,W,8.9,153,040722,12.3,E,A,V*5E
20220704 070723+00:00 $WIMWV,146.49,R,6.59,N,A*27
20220704 070725+00:00 $IIMDA,29.9,I,1.011,B,11.7,C,,C,94.6,,,C,,T,,M,,N,,M*25
20220704 070725+00:00 $HCHDT,147.8,T*23
20220704 070725+00:00 $GPRMC,070720,A,4925.3698,N,12647.1798,W,8.9,153,040722,12.3,E,A,V*55
20220704 070725+00:00 $WIMWV,109.8,R,4.08,N,A*1F
20220704 070727+00:00 $IIMDA,29.9,I,1.011,B,11.7,C,,C,94.6,,,C,,T,,M,,N,,M*25
20220704 070727+00:00 $HCHDT,148.3,T*27
20220704 070727+00:00 $GPRMC,070722,A,4925.3698,N,12647.1798,W,8.9,152,040722,12.3,E,A,V*56
20220704 070727+00:00 $WIMWV,124.89,R,4.68,N,A*2F
20220704 070729+00:00 $IIMDA,29.9,I,1.011,B,11.7,C,,C,94.6,,,C,,T,,M,,N,,M*25
20220704 070729+00:00 $HCHDT,147.2,T*29
20220704 070729+00:00 $GPRMC,070724,A,4925.3596,N,12647.1798,W,8.9,152,040722,12.3,E,A,V*5D
20220704 070729+00:00 $WIMWV,129.9,R,3.29,N,A*18
20220704 070731+00:00 $IIMDA,29.9,I,1.011,B,11.7,C,,C,94.6,,,C,,T,,M,,N,,M*25
20220704 070731+00:00 $HCHDT,146.9,T*23
20220704 070731+00:00 $GPRMC,070726,A,4925.3596,N,12647.1696,W,8.9,153,040722,12.3,E,A,V*51
20220704 070731+00:00 $WIMWV,129.9,R,6.3,N,A*25
20220704 070733+00:00 $IIMDA,29.9,I,1.011,B,11.7,C,,C,94.6,,,C,,T,,M,,N,,M*25
20220704 070733+00:00 $HCHDT,147.6,T*2D
20220704 070733+00:00 $GPRMC,070728,A,4925.3500,N,12647.1696,W,8.9,152,040722,12.3,E,A,V*51
20220704 070733+00:00 $WIMWV,111.39,R,3.29,N,A*20
20220704 070735+00:00 $IIMDA,29.9,I,1.011,B,11.7,C,,C,94.5,,,C,,T,,M,,N,,M*26
20220704 070735+00:00 $HCHDT,147.1,T*2A
20220704 070735+00:00 $GPRMC,070730,A,4925.3500,N,12647.1600,W,8.9,152,040722,12.3,E,A,V*57
20220704 070735+00:00 $WIMWV,109.39,R,3.38,N,A*29
20220704 070737+00:00 $IIMDA,29.9,I,1.011,B,11.7,C,,C,94.6,,,C,,T,,M,,N,,M*25
20220704 070737+00:00 $HCHDT,146.4,T*2E
20220704 070737+00:00 $GPRMC,070732,A,4925.3398,N,12647.1600,W,8.9,152,040722,12.3,E,A,V*52
20220704 070737+00:00 $WIMWV,131.29,R,4.08,N,A*27
20220704 070739+00:00 $IIMDA,29.9,I,1.011,B,11.7,C,,C,94.6,,,C,,T,,M,,N,,M*25
20220704 070739+00:00 $HCHDT,147.2,T*29
20220704 070739+00:00 $GPRMC,070734,A,4925.3398,N,12647.1600,W,8.9,152,040722,12.3,E,A,V*54
20220704 070739+00:00 $WIMWV,136,R,5,N,A*22
20220704 070741+00:00 $IIMDA,29.9,I,1.011,B,11.7,C,,C,94.6,,,C,,T,,M,,N,,M*25
20220704 070741+00:00 $HCHDT,147.6,T*2D
20220704 070741+00:00 $GPRMC,070736,A,4925.3398,N,12647.1498,W,8.9,152,040722,12.3,E,A,V*55
20220704 070741+00:00 $WIMWV,112,R,7.1,N,A*39
20220704 070743+00:00 $IIMDA,29.9,I,1.011,B,11.7,C,,C,94.5,,,C,,T,,M,,N,,M*26
20220704 070743+00:00 $HCHDT,146.5,T*2F
