20220705 060001+00:00 $IIMDA,29.9,I,1.013,B,14,C,,C,80.9,,,C,,T,,M,,N,,M*31
20220705 060001+00:00 $HCHDT,320.7,T*2F
20220705 060001+00:00 $GPRMC,055956,A,4853.3796,N,12302.9700,W,6.71,318,050722,11.7,E,A,V*65
20220705 060001+00:00 $WIMWV,351.19,R,4.59,N,A*24
20220705 060002+00:00 $IIMDA,29.9,I,1.013,B,14,C,,C,80.8,,,C,,T,,M,,N,,M*30
20220705 060003+00:00 $HCHDT,320.8,T*20
20220705 060003+00:00 $GPRMC,055958,A,4853.3796,N,12302.9700,W,6.71,318,050722,11.7,E,A,V*6B
20220705 060003+00:00 $WIMWV,333.59,R,6.18,N,A*23
20220705 060004+00:00 $IIMDA,29.9,I,1.013,B,14,C,,C,80.8,,,C,,T,,M,,N,,M*30
20220705 060005+00:00 $HCHDT,320.9,T*21
20220705 060005+00:00 $GPRMC,060000,A,4853.3898,N,12302.9796,W,6.71,318,050722,11.7,E,A,V*67
20220705 060005+00:00 $WIMWV,345.29,R,2.59,N,A*24
20220705 060006+00:00 $IIMDA,29.9,I,1.013,B,14,C,,C,80.8,,,C,,T,,M,,N,,M*30
20220705 060007+00:00 $HCHDT,320.9,T*21
20220705 060007+00:00 $GPRMC,060002,A,4853.3898,N,12302.9796,W,6.71,318,050722,11.7,E,A,V*65
20220705 060007+00:00 $WIMWV,358.29,R,4.9,N,A*1B
20220705 060008+00:00 $IIMDA,29.9,I,1.013,B,14,C,,C,80.8,,,C,,T,,M,,N,,M*30
20220705 060009+00:00 $HCHDT,321,T*37
20220705 060009+00:00 $GPRMC,060004,A,4853.3898,N,12302.9796,W,6.71,318,050722,11.7,E,A,V*63
20220705 060009+00:00 $WIMWV,16.9,R,4.59,N,A*25
20220705 060010+00:00 $IIMDA,29.9,I,1.013,B,14,C,,C,80.8,,,C,,T,,M,,N,,M*30
20220705 060011+00:00 $HCHDT,321.1,T*28
20220705 060011+00:00 $GPRMC,060006,A,4853.4000,N,12302.9898,W,6.71,318,050722,11.7,E,A,V*6E
20220705 060011+00:00 $WIMWV,325.09,R,4.2,N,A*18
20220705 060012+00:00 $IIMDA,29.9,I,1.013,B,14,C,,C,80.8,,,C,,T,,M,,N,,M*30
20220705 060013+00:00 $HCHDT,321.2,T*2B
20220705 060013+00:00 $GPRMC,060008,A,4853.4000,N,12302.9898,W,6.71,317,050722,11.7,E,A,V*6F
20220705 060013+00:00 $WIMWV,29.09,R,2.49,N,A*1E
20220705 060014+00:00 $IIMDA,29.9,I,1.013,B,14,C,,C,80.8,,,C,,T,,M,,N,,M*30
20220705 060015+00:00 $HCHDT,321.2,T*2B
20220705 060015+00:00 $GPRMC,060010,A,4853.4000,N,12303.0000,W,6.71,317,050722,11.7,E,A,V*67
20220705 060015+00:00 $WIMWV,339.89,R,3.6,N,A*1E
20220705 060016+00:00 $IIMDA,29.9,I,1.013,B,14,C,,C,80.8,,,C,,T,,M,,N,,M*30
20220705 060017+00:00 $HCHDT,321.3,T*2A
20220705 060017+00:00 $GPRMC,060012,A,4853.4000,N,12303.0000,W,6.71,317,050722,11.7,E,A,V*65
20220705 060017+00:00 $WIMWV,347.09,R,4.39,N,A*24
20220705 060018+00:00 $IIMDA,29.9,I,1.013,B,14,C,,C,80.8,,,C,,T,,M,,N,,M*30
20220705 060019+00:00 $HCHDT,321.4,T*2D
20220705 060019+00:00 $GPRMC,060014,A,4853.4096,N,12303.0000,W,6.71,317,050722,11.7,E,A,V*6C
20220705 060019+00:00 $WIMWV,12.9,R,2.1,N,A*1A
20220705 060020+00:00 $IIMDA,29.9,I,1.013,B,14,C,,C,80.8,,,C,,T,,M,,N,,M*30
20220705 060021+00:00 $HCHDT,321.5,T*2C
20220705 060021+00:00 $GPRMC,060016,A,4853.4096,N,12303.0096,W,6.71,317,050722,11.7,E,A,V*61
20220705 060021+00:00 $WIMWV,15.8,R,1.4,N,A*1A
20220705 060022+00:00 $IIMDA,29.9,I,1.013,B,14,C,,C,80.8,,,C,,T,,M,,N,,M*30
20220705 060023+00:00 $HCHDT,321.5,T*2C
20220705 060023+00:00 $GPRMC,060018,A,4853.4096,N,12303.0096,W,6.71,317,050722,11.7,E,A,V*6F
20220705 060023+00:00 $WIMWV,0.19,R,5.09,N,A*27
20220705 060024+00:00 $IIMDA,29.9,I,1.013,B,14,C,,C,80.7,,,C,,T,,M,,N,,M*3F
20220705 060025+00:00 $HCHDT,321.4,T*2D
20220705 060025+00:00 $GPRMC,060020,A,4853.4096,N,12303.0198,W,6.71,317,050722,11.7,E,A,V*6B
20220705 060025+00:00 $WIMWV,329.29,R,0.49,N,A*2D
20220705 060026+00:00 $IIMDA,29.9,I,1.013,B,14,C,,C,80.7,,,C,,T,,M,,N,,M*3F
20220705 060027+00:00 $HCHDT,321.4,T*2D
20220705 060027+00:00 $GPRMC,060022,A,4853.4198,N,12303.0198,W,6.71,317,050722,11.7,E,A,V*66
20220705 060027+00:00 $WIMWV,342.59,R,4.3,N,A*1D
20220705 060028+00:00 $IIMDA,29.9,I,1.013,B,14,C,,C,80.7,,,C,,T,,M,,N,,M*3F
20220705 060029+00:00 $HCHDT,321.4,T*2D
20220705 060029+00:00 $GPRMC,060024,A,4853.4198,N,12303.0198,W,6.71,318,050722,11.7,E,A,V*6F
20220705 060029+00:00 $WIMWV,292.99,R,0.8,N,A*12
20220705 060030+00:00 $IIMDA,29.9,I,1.013,B,14,C,,C,80.8,,,C,,T,,M,,N,,M*30
20220705 060031+00:00 $HCHDT,321.3,T*2A
20220705 060031+00:00 $GPRMC,060026,A,4853.4198,N,12303.0300,W,6.71,318,050722,11.7,E,A,V*6E
20220705 060031+00:00 $WIMWV,65.2,R,0.58,N,A*2F
20220705 060032+00:00 $IIMDA,29.9,I,1.013,B,14,C,,C,80.7,,,C,,T,,M,,N,,M*3F
20220705 060033+00:00 $HCHDT,321.3,T*2A
20220705 060033+00:00 $GPRMC,060028,A,4853.4300,N,12303.0300,W,6.71,318,050722,11.7,E,A,V*63
20220705 060033+00:00 $WIMWV,6.5,R,2.9,N,A*2B
20220705 060034+00:00 $IIMDA,29.9,I,1.013,B,14,C,,C,80.7,,,C,,T,,M,,N,,M*3F
20220705 060035+00:00 $HCHDT,321.2,T*2B
20220705 060035+00:00 $GPRMC,060030,A,4853.4300,N,12303.0300,W,6.61,318,050722,11.7,E,A,V*6B
20220705 060035+00:00 $WIMWV,5.3,R,3.09,N,A*1F
20220705 060036+00:00 $IIMDA,29.9,I,1.013,B,14,C,,C,80.7,,,C,,T,,M,,N,,M*3F
20220705 060037+00:00 $HCHDT,321.2,T*2B
20220705 060037+00:00 $GPRMC,060032,A,4853.4300,N,12303.0396,W,6.61,318,050722,11.7,E,A,V*66
20220705 060037+00:00 $WIMWV,0.19,R,2.8,N,A*11
20220705 060038+00:00 $IIMDA,29.9,I,1.013,B,14,C,,C,80.7,,,C,,T,,M,,N,,M*3F
20220705 060039+00:00 $HCHDT,321.1,T*28
20220705 060039+00:00 $GPRMC,060034,A,4853.4300,N,12303.0396,W,6.61,318,050722,11.7,E,A,V*60
20220705 060039+00:00 $WIMWV,13.8,R,1.89,N,A*29
20220705 060040+00:00 $IIMDA,29.9,I,1.013,B,14,C,,C,80.7,,,C,,T,,M,,N,,M*3F
20220705 060041+00:00 $HCHDT,321,T*37
20220705 060041+00:00 $GPRMC,060036,A,4853.4396,N,12303.0498,W,6.61,318,050722,11.7,E,A,V*64
20220705 060041+00:00 $WIMWV,350.99,R,2.9,N,A*1E
20220705 060042+00:00 $IIMDA,29.9,I,1.013,B,14,C,,C,80.7,,,C,,T,,M,,N,,M*3F
20220705 060043+00:00 $HCHDT,320.9,T*21
20220705 060043+00:00 $GPRMC,060038,A,4853.4396,N,12303.0498,W,6.61,318,050722,11.7,E,A,V*6A
20220705 060043+00:00 $WIMWV,26.5,R,2.9,N,A*19
20220705 060044+00:00 $IIMDA,29.9,I,1.013,B,14,C,,C,80.7,,,C,,T,,M,,N,,M*3F
20220705 060045+00:00 $HCHDT,320.7,T*2F
20220705 060045+00:00 $GPRMC,060040,A,4853.4396,N,12303.0498,W,6.61,318,050722,11.7,E,A,V*65
20220705 060045+00:00 $WIMWV,295.29,R,2.2,N,A*16
20220705 060046+00:00 $IIMDA,29.9,I,1.013,B,14,C,,C,80.7,,,C,,T,,M,,N,,M*3F
20220705 060047+00:00 $HCHDT,320.5,T*2D
20220705 060047+00:00 $GPRMC,060042,A,4853.4396,N,12303.0600,W,6.49,318,050722,11.7,E,A,V*6E
20220705 060047+00:00 $WIMWV,332.49,R,3.19,N,A*27
20220705 060048+00:00 $IIMDA,29.9,I,1.013,B,14,C,,C,80.7,,,C,,T,,M,,N,,M*3F
20220705 060049+00:00 $HCHDT,320.2,T*2A
20220705 060049+00:00 $GPRMC,060044,A,4853.4498,N,12303.0600,W,6.49,318,050722,11.7,E,A,V*61
20220705 060049+00:00 $WIMWV,301.19,R,3.19,N,A*22
20220705 060050+00:00 $IIMDA,29.9,I,1.013,B,14,C,,C,80.7,,,C,,T,,M,,N,,M*3F
20220705 060051+00:00 $HCHDT,320,T*36
20220705 060051+00:00 $GPRMC,060046,A,4853.4498,N,12303.0600,W,6.49,317,050722,11.7,E,A,V*6C
20220705 060051+00:00 $WIMWV,357.99,R,4.9,N,A*1F
20220705 060052+00:00 $IIMDA,29.9,I,1.013,B,14,C,,C,80.7,,,C,,T,,M,,N,,M*3F
20220705 060053+00:00 $HCHDT,320,T*36
20220705 060053+00:00 $GPRMC,060048,A,4853.4498,N,12303.0696,W,6.49,317,050722,11.7,E,A,V*6D
20220705 060053+00:00 $WIMWV,9.69,R,3.09,N,A*2F
20220705 060054+00:00 $IIMDA,29.9,I,1.013,B,14,C,,C,80.7,,,C,,T,,M,,N,,M*3F
20220705 060055+00:00 $HCHDT,319.9,T*2B
20220705 060055+00:00 $GPRMC,060050,A,4853.4498,N,12303.0696,W,6.49,317,050722,11.7,E,A,V*64
20220705 060055+00:00 $WIMWV,340.09,R,3.38,N,A*25
20220705 060056+00:00 $IIMDA,29.9,I,1.013,B,14,C,,C,80.7,,,C,,T,,M,,N,,M*3F
20220705 060057+00:00 $HCHDT,319.9,T*2B
20220705 060057+00:00 $GPRMC,060052,A,4853.4600,N,12303.0798,W,6.49,317,050722,11.7,E,A,V*6A
20220705 060057+00:00 $WIMWV,304.69,R,4.08,N,A*27
20220705 060058+00:00 $IIMDA,29.9,I,1.013,B,14,C,,C,80.6,,,C,,T,,M,,N,,M*3E
20220705 060059+00:00 $HCHDT,320,T*36
20220705 060059+00:00 $GPRMC,060054,A,4853.4600,N,12303.0798,W,6.49,317,050722,11.7,E,A,V*6C
20220705 060059+00:00 $WIMWV,7.2,R,3.6,N,A*23
20220705 060101+00:00 $IIMDA,29.9,I,1.013,B,14,C,,C,80.7,,,C,,T,,M,,N,,M*3F
20220705 060101+00:00 $HCHDT,320.2,T*2A
20220705 060101+00:00 $GPRMC,060056,A,4853.4600,N,12303.0798,W,6.49,317,050722,11.7,E,A,V*6E
20220705 060101+00:00 $WIMWV,0.19,R,1.69,N,A*25
20220705 060102+00:00 $IIMDA,29.9,I,1.013,B,14,C,,C,80.6,,,C,,T,,M,,N,,M*3E
20220705 060103+00:00 $HCHDT,320.3,T*2B
20220705 060103+00:00 $GPRMC,060058,A,4853.4696,N,12303.0900,W,6.61,317,050722,11.7,E,A,V*6A
20220705 060103+00:00 $WIMWV,107.69,R,0.99,N,A*2A
20220705 060104+00:00 $IIMDA,29.9,I,1.013,B,14,C,,C,80.6,,,C,,T,,M,,N,,M*3E
20220705 060105+00:00 $HCHDT,320.4,T*2C
20220705 060105+00:00 $GPRMC,060100,A,4853.4696,N,12303.0900,W,6.61,317,050722,11.7,E,A,V*66
20220705 060105+00:00 $WIMWV,62.4,R,0.7,N,A*14
20220705 060106+00:00 $IIMDA,29.9,I,1.013,B,14,C,,C,80.6,,,C,,T,,M,,N,,M*3E
20220705 060107+00:00 $HCHDT,320.5,T*2D
20220705 060107+00:00 $GPRMC,060102,A,4853.4696,N,12303.0900,W,6.61,317,050722,11.7,E,A,V*64
20220705 060107+00:00 $WIMWV,350.89,R,3.89,N,A*26
20220705 060108+00:00 $IIMDA,29.9,I,1.013,B,14,C,,C,80.6,,,C,,T,,M,,N,,M*3E
20220705 060109+00:00 $HCHDT,320.7,T*2F
20220705 060109+00:00 $GPRMC,060104,A,4853.4696,N,12303.0996,W,6.61,317,050722,11.7,E,A,V*6D
20220705 060109+00:00 $WIMWV,2.9,R,5.19,N,A*15
20220705 060110+00:00 $IIMDA,29.9,I,1.013,B,14,C,,C,80.6,,,C,,T,,M,,N,,M*3E
20220705 060111+00:00 $HCHDT,320.8,T*20
20220705 060111+00:00 $GPRMC,060106,A,4853.4798,N,12303.0996,W,6.61,317,050722,11.7,E,A,V*60
20220705 060111+00:00 $WIMWV,346.99,R,3.38,N,A*2A
20220705 060112+00:00 $IIMDA,29.9,I,1.013,B,14.1,C,,C,80.6,,,C,,T,,M,,N,,M*21
20220705 060113+00:00 $HCHDT,320.8,T*20
20220705 060113+00:00 $GPRMC,060108,A,4853.4798,N,12303.1098,W,6.61,317,050722,11.7,E,A,V*68
20220705 060113+00:00 $WIMWV,328.59,R,2.99,N,A*24
20220705 060114+00:00 $IIMDA,29.9,I,1.013,B,14.1,C,,C,80.6,,,C,,T,,M,,N,,M*21
20220705 060115+00:00 $HCHDT,320.3,T*2B
20220705 060115+00:00 $GPRMC,060110,A,4853.4798,N,12303.1098,W,6.61,317,050722,11.7,E,A,V*61
20220705 060115+00:00 $WIMWV,343.59,R,3.09,N,A*21
20220705 060116+00:00 $IIMDA,29.9,I,1.013,B,14.1,C,,C,80.6,,,C,,T,,M,,N,,M*21
20220705 060117+00:00 $HCHDT,318.9,T*2A
20220705 060117+00:00 $GPRMC,060112,A,4853.4798,N,12303.1098,W,6.61,317,050722,11.7,E,A,V*63
20220705 060117+00:00 $WIMWV,3.1,R,2.9,N,A*2A
20220705 060118+00:00 $IIMDA,29.9,I,1.013,B,14.1,C,,C,80.6,,,C,,T,,M,,N,,M*21
20220705 060119+00:00 $HCHDT,317.3,T*2F
20220705 060119+00:00 $GPRMC,060114,A,4853.4900,N,12303.1200,W,6.61,317,050722,11.7,E,A,V*69
20220705 060119+00:00 $WIMWV,4.2,R,3.09,N,A*1F
20220705 060120+00:00 $IIMDA,29.9,I,1.013,B,14.1,C,,C,80.5,,,C,,T,,M,,N,,M*22
20220705 060121+00:00 $HCHDT,315.8,T*26
20220705 060121+00:00 $GPRMC,060116,A,4853.4900,N,12303.1200,W,6.61,316,050722,11.7,E,A,V*6A
20220705 060121+00:00 $WIMWV,343.69,R,3.79,N,A*25
20220705 060122+00:00 $IIMDA,29.9,I,1.013,B,14.1,C,,C,80.5,,,C,,T,,M,,N,,M*22
20220705 060123+00:00 $HCHDT,314.3,T*2C
20220705 060123+00:00 $GPRMC,060118,A,4853.4900,N,12303.1200,W,6.61,315,050722,11.7,E,A,V*67
20220705 060123+00:00 $WIMWV,4.5,R,2.49,N,A*1D
20220705 060124+00:00 $IIMDA,29.9,I,1.013,B,14.1,C,,C,80.5,,,C,,T,,M,,N,,M*22
20220705 060125+00:00 $HCHDT,312.7,T*2E
20220705 060125+00:00 $GPRMC,060120,A,4853.4900,N,12303.1296,W,6.49,314,050722,11.7,E,A,V*68
20220705 060125+00:00 $WIMWV,347.49,R,3.98,N,A*2C
20220705 060126+00:00 $IIMDA,29.9,I,1.013,B,14.1,C,,C,80.5,,,C,,T,,M,,N,,M*22
20220705 060127+00:00 $HCHDT,311.8,T*22
20220705 060127+00:00 $GPRMC,060122,A,4853.4996,N,12303.1296,W,6.49,313,050722,11.7,E,A,V*62
20220705 060127+00:00 $WIMWV,0.19,R,0.1,N,A*1A
20220705 060128+00:00 $IIMDA,29.9,I,1.013,B,14.1,C,,C,80.5,,,C,,T,,M,,N,,M*22
20220705 060129+00:00 $HCHDT,311.2,T*28
20220705 060129+00:00 $GPRMC,060124,A,4853.4996,N,12303.1398,W,6.49,312,050722,11.7,E,A,V*6A
20220705 060129+00:00 $WIMWV,334.19,R,2.99,N,A*2D
20220705 060130+00:00 $IIMDA,29.9,I,1.013,B,14.1,C,,C,80.5,,,C,,T,,M,,N,,M*22
20220705 060131+00:00 $HCHDT,311.2,T*28
20220705 060131+00:00 $GPRMC,060126,A,4853.4996,N,12303.1398,W,6.49,311,050722,11.7,E,A,V*6B
20220705 060131+00:00 $WIMWV,353.19,R,1.98,N,A*2E
20220705 060132+00:00 $IIMDA,29.9,I,1.013,B,14.1,C,,C,80.4,,,C,,T,,M,,N,,M*23
20220705 060133+00:00 $HCHDT,311.4,T*2E
20220705 060133+00:00 $GPRMC,060128,A,4853.4996,N,12303.1500,W,6.49,310,050722,11.7,E,A,V*63
20220705 060133+00:00 $WIMWV,314.89,R,3.5,N,A*12
20220705 060134+00:00 $IIMDA,29.9,I,1.013,B,14.1,C,,C,80.4,,,C,,T,,M,,N,,M*23
20220705 060135+00:00 $HCHDT,311.7,T*2D
20220705 060135+00:00 $GPRMC,060130,A,4853.5098,N,12303.1500,W,6.49,310,050722,11.7,E,A,V*6C
20220705 060135+00:00 $WIMWV,334.89,R,2.9,N,A*1D
20220705 060136+00:00 $IIMDA,29.9,I,1.013,B,14.1,C,,C,80.4,,,C,,T,,M,,N,,M*23
20220705 060137+00:00 $HCHDT,312,T*37
20220705 060137+00:00 $GPRMC,060132,A,4853.5098,N,12303.1500,W,6.61,309,050722,11.7,E,A,V*6C
20220705 060137+00:00 $WIMWV,347.29,R,5.19,N,A*25
20220705 060138+00:00 $IIMDA,29.9,I,1.013,B,14.1,C,,C,80.4,,,C,,T,,M,,N,,M*23
20220705 060139+00:00 $HCHDT,312.4,T*2D
20220705 060139+00:00 $GPRMC,060134,A,4853.5098,N,12303.1596,W,6.61,309,050722,11.7,E,A,V*65
20220705 060139+00:00 $WIMWV,335.09,R,5.89,N,A*2B
20220705 060140+00:00 $IIMDA,29.9,I,1.013,B,14.1,C,,C,80.3,,,C,,T,,M,,N,,M*24
20220705 060141+00:00 $HCHDT,312.7,T*2E
20220705 060141+00:00 $GPRMC,060136,A,4853.5098,N,12303.1596,W,6.61,309,050722,11.7,E,A,V*67
20220705 060141+00:00 $WIMWV,353.89,R,2.49,N,A*28
20220705 060142+00:00 $IIMDA,29.9,I,1.013,B,14.1,C,,C,80.4,,,C,,T,,M,,N,,M*23
20220705 060143+00:00 $HCHDT,312.8,T*21
20220705 060143+00:00 $GPRMC,060138,A,4853.5098,N,12303.1698,W,6.61,309,050722,11.7,E,A,V*64
20220705 060143+00:00 $WIMWV,81.7,R,2.8,N,A*17
20220705 060144+00:00 $IIMDA,29.9,I,1.013,B,14.1,C,,C,80.3,,,C,,T,,M,,N,,M*24
20220705 060145+00:00 $HCHDT,312.8,T*21
20220705 060145+00:00 $GPRMC,060140,A,4853.5200,N,12303.1698,W,6.61,309,050722,11.7,E,A,V*68
20220705 060145+00:00 $WIMWV,350.09,R,3.89,N,A*2E
20220705 060146+00:00 $IIMDA,29.9,I,1.013,B,14.1,C,,C,80.3,,,C,,T,,M,,N,,M*24
20220705 060147+00:00 $HCHDT,312.8,T*21
20220705 060147+00:00 $GPRMC,060142,A,4853.5200,N,12303.1800,W,6.61,309,050722,11.7,E,A,V*65
20220705 060147+00:00 $WIMWV,18.4,R,3.79,N,A*23
20220705 060148+00:00 $IIMDA,29.9,I,1.013,B,14.1,C,,C,80.2,,,C,,T,,M,,N,,M*25
20220705 060149+00:00 $HCHDT,312.7,T*2E
20220705 060149+00:00 $GPRMC,060144,A,4853.5200,N,12303.1800,W,6.61,309,050722,11.7,E,A,V*63
20220705 060149+00:00 $WIMWV,358.29,R,3.38,N,A*2E
20220705 060150+00:00 $IIMDA,29.9,I,1.013,B,14.2,C,,C,80.2,,,C,,T,,M,,N,,M*26
20220705 060151+00:00 $HCHDT,312.8,T*21
20220705 060151+00:00 $GPRMC,060146,A,4853.5200,N,12303.1800,W,6.61,309,050722,11.7,E,A,V*61
20220705 060151+00:00 $WIMWV,356.49,R,4.49,N,A*27
20220705 060152+00:00 $IIMDA,29.9,I,1.013,B,14.2,C,,C,80.2,,,C,,T,,M,,N,,M*26
20220705 060153+00:00 $HCHDT,312.7,T*2E
20220705 060153+00:00 $GPRMC,060148,A,4853.5296,N,12303.1896,W,6.61,309,050722,11.7,E,A,V*6F
20220705 060153+00:00 $WIMWV,354.49,R,3.6,N,A*19
20220705 060154+00:00 $IIMDA,29.9,I,1.013,B,14.2,C,,C,80.1,,,C,,T,,M,,N,,M*25
20220705 060155+00:00 $HCHDT,312.8,T*21
20220705 060155+00:00 $GPRMC,060150,A,4853.5296,N,12303.1896,W,6.61,309,050722,11.7,E,A,V*66
20220705 060155+00:00 $WIMWV,357.99,R,4.59,N,A*2A
20220705 060156+00:00 $IIMDA,29.9,I,1.013,B,14.2,C,,C,80.2,,,C,,T,,M,,N,,M*26
20220705 060157+00:00 $HCHDT,312.9,T*20
20220705 060157+00:00 $GPRMC,060152,A,4853.5296,N,12303.1998,W,6.61,309,050722,11.7,E,A,V*6B
20220705 060157+00:00 $WIMWV,30.19,R,4.39,N,A*16
20220705 060158+00:00 $IIMDA,29.9,I,1.013,B,14.2,C,,C,80.2,,,C,,T,,M,,N,,M*26
20220705 060159+00:00 $HCHDT,313.1,T*29
20220705 060159+00:00 $GPRMC,060154,A,4853.5296,N,12303.1998,W,6.61,309,050722,11.7,E,A,V*6D
20220705 060159+00:00 $WIMWV,350.49,R,5.99,N,A*2D
20220705 060201+00:00 $IIMDA,29.9,I,1.013,B,14.2,C,,C,80.1,,,C,,T,,M,,N,,M*25
20220705 060201+00:00 $HCHDT,313.4,T*2C
20220705 060201+00:00 $GPRMC,060156,A,4853.5398,N,12303.2100,W,6.61,309,050722,11.7,E,A,V*6A
20220705 060201+00:00 $WIMWV,28.2,R,3.38,N,A*23
20220705 060202+00:00 $IIMDA,29.9,I,1.013,B,14.2,C,,C,80.1,,,C,,T,,M,,N,,M*25
20220705 060203+00:00 $HCHDT,313.8,T*20
20220705 060203+00:00 $GPRMC,060158,A,4853.5398,N,12303.2100,W,6.61,309,050722,11.7,E,A,V*64
20220705 060203+00:00 $WIMWV,346.59,R,3.29,N,A*26
20220705 060204+00:00 $IIMDA,29.9,I,1.013,B,14.2,C,,C,80.1,,,C,,T,,M,,N,,M*25
20220705 060205+00:00 $HCHDT,314.1,T*2E
20220705 060205+00:00 $GPRMC,060200,A,4853.5398,N,12303.2100,W,6.61,309,050722,11.7,E,A,V*6A
20220705 060205+00:00 $WIMWV,0.19,R,3.19,N,A*20
20220705 060206+00:00 $IIMDA,29.9,I,1.013,B,14.2,C,,C,80.1,,,C,,T,,M,,N,,M*25
20220705 060207+00:00 $HCHDT,314.3,T*2C
20220705 060207+00:00 $GPRMC,060202,A,4853.5398,N,12303.2196,W,6.49,310,050722,11.7,E,A,V*65
20220705 060207+00:00 $WIMWV,174.69,R,2.68,N,A*22
20220705 060208+00:00 $IIMDA,29.9,I,1.013,B,14.2,C,,C,80.1,,,C,,T,,M,,N,,M*25
20220705 060209+00:00 $HCHDT,314.5,T*2A
20220705 060209+00:00 $GPRMC,060204,A,4853.5398,N,12303.2196,W,6.49,310,050722,11.7,E,A,V*63
20220705 060209+00:00 $WIMWV,19.8,R,1.5,N,A*17
20220705 060210+00:00 $IIMDA,29.9,I,1.013,B,14.2,C,,C,80.1,,,C,,T,,M,,N,,M*25
20220705 060211+00:00 $HCHDT,314.7,T*28
20220705 060211+00:00 $GPRMC,060206,A,4853.5500,N,12303.2298,W,6.49,310,050722,11.7,E,A,V*6B
20220705 060211+00:00 $WIMWV,349.39,R,5.79,N,A*2C
20220705 060212+00:00 $IIMDA,29.9,I,1.013,B,14.2,C,,C,80,,,C,,T,,M,,N,,M*3A
20220705 060213+00:00 $HCHDT,314.8,T*27
20220705 060213+00:00 $GPRMC,060208,A,4853.5500,N,12303.2298,W,6.49,310,050722,11.7,E,A,V*65
20220705 060213+00:00 $WIMWV,0.19,R,2.1,N,A*18
20220705 060214+00:00 $IIMDA,29.9,I,1.013,B,14.2,C,,C,80,,,C,,T,,M,,N,,M*3A
20220705 060215+00:00 $HCHDT,314.9,T*26
20220705 060215+00:00 $GPRMC,060210,A,4853.5500,N,12303.2400,W,6.4,310,050722,11.7,E,A,V*52
20220705 060215+00:00 $WIMWV,355.29,R,2.99,N,A*29
20220705 060216+00:00 $IIMDA,29.9,I,1.013,B,14.2,C,,C,80,,,C,,T,,M,,N,,M*3A
20220705 060217+00:00 $HCHDT,315,T*30
20220705 060217+00:00 $GPRMC,060212,A,4853.5500,N,12303.2400,W,6.4,311,050722,11.7,E,A,V*51
20220705 060217+00:00 $WIMWV,17.1,R,2.2,N,A*14
20220705 060218+00:00 $IIMDA,29.9,I,1.013,B,14.2,C,,C,80,,,C,,T,,M,,N,,M*3A
20220705 060219+00:00 $HCHDT,315.2,T*2C
20220705 060219+00:00 $GPRMC,060214,A,4853.5596,N,12303.2400,W,6.4,311,050722,11.7,E,A,V*58
20220705 060219+00:00 $WIMWV,345.69,R,2.68,N,A*22
20220705 060220+00:00 $IIMDA,29.9,I,1.013,B,14.2,C,,C,80,,,C,,T,,M,,N,,M*3A
20220705 060221+00:00 $HCHDT,315.3,T*2D
20220705 060221+00:00 $GPRMC,060216,A,4853.5596,N,12303.2496,W,6.4,311,050722,11.7,E,A,V*55
20220705 060221+00:00 $WIMWV,111.5,R,0.49,N,A*1A
20220705 060222+00:00 $IIMDA,29.9,I,1.013,B,14.2,C,,C,80,,,C,,T,,M,,N,,M*3A
20220705 060223+00:00 $HCHDT,315.4,T*2A
20220705 060223+00:00 $GPRMC,060218,A,4853.5596,N,12303.2496,W,6.4,311,050722,11.7,E,A,V*5B
20220705 060223+00:00 $WIMWV,311.59,R,0.39,N,A*26
20220705 060224+00:00 $IIMDA,29.9,I,1.013,B,14.2,C,,C,80,,,C,,T,,M,,N,,M*3A
20220705 060225+00:00 $HCHDT,315.4,T*2A
20220705 060225+00:00 $GPRMC,060220,A,4853.5596,N,12303.2598,W,6.4,312,050722,11.7,E,A,V*5C
20220705 060225+00:00 $WIMWV,336.29,R,2.1,N,A*1D
20220705 060226+00:00 $IIMDA,29.9,I,1.013,B,14.2,C,,C,80,,,C,,T,,M,,N,,M*3A
20220705 060227+00:00 $HCHDT,315.4,T*2A
20220705 060227+00:00 $GPRMC,060222,A,4853.5698,N,12303.2598,W,6.4,312,050722,11.7,E,A,V*53
20220705 060227+00:00 $WIMWV,7.4,R,4.3,N,A*27
20220705 060228+00:00 $IIMDA,29.9,I,1.013,B,14.2,C,,C,80,,,C,,T,,M,,N,,M*3A
20220705 060229+00:00 $HCHDT,315.3,T*2D
20220705 060229+00:00 $GPRMC,060224,A,4853.5698,N,12303.2598,W,6.4,312,050722,11.7,E,A,V*55
20220705 060229+00:00 $WIMWV,326.79,R,3.79,N,A*27
20220705 060230+00:00 $IIMDA,29.9,I,1.013,B,14.2,C,,C,80,,,C,,T,,M,,N,,M*3A
20220705 060231+00:00 $HCHDT,315.3,T*2D
20220705 060231+00:00 $GPRMC,060226,A,4853.5698,N,12303.2700,W,6.3,312,050722,11.7,E,A,V*53
20220705 060231+00:00 $WIMWV,325.39,R,0.99,N,A*2D
20220705 060232+00:00 $IIMDA,29.9,I,1.013,B,14.2,C,,C,80,,,C,,T,,M,,N,,M*3A
20220705 060233+00:00 $HCHDT,315.3,T*2D
20220705 060233+00:00 $GPRMC,060228,A,4853.5698,N,12303.2700,W,6.3,312,050722,11.7,E,A,V*5D
20220705 060233+00:00 $WIMWV,3.2,R,4.2,N,A*24
20220705 060234+00:00 $IIMDA,29.9,I,1.013,B,14.2,C,,C,80,,,C,,T,,M,,N,,M*3A
20220705 060235+00:00 $HCHDT,315.3,T*2D
20220705 060235+00:00 $GPRMC,060230,A,4853.5800,N,12303.2700,W,6.3,313,050722,11.7,E,A,V*5A
20220705 060235+00:00 $WIMWV,332.19,R,2.9,N,A*12
20220705 060236+00:00 $IIMDA,29.9,I,1.013,B,14.2,C,,C,80,,,C,,T,,M,,N,,M*3A
20220705 060237+00:00 $HCHDT,315.3,T*2D
20220705 060237+00:00 $GPRMC,060232,A,4853.5800,N,12303.2796,W,6.3,313,050722,11.7,E,A,V*57
20220705 060237+00:00 $WIMWV,353.19,R,3.19,N,A*25
20220705 060238+00:00 $IIMDA,29.9,I,1.013,B,14.2,C,,C,80,,,C,,T,,M,,N,,M*3A
20220705 060239+00:00 $HCHDT,315.3,T*2D
20220705 060239+00:00 $GPRMC,060234,A,4853.5800,N,12303.2796,W,6.3,313,050722,11.7,E,A,V*51
20220705 060239+00:00 $WIMWV,0.19,R,3.98,N,A*29
20220705 060240+00:00 $IIMDA,29.9,I,1.013,B,14.2,C,,C,80.1,,,C,,T,,M,,N,,M*25
20220705 060241+00:00 $HCHDT,315.2,T*2C
20220705 060241+00:00 $GPRMC,060236,A,4853.5800,N,12303.2898,W,6.3,313,050722,11.7,E,A,V*52
20220705 060241+00:00 $WIMWV,22.69,R,1.09,N,A*14
20220705 060242+00:00 $IIMDA,29.9,I,1.013,B,14.2,C,,C,80,,,C,,T,,M,,N,,M*3A
20220705 060243+00:00 $HCHDT,315.1,T*2F
20220705 060243+00:00 $GPRMC,060238,A,4853.5800,N,12303.2898,W,6.3,313,050722,11.7,E,A,V*5C
20220705 060243+00:00 $WIMWV,353.89,R,4.08,N,A*2B
20220705 060244+00:00 $IIMDA,29.9,I,1.013,B,14.2,C,,C,80.1,,,C,,T,,M,,N,,M*25
20220705 060245+00:00 $HCHDT,315.1,T*2F
20220705 060245+00:00 $GPRMC,060240,A,4853.5896,N,12303.2898,W,6.3,313,050722,11.7,E,A,V*5C
20220705 060245+00:00 $WIMWV,15.1,R,2.8,N,A*1C
20220705 060246+00:00 $IIMDA,29.9,I,1.013,B,14.2,C,,C,80,,,C,,T,,M,,N,,M*3A
20220705 060247+00:00 $HCHDT,314.9,T*26
20220705 060247+00:00 $GPRMC,060242,A,4853.5896,N,12303.3000,W,6.3,313,050722,11.7,E,A,V*56
20220705 060247+00:00 $WIMWV,342.99,R,3.38,N,A*2E
20220705 060248+00:00 $IIMDA,29.9,I,1.013,B,14.2,C,,C,80.1,,,C,,T,,M,,N,,M*25
20220705 060249+00:00 $HCHDT,314.7,T*28
20220705 060249+00:00 $GPRMC,060244,A,4853.5896,N,12303.3000,W,6.3,313,050722,11.7,E,A,V*50
20220705 060249+00:00 $WIMWV,354.29,R,5.09,N,A*26
20220705 060250+00:00 $IIMDA,29.9,I,1.013,B,14.2,C,,C,80,,,C,,T,,M,,N,,M*3A
20220705 060251+00:00 $HCHDT,314.5,T*2A
20220705 060251+00:00 $GPRMC,060246,A,4853.5896,N,12303.3096,W,6.3,313,050722,11.7,E,A,V*5D
20220705 060251+00:00 $WIMWV,65.09,R,3.29,N,A*11
20220705 060252+00:00 $IIMDA,29.9,I,1.013,B,14.2,C,,C,80,,,C,,T,,M,,N,,M*3A
20220705 060253+00:00 $HCHDT,314.3,T*2C
20220705 060253+00:00 $GPRMC,060248,A,4853.5998,N,12303.3096,W,6.3,313,050722,11.7,E,A,V*5C
20220705 060253+00:00 $WIMWV,347.69,R,4.59,N,A*24
20220705 060254+00:00 $IIMDA,29.9,I,1.013,B,14.2,C,,C,80.1,,,C,,T,,M,,N,,M*25
20220705 060255+00:00 $HCHDT,314.1,T*2E
20220705 060255+00:00 $GPRMC,060250,A,4853.5998,N,12303.3096,W,6.3,313,050722,11.7,E,A,V*55
20220705 060255+00:00 $WIMWV,30.6,R,3.89,N,A*24
20220705 060256+00:00 $IIMDA,29.9,I,1.013,B,14.2,C,,C,80,,,C,,T,,M,,N,,M*3A
20220705 060257+00:00 $HCHDT,313.9,T*21
20220705 060257+00:00 $GPRMC,060252,A,4853.5998,N,12303.3198,W,6.3,313,050722,11.7,E,A,V*58
20220705 060257+00:00 $WIMWV,351.09,R,4.49,N,A*24
20220705 060258+00:00 $IIMDA,29.9,I,1.013,B,14.2,C,,C,80,,,C,,T,,M,,N,,M*3A
20220705 060259+00:00 $HCHDT,313.5,T*2D
20220705 060259+00:00 $GPRMC,060254,A,4853.5998,N,12303.3198,W,6.3,313,050722,11.7,E,A,V*5E
20220705 060259+00:00 $WIMWV,359.79,R,5.19,N,A*2F
20220705 060301+00:00 $IIMDA,29.9,I,1.013,B,14.2,C,,C,80.1,,,C,,T,,M,,N,,M*25
20220705 060301+00:00 $HCHDT,313,T*36
20220705 060301+00:00 $GPRMC,060256,A,4853.6100,N,12303.3300,W,6.3,313,050722,11.7,E,A,V*55
20220705 060301+00:00 $WIMWV,336.09,R,5.48,N,A*25
20220705 060302+00:00 $IIMDA,29.9,I,1.013,B,14.2,C,,C,80,,,C,,T,,M,,N,,M*3A
20220705 060303+00:00 $HCHDT,312.5,T*2C
20220705 060303+00:00 $GPRMC,060258,A,4853.6100,N,12303.3300,W,6.4,312,050722,11.7,E,A,V*5D
20220705 060303+00:00 $WIMWV,354.19,R,5.29,N,A*27
20220705 060304+00:00 $IIMDA,29.9,I,1.013,B,14.2,C,,C,80,,,C,,T,,M,,N,,M*3A
20220705 060305+00:00 $HCHDT,312.2,T*2B
20220705 060305+00:00 $GPRMC,060300,A,4853.6100,N,12303.3300,W,6.4,312,050722,11.7,E,A,V*51
20220705 060305+00:00 $WIMWV,335.19,R,1.79,N,A*21
20220705 060306+00:00 $IIMDA,29.9,I,1.013,B,14.2,C,,C,80,,,C,,T,,M,,N,,M*3A
20220705 060307+00:00 $HCHDT,312.1,T*28
20220705 060307+00:00 $GPRMC,060302,A,4853.6100,N,12303.3396,W,6.4,312,050722,11.7,E,A,V*5C
20220705 060307+00:00 $WIMWV,343.29,R,3.5,N,A*1A
20220705 060308+00:00 $IIMDA,29.9,I,1.013,B,14.2,C,,C,80,,,C,,T,,M,,N,,M*3A
20220705 060309+00:00 $HCHDT,312.1,T*28
20220705 060309+00:00 $GPRMC,060304,A,4853.6196,N,12303.3396,W,6.4,311,050722,11.7,E,A,V*56
20220705 060309+00:00 $WIMWV,51.7,R,4.59,N,A*28
20220705 060310+00:00 $IIMDA,29.9,I,1.013,B,14.2,C,,C,80,,,C,,T,,M,,N,,M*3A
20220705 060311+00:00 $HCHDT,312.2,T*2B
20220705 060311+00:00 $GPRMC,060306,A,4853.6196,N,12303.3498,W,6.4,311,050722,11.7,E,A,V*5D
20220705 060311+00:00 $WIMWV,336.09,R,5.38,N,A*22
20220705 060312+00:00 $IIMDA,29.9,I,1.013,B,14.2,C,,C,80,,,C,,T,,M,,N,,M*3A
20220705 060313+00:00 $HCHDT,312.3,T*2A
20220705 060313+00:00 $GPRMC,060308,A,4853.6196,N,12303.3498,W,6.4,311,050722,11.7,E,A,V*53
20220705 060313+00:00 $WIMWV,75.89,R,0.99,N,A*10
20220705 060314+00:00 $IIMDA,29.9,I,1.013,B,14.2,C,,C,79.9,,,C,,T,,M,,N,,M*2B
20220705 060315+00:00 $HCHDT,312.4,T*2D
20220705 060315+00:00 $GPRMC,060310,A,4853.6196,N,12303.3498,W,6.4,311,050722,11.7,E,A,V*5A
20220705 060315+00:00 $WIMWV,330.59,R,3.5,N,A*19
20220705 060317+00:00 $IIMDA,29.9,I,1.013,B,14.2,C,,C,79.9,,,C,,T,,M,,N,,M*2B
20220705 060317+00:00 $HCHDT,312.5,T*2C
20220705 060317+00:00 $GPRMC,060312,A,4853.6298,N,12303.3600,W,6.4,311,050722,11.7,E,A,V*56
20220705 060317+00:00 $WIMWV,75.1,R,2.9,N,A*1B
20220705 060318+00:00 $IIMDA,29.9,I,1.013,B,14.2,C,,C,79.9,,,C,,T,,M,,N,,M*2B
20220705 060319+00:00 $HCHDT,312.8,T*21
20220705 060319+00:00 $GPRMC,060314,A,4853.6298,N,12303.3600,W,6.4,311,050722,11.7,E,A,V*50
20220705 060319+00:00 $WIMWV,351.59,R,4.39,N,A*26
20220705 060320+00:00 $IIMDA,29.9,I,1.013,B,14.2,C,,C,79.9,,,C,,T,,M,,N,,M*2B
20220705 060321+00:00 $HCHDT,313,T*36
20220705 060321+00:00 $GPRMC,060316,A,4853.6298,N,12303.3696,W,6.4,311,050722,11.7,E,A,V*5D
20220705 060321+00:00 $WIMWV,357.79,R,4.49,N,A*25
20220705 060322+00:00 $IIMDA,29.9,I,1.013,B,14.2,C,,C,79.9,,,C,,T,,M,,N,,M*2B
20220705 060323+00:00 $HCHDT,313.2,T*2A
20220705 060323+00:00 $GPRMC,060318,A,4853.6298,N,12303.3696,W,6.4,311,050722,11.7,E,A,V*53
20220705 060323+00:00 $WIMWV,14.5,R,3.69,N,A*2F
20220705 060324+00:00 $IIMDA,29.9,I,1.013,B,14.2,C,,C,79.8,,,C,,T,,M,,N,,M*2A
20220705 060325+00:00 $HCHDT,313.4,T*2C
20220705 060325+00:00 $GPRMC,060320,A,4853.6298,N,12303.3696,W,6.4,311,050722,11.7,E,A,V*58
20220705 060325+00:00 $WIMWV,8,R,1.69,N,A*0B
20220705 060326+00:00 $IIMDA,29.9,I,1.013,B,14.2,C,,C,79.8,,,C,,T,,M,,N,,M*2A
20220705 060327+00:00 $HCHDT,313.7,T*2F
20220705 060327+00:00 $GPRMC,060322,A,4853.6400,N,12303.3798,W,6.4,311,050722,11.7,E,A,V*52
20220705 060327+00:00 $WIMWV,8.2,R,2.1,N,A*2A
20220705 060328+00:00 $IIMDA,29.9,I,1.013,B,14.2,C,,C,79.8,,,C,,T,,M,,N,,M*2A
20220705 060329+00:00 $HCHDT,313.8,T*20
20220705 060329+00:00 $GPRMC,060324,A,4853.6400,N,12303.3798,W,6.4,312,050722,11.7,E,A,V*57
20220705 060329+00:00 $WIMWV,342.99,R,2.1,N,A*15
20220705 060330+00:00 $IIMDA,29.9,I,1.013,B,14.2,C,,C,79.8,,,C,,T,,M,,N,,M*2A
20220705 060331+00:00 $HCHDT,314,T*31
20220705 060331+00:00 $GPRMC,060326,A,4853.6400,N,12303.3900,W,6.4,312,050722,11.7,E,A,V*5A
20220705 060331+00:00 $WIMWV,5.3,R,2.49,N,A*1A
20220705 060332+00:00 $IIMDA,29.9,I,1.013,B,14.2,C,,C,79.8,,,C,,T,,M,,N,,M*2A
20220705 060333+00:00 $HCHDT,314.1,T*2E
20220705 060333+00:00 $GPRMC,060328,A,4853.6400,N,12303.3900,W,6.4,312,050722,11.7,E,A,V*54
20220705 060333+00:00 $WIMWV,350.69,R,1.19,N,A*23
20220705 060335+00:00 $IIMDA,29.9,I,1.013,B,14.2,C,,C,79.7,,,C,,T,,M,,N,,M*25
20220705 060335+00:00 $HCHDT,314.2,T*2D
20220705 060335+00:00 $GPRMC,060330,A,4853.6496,N,12303.3900,W,6.4,312,050722,11.7,E,A,V*52
20220705 060335+00:00 $WIMWV,14,R,1.5,N,A*0C
20220705 060337+00:00 $IIMDA,29.9,I,1.013,B,14.2,C,,C,79.7,,,C,,T,,M,,N,,M*25
20220705 060337+00:00 $HCHDT,314.3,T*2C
20220705 060337+00:00 $GPRMC,060332,A,4853.6496,N,12303.3996,W,6.4,312,050722,11.7,E,A,V*5F
20220705 060337+00:00 $WIMWV,337.39,R,1.89,N,A*2E
20220705 060338+00:00 $IIMDA,29.9,I,1.013,B,14.2,C,,C,79.7,,,C,,T,,M,,N,,M*25
20220705 060339+00:00 $HCHDT,314.3,T*2C
20220705 060339+00:00 $GPRMC,060334,A,4853.6496,N,12303.3996,W,6.4,312,050722,11.7,E,A,V*59
20220705 060339+00:00 $WIMWV,329.89,R,2.9,N,A*11
20220705 060341+00:00 $IIMDA,29.9,I,1.013,B,14.2,C,,C,79.7,,,C,,T,,M,,N,,M*25
20220705 060341+00:00 $HCHDT,314.4,T*2B
20220705 060341+00:00 $GPRMC,060336,A,4853.6496,N,12303.4098,W,6.4,312,050722,11.7,E,A,V*5B
20220705 060341+00:00 $WIMWV,322.59,R,2.59,N,A*22
20220705 060343+00:00 $IIMDA,29.9,I,1.013,B,14.2,C,,C,79.7,,,C,,T,,M,,N,,M*25
20220705 060343+00:00 $HCHDT,314.4,T*2B
20220705 060343+00:00 $GPRMC,060338,A,4853.6598,N,12303.4098,W,6.4,312,050722,11.7,E,A,V*5A
20220705 060343+00:00 $WIMWV,325.59,R,2.39,N,A*23
20220705 060345+00:00 $IIMDA,29.9,I,1.013,B,14.2,C,,C,79.7,,,C,,T,,M,,N,,M*25
20220705 060345+00:00 $HCHDT,314.5,T*2A
20220705 060345+00:00 $GPRMC,060340,A,4853.6598,N,12303.4098,W,6.3,313,050722,11.7,E,A,V*53
20220705 060345+00:00 $WIMWV,345.99,R,5.48,N,A*28
20220705 060347+00:00 $IIMDA,29.9,I,1.013,B,14.2,C,,C,79.7,,,C,,T,,M,,N,,M*25
20220705 060347+00:00 $HCHDT,314.5,T*2A
20220705 060347+00:00 $GPRMC,060342,A,4853.6598,N,12303.4200,W,6.3,313,050722,11.7,E,A,V*52
20220705 060347+00:00 $WIMWV,70.9,R,3.6,N,A*18
20220705 060348+00:00 $IIMDA,29.9,I,1.013,B,14.2,C,,C,79.7,,,C,,T,,M,,N,,M*25
20220705 060349+00:00 $HCHDT,314.5,T*2A
20220705 060349+00:00 $GPRMC,060344,A,4853.6598,N,12303.4200,W,6.3,313,050722,11.7,E,A,V*54
20220705 060349+00:00 $WIMWV,352.69,R,4.08,N,A*24
20220705 060351+00:00 $IIMDA,29.9,I,1.013,B,14.2,C,,C,79.7,,,C,,T,,M,,N,,M*25
20220705 060351+00:00 $HCHDT,314.5,T*2A
20220705 060351+00:00 $GPRMC,060346,A,4853.6700,N,12303.4296,W,6.3,313,050722,11.7,E,A,V*5A
20220705 060351+00:00 $WIMWV,22.49,R,2.49,N,A*11
20220705 060353+00:00 $IIMDA,29.9,I,1.013,B,14.3,C,,C,79.7,,,C,,T,,M,,N,,M*24
20220705 060353+00:00 $HCHDT,314.4,T*2B
20220705 060353+00:00 $GPRMC,060348,A,4853.6700,N,12303.4296,W,6.3,313,050722,11.7,E,A,V*54
20220705 060353+00:00 $WIMWV,352.19,R,6.69,N,A*26
20220705 060355+00:00 $IIMDA,29.9,I,1.013,B,14.3,C,,C,79.7,,,C,,T,,M,,N,,M*24
20220705 060355+00:00 $HCHDT,314.4,T*2B
20220705 060355+00:00 $GPRMC,060350,A,4853.6700,N,12303.4296,W,6.3,313,050722,11.7,E,A,V*5D
20220705 060355+00:00 $WIMWV,24.3,R,4.49,N,A*2F
20220705 060357+00:00 $IIMDA,29.9,I,1.013,B,14.3,C,,C,79.7,,,C,,T,,M,,N,,M*24
20220705 060357+00:00 $HCHDT,314.4,T*2B
20220705 060357+00:00 $GPRMC,060352,A,4853.6700,N,12303.4398,W,6.4,313,050722,11.7,E,A,V*57
20220705 060357+00:00 $WIMWV,345.99,R,6.3,N,A*14
20220705 060359+00:00 $IIMDA,29.9,I,1.013,B,14.3,C,,C,79.7,,,C,,T,,M,,N,,M*24
20220705 060359+00:00 $HCHDT,314.5,T*2A
20220705 060359+00:00 $GPRMC,060354,A,4853.6796,N,12303.4398,W,6.4,313,050722,11.7,E,A,V*5E
20220705 060359+00:00 $WIMWV,1.2,R,4.78,N,A*1B
20220705 060401+00:00 $IIMDA,29.9,I,1.013,B,14.3,C,,C,79.7,,,C,,T,,M,,N,,M*24
20220705 060401+00:00 $HCHDT,314.5,T*2A
20220705 060401+00:00 $GPRMC,060356,A,4853.6796,N,12303.4500,W,6.4,313,050722,11.7,E,A,V*5B
20220705 060401+00:00 $WIMWV,14.09,R,4.08,N,A*13
20220705 060403+00:00 $IIMDA,29.9,I,1.013,B,14.3,C,,C,79.7,,,C,,T,,M,,N,,M*24
20220705 060403+00:00 $HCHDT,314.5,T*2A
20220705 060403+00:00 $GPRMC,060358,A,4853.6796,N,12303.4500,W,6.4,313,050722,11.7,E,A,V*55
20220705 060403+00:00 $WIMWV,25.79,R,2.68,N,A*16
20220705 060405+00:00 $IIMDA,29.9,I,1.013,B,14.3,C,,C,79.7,,,C,,T,,M,,N,,M*24
20220705 060405+00:00 $HCHDT,314.6,T*29
20220705 060405+00:00 $GPRMC,060400,A,4853.6796,N,12303.4500,W,6.4,313,050722,11.7,E,A,V*5F
20220705 060405+00:00 $WIMWV,328.49,R,3.5,N,A*11
20220705 060407+00:00 $IIMDA,29.9,I,1.013,B,14.3,C,,C,79.7,,,C,,T,,M,,N,,M*24
20220705 060407+00:00 $HCHDT,314.6,T*29
20220705 060407+00:00 $GPRMC,060402,A,4853.6796,N,12303.4596,W,6.4,313,050722,11.7,E,A,V*52
20220705 060407+00:00 $WIMWV,353.19,R,3.6,N,A*1B
20220705 060409+00:00 $IIMDA,29.9,I,1.013,B,14.3,C,,C,79.7,,,C,,T,,M,,N,,M*24
20220705 060409+00:00 $HCHDT,314.6,T*29
20220705 060409+00:00 $GPRMC,060404,A,4853.6898,N,12303.4596,W,6.4,313,050722,11.7,E,A,V*55
20220705 060409+00:00 $WIMWV,12.5,R,2.39,N,A*2D
20220705 060411+00:00 $IIMDA,29.9,I,1.013,B,14.3,C,,C,79.7,,,C,,T,,M,,N,,M*24
20220705 060411+00:00 $HCHDT,314.5,T*2A
20220705 060411+00:00 $GPRMC,060406,A,4853.6898,N,12303.4596,W,6.4,313,050722,11.7,E,A,V*57
20220705 060411+00:00 $WIMWV,322.09,R,5.09,N,A*25
20220705 060413+00:00 $IIMDA,29.9,I,1.013,B,14.3,C,,C,79.7,,,C,,T,,M,,N,,M*24
20220705 060413+00:00 $HCHDT,314.5,T*2A
20220705 060413+00:00 $GPRMC,060408,A,4853.6898,N,12303.4698,W,6.4,313,050722,11.7,E,A,V*54
20220705 060413+00:00 $WIMWV,350.99,R,4.59,N,A*2D
20220705 060415+00:00 $IIMDA,29.9,I,1.013,B,14.3,C,,C,79.7,,,C,,T,,M,,N,,M*24
20220705 060415+00:00 $HCHDT,314.4,T*2B
20220705 060415+00:00 $GPRMC,060410,A,4853.6898,N,12303.4698,W,6.4,313,050722,11.7,E,A,V*5D
20220705 060415+00:00 $WIMWV,355.99,R,3.79,N,A*2D
20220705 060417+00:00 $IIMDA,29.9,I,1.013,B,14.3,C,,C,79.7,,,C,,T,,M,,N,,M*24
20220705 060417+00:00 $HCHDT,314.3,T*2C
20220705 060417+00:00 $GPRMC,060412,A,4853.7000,N,12303.4800,W,6.4,313,050722,11.7,E,A,V*58
20220705 060417+00:00 $WIMWV,65.29,R,5.09,N,A*17
20220705 060419+00:00 $IIMDA,29.9,I,1.013,B,14.3,C,,C,79.7,,,C,,T,,M,,N,,M*24
20220705 060419+00:00 $HCHDT,314.2,T*2D
20220705 060419+00:00 $GPRMC,060414,A,4853.7000,N,12303.4800,W,6.49,313,050722,11.7,E,A,V*67
20220705 060419+00:00 $WIMWV,26.89,R,3.38,N,A*1E
20220705 060421+00:00 $IIMDA,29.9,I,1.013,B,14.3,C,,C,79.7,,,C,,T,,M,,N,,M*24
20220705 060421+00:00 $HCHDT,314.1,T*2E
20220705 060421+00:00 $GPRMC,060416,A,4853.7000,N,12303.4800,W,6.49,313,050722,11.7,E,A,V*65
20220705 060421+00:00 $WIMWV,334.39,R,2.2,N,A*1D
20220705 060423+00:00 $IIMDA,29.9,I,1.013,B,14.3,C,,C,79.7,,,C,,T,,M,,N,,M*24
20220705 060423+00:00 $HCHDT,314.1,T*2E
20220705 060423+00:00 $GPRMC,060418,A,4853.7000,N,12303.4896,W,6.49,313,050722,11.7,E,A,V*64
20220705 060423+00:00 $WIMWV,16.5,R,1.19,N,A*28
20220705 060425+00:00 $IIMDA,29.9,I,1.013,B,14.3,C,,C,79.7,,,C,,T,,M,,N,,M*24
20220705 060425+00:00 $HCHDT,314.1,T*2E
20220705 060425+00:00 $GPRMC,060420,A,4853.7096,N,12303.4896,W,6.49,313,050722,11.7,E,A,V*60
20220705 060425+00:00 $WIMWV,4.39,R,4.59,N,A*25
20220705 060427+00:00 $IIMDA,29.9,I,1.013,B,14.3,C,,C,79.7,,,C,,T,,M,,N,,M*24
20220705 060427+00:00 $HCHDT,314.1,T*2E
20220705 060427+00:00 $GPRMC,060422,A,4853.7096,N,12303.4998,W,6.49,313,050722,11.7,E,A,V*6D
20220705 060427+00:00 $WIMWV,353.89,R,3.38,N,A*2F
20220705 060429+00:00 $IIMDA,29.9,I,1.013,B,14.3,C,,C,79.7,,,C,,T,,M,,N,,M*24
20220705 060429+00:00 $HCHDT,314.2,T*2D
20220705 060429+00:00 $GPRMC,060424,A,4853.7096,N,12303.4998,W,6.49,313,050722,11.7,E,A,V*6B
20220705 060429+00:00 $WIMWV,60.3,R,2.8,N,A*1C
20220705 060431+00:00 $IIMDA,29.9,I,1.013,B,14.3,C,,C,79.7,,,C,,T,,M,,N,,M*24
20220705 060431+00:00 $HCHDT,314.1,T*2E
20220705 060431+00:00 $GPRMC,060426,A,4853.7096,N,12303.4998,W,6.49,313,050722,11.7,E,A,V*69
20220705 060431+00:00 $WIMWV,347.49,R,4.39,N,A*20
20220705 060433+00:00 $IIMDA,29.9,I,1.013,B,14.3,C,,C,79.6,,,C,,T,,M,,N,,M*25
20220705 060433+00:00 $HCHDT,314.1,T*2E
20220705 060433+00:00 $GPRMC,060428,A,4853.7198,N,12303.5100,W,6.49,313,050722,11.7,E,A,V*60
20220705 060433+00:00 $WIMWV,292.49,R,1.4,N,A*12
20220705 060435+00:00 $IIMDA,29.9,I,1.013,B,14.3,C,,C,79.7,,,C,,T,,M,,N,,M*24
20220705 060435+00:00 $HCHDT,314.1,T*2E
20220705 060435+00:00 $GPRMC,060430,A,4853.7198,N,12303.5100,W,6.49,313,050722,11.7,E,A,V*69
20220705 060435+00:00 $WIMWV,355.99,R,6.59,N,A*2A
20220705 060437+00:00 $IIMDA,29.9,I,1.013,B,14.3,C,,C,79.7,,,C,,T,,M,,N,,M*24
20220705 060437+00:00 $HCHDT,314.1,T*2E
20220705 060437+00:00 $GPRMC,060432,A,4853.7198,N,12303.5196,W,6.49,313,050722,11.7,E,A,V*64
20220705 060437+00:00 $WIMWV,5.3,R,2.39,N,A*1D
20220705 060439+00:00 $IIMDA,29.9,I,1.013,B,14.3,C,,C,79.6,,,C,,T,,M,,N,,M*25
20220705 060439+00:00 $HCHDT,314,T*31
20220705 060439+00:00 $GPRMC,060434,A,4853.7198,N,12303.5196,W,6.49,313,050722,11.7,E,A,V*62
20220705 060439+00:00 $WIMWV,356.19,R,5.48,N,A*22
20220705 060441+00:00 $IIMDA,29.9,I,1.013,B,14.3,C,,C,79.6,,,C,,T,,M,,N,,M*25
20220705 060441+00:00 $HCHDT,314.1,T*2E
20220705 060441+00:00 $GPRMC,060436,A,4853.7300,N,12303.5196,W,6.49,313,050722,11.7,E,A,V*63
20220705 060441+00:00 $WIMWV,5.9,R,4.59,N,A*17
20220705 060443+00:00 $IIMDA,29.9,I,1.013,B,14.3,C,,C,79.6,,,C,,T,,M,,N,,M*25
20220705 060443+00:00 $HCHDT,314,T*31
20220705 060443+00:00 $GPRMC,060438,A,4853.7300,N,12303.5298,W,6.49,313,050722,11.7,E,A,V*60
20220705 060443+00:00 $WIMWV,0.19,R,6.59,N,A*21
20220705 060445+00:00 $IIMDA,29.9,I,1.013,B,14.3,C,,C,79.6,,,C,,T,,M,,N,,M*25
20220705 060445+00:00 $HCHDT,314,T*31
20220705 060445+00:00 $GPRMC,060440,A,4853.7300,N,12303.5298,W,6.49,313,050722,11.7,E,A,V*6F
20220705 060445+00:00 $WIMWV,357.89,R,4.3,N,A*14
20220705 060447+00:00 $IIMDA,29.9,I,1.013,B,14.3,C,,C,79.6,,,C,,T,,M,,N,,M*25
20220705 060447+00:00 $HCHDT,314,T*31
20220705 060447+00:00 $GPRMC,060442,A,4853.7300,N,12303.5400,W,6.49,313,050722,11.7,E,A,V*6A
20220705 060447+00:00 $WIMWV,352.29,R,4.49,N,A*25
20220705 060449+00:00 $IIMDA,29.9,I,1.013,B,14.3,C,,C,79.6,,,C,,T,,M,,N,,M*25
20220705 060449+00:00 $HCHDT,314,T*31
20220705 060449+00:00 $GPRMC,060444,A,4853.7396,N,12303.5400,W,6.49,313,050722,11.7,E,A,V*63
20220705 060449+00:00 $WIMWV,59.9,R,2.99,N,A*24
20220705 060451+00:00 $IIMDA,29.9,I,1.013,B,14.3,C,,C,79.6,,,C,,T,,M,,N,,M*25
20220705 060451+00:00 $HCHDT,314,T*31
20220705 060451+00:00 $GPRMC,060446,A,4853.7396,N,12303.5496,W,6.49,313,050722,11.7,E,A,V*6E
20220705 060451+00:00 $WIMWV,351.79,R,5.79,N,A*21
20220705 060453+00:00 $IIMDA,29.9,I,1.013,B,14.3,C,,C,79.6,,,C,,T,,M,,N,,M*25
20220705 060453+00:00 $HCHDT,314.1,T*2E
20220705 060453+00:00 $GPRMC,060448,A,4853.7396,N,12303.5496,W,6.49,313,050722,11.7,E,A,V*60
20220705 060453+00:00 $WIMWV,352.19,R,3.89,N,A*2D
20220705 060455+00:00 $IIMDA,29.9,I,1.013,B,14.3,C,,C,79.6,,,C,,T,,M,,N,,M*25
20220705 060455+00:00 $HCHDT,314,T*31
20220705 060455+00:00 $GPRMC,060450,A,4853.7396,N,12303.5496,W,6.49,313,050722,11.7,E,A,V*69
20220705 060455+00:00 $WIMWV,338.99,R,5.79,N,A*20
20220705 060457+00:00 $IIMDA,29.9,I,1.013,B,14.3,C,,C,79.6,,,C,,T,,M,,N,,M*25
20220705 060457+00:00 $HCHDT,314.1,T*2E
20220705 060457+00:00 $GPRMC,060452,A,4853.7498,N,12303.5598,W,6.49,313,050722,11.7,E,A,V*6D
20220705 060457+00:00 $WIMWV,14.3,R,5.89,N,A*21
20220705 060459+00:00 $IIMDA,29.9,I,1.013,B,14.3,C,,C,79.6,,,C,,T,,M,,N,,M*25
20220705 060459+00:00 $HCHDT,314,T*31
20220705 060459+00:00 $GPRMC,060454,A,4853.7498,N,12303.5598,W,6.49,313,050722,11.7,E,A,V*6B
20220705 060459+00:00 $WIMWV,358.69,R,6.4,N,A*10
20220705 060501+00:00 $IIMDA,29.9,I,1.013,B,14.3,C,,C,79.6,,,C,,T,,M,,N,,M*25
20220705 060501+00:00 $HCHDT,314,T*31
20220705 060501+00:00 $GPRMC,060456,A,4853.7498,N,12303.5700,W,6.49,313,050722,11.7,E,A,V*6A
20220705 060501+00:00 $WIMWV,351.29,R,5.6,N,A*1C
20220705 060503+00:00 $IIMDA,29.9,I,1.013,B,14.3,C,,C,79.6,,,C,,T,,M,,N,,M*25
20220705 060503+00:00 $HCHDT,313.9,T*21
20220705 060503+00:00 $GPRMC,060458,A,4853.7498,N,12303.5700,W,6.49,313,050722,11.7,E,A,V*64
20220705 060503+00:00 $WIMWV,359.39,R,5.99,N,A*23
20220705 060505+00:00 $IIMDA,29.9,I,1.013,B,14.3,C,,C,79.5,,,C,,T,,M,,N,,M*26
20220705 060505+00:00 $HCHDT,313.9,T*21
20220705 060505+00:00 $GPRMC,060500,A,4853.7600,N,12303.5700,W,6.49,313,050722,11.7,E,A,V*6B
20220705 060505+00:00 $WIMWV,24.49,R,5.09,N,A*14
20220705 060507+00:00 $IIMDA,29.9,I,1.013,B,14.3,C,,C,79.5,,,C,,T,,M,,N,,M*26
20220705 060507+00:00 $HCHDT,313.8,T*20
20220705 060507+00:00 $GPRMC,060502,A,4853.7600,N,12303.5796,W,6.49,313,050722,11.7,E,A,V*66
20220705 060507+00:00 $WIMWV,356.19,R,6.4,N,A*19
20220705 060509+00:00 $IIMDA,29.9,I,1.013,B,14.3,C,,C,79.5,,,C,,T,,M,,N,,M*26
20220705 060509+00:00 $HCHDT,313.8,T*20
20220705 060509+00:00 $GPRMC,060504,A,4853.7600,N,12303.5796,W,6.49,313,050722,11.7,E,A,V*60
20220705 060509+00:00 $WIMWV,344.59,R,2.8,N,A*16
20220705 060511+00:00 $IIMDA,29.9,I,1.013,B,14.3,C,,C,79.5,,,C,,T,,M,,N,,M*26
20220705 060511+00:00 $HCHDT,313.8,T*20
20220705 060511+00:00 $GPRMC,060506,A,4853.7600,N,12303.5898,W,6.49,313,050722,11.7,E,A,V*63
20220705 060511+00:00 $WIMWV,356.49,R,7.1,N,A*18
20220705 060513+00:00 $IIMDA,29.9,I,1.013,B,14.3,C,,C,79.5,,,C,,T,,M,,N,,M*26
20220705 060513+00:00 $HCHDT,313.8,T*20
20220705 060513+00:00 $GPRMC,060508,A,4853.7696,N,12303.5898,W,6.49,313,050722,11.7,E,A,V*62
20220705 060513+00:00 $WIMWV,13.6,R,5.48,N,A*2E
20220705 060515+00:00 $IIMDA,29.9,I,1.013,B,14.3,C,,C,79.5,,,C,,T,,M,,N,,M*26
20220705 060515+00:00 $HCHDT,313.9,T*21
20220705 060515+00:00 $GPRMC,060510,A,4853.7696,N,12303.5898,W,6.49,313,050722,11.7,E,A,V*6B
20220705 060515+00:00 $WIMWV,358.09,R,7.48,N,A*2F
20220705 060517+00:00 $IIMDA,29.9,I,1.013,B,14.3,C,,C,79.5,,,C,,T,,M,,N,,M*26
20220705 060517+00:00 $HCHDT,314.1,T*2E
20220705 060517+00:00 $GPRMC,060512,A,4853.7696,N,12303.6000,W,6.49,313,050722,11.7,E,A,V*63
20220705 060517+00:00 $WIMWV,359.49,R,7.58,N,A*2B
20220705 060519+00:00 $IIMDA,29.9,I,1.013,B,14.3,C,,C,79.5,,,C,,T,,M,,N,,M*26
20220705 060519+00:00 $HCHDT,314.1,T*2E
20220705 060519+00:00 $GPRMC,060514,A,4853.7696,N,12303.6000,W,6.49,313,050722,11.7,E,A,V*65
20220705 060519+00:00 $WIMWV,358.09,R,7.19,N,A*2B
20220705 060521+00:00 $IIMDA,29.9,I,1.013,B,14.3,C,,C,79.4,,,C,,T,,M,,N,,M*27
20220705 060521+00:00 $HCHDT,314.3,T*2C
20220705 060521+00:00 $GPRMC,060516,A,4853.7798,N,12303.6096,W,6.49,313,050722,11.7,E,A,V*67
20220705 060521+00:00 $WIMWV,8.7,R,6.69,N,A*15
20220705 060523+00:00 $IIMDA,29.9,I,1.013,B,14.3,C,,C,79.4,,,C,,T,,M,,N,,M*27
20220705 060523+00:00 $HCHDT,314.3,T*2C
20220705 060523+00:00 $GPRMC,060518,A,4853.7798,N,12303.6096,W,6.49,313,050722,11.7,E,A,V*69
20220705 060523+00:00 $WIMWV,359.49,R,8.18,N,A*20
20220705 060525+00:00 $IIMDA,29.9,I,1.013,B,14.3,C,,C,79.3,,,C,,T,,M,,N,,M*20
20220705 060525+00:00 $HCHDT,314.5,T*2A
20220705 060525+00:00 $GPRMC,060520,A,4853.7798,N,12303.6096,W,6.49,313,050722,11.7,E,A,V*62
20220705 060525+00:00 $WIMWV,1.4,R,6.69,N,A*1F
20220705 060527+00:00 $IIMDA,29.9,I,1.013,B,14.3,C,,C,79.3,,,C,,T,,M,,N,,M*20
20220705 060527+00:00 $HCHDT,314.5,T*2A
20220705 060527+00:00 $GPRMC,060522,A,4853.7798,N,12303.6198,W,6.49,313,050722,11.7,E,A,V*6F
20220705 060527+00:00 $WIMWV,353.59,R,7.29,N,A*26
20220705 060529+00:00 $IIMDA,29.9,I,1.013,B,14.3,C,,C,79.3,,,C,,T,,M,,N,,M*20
20220705 060529+00:00 $HCHDT,314.6,T*29
20220705 060529+00:00 $GPRMC,060524,A,4853.7900,N,12303.6198,W,6.49,313,050722,11.7,E,A,V*66
20220705 060529+00:00 $WIMWV,2.4,R,6.49,N,A*1E
20220705 060531+00:00 $IIMDA,29.9,I,1.013,B,14.3,C,,C,79.2,,,C,,T,,M,,N,,M*21
20220705 060531+00:00 $HCHDT,314.5,T*2A
20220705 060531+00:00 $GPRMC,060526,A,4853.7900,N,12303.6300,W,6.49,313,050722,11.7,E,A,V*67
20220705 060531+00:00 $WIMWV,356.09,R,6.3,N,A*1F
20220705 060533+00:00 $IIMDA,29.9,I,1.013,B,14.3,C,,C,79.2,,,C,,T,,M,,N,,M*21
20220705 060533+00:00 $HCHDT,314.5,T*2A
20220705 060533+00:00 $GPRMC,060528,A,4853.7900,N,12303.6300,W,6.49,313,050722,11.7,E,A,V*69
20220705 060533+00:00 $WIMWV,3.9,R,5.09,N,A*15
20220705 060535+00:00 $IIMDA,29.9,I,1.013,B,14.3,C,,C,79.2,,,C,,T,,M,,N,,M*21
20220705 060535+00:00 $HCHDT,314.4,T*2B
20220705 060535+00:00 $GPRMC,060530,A,4853.7900,N,12303.6300,W,6.49,313,050722,11.7,E,A,V*60
20220705 060535+00:00 $WIMWV,354.09,R,7.58,N,A*22
20220705 060537+00:00 $IIMDA,29.9,I,1.013,B,14.4,C,,C,79.2,,,C,,T,,M,,N,,M*26
20220705 060537+00:00 $HCHDT,314.4,T*2B
20220705 060537+00:00 $GPRMC,060532,A,4853.7996,N,12303.6396,W,6.49,313,050722,11.7,E,A,V*62
20220705 060537+00:00 $WIMWV,2.3,R,4.78,N,A*19
20220705 060539+00:00 $IIMDA,29.9,I,1.013,B,14.4,C,,C,79.2,,,C,,T,,M,,N,,M*26
20220705 060539+00:00 $HCHDT,314.3,T*2C
20220705 060539+00:00 $GPRMC,060534,A,4853.7996,N,12303.6396,W,6.49,313,050722,11.7,E,A,V*64
20220705 060539+00:00 $WIMWV,329.69,R,5.79,N,A*2F
20220705 060541+00:00 $IIMDA,29.9,I,1.013,B,14.4,C,,C,79.2,,,C,,T,,M,,N,,M*26
20220705 060541+00:00 $HCHDT,314.3,T*2C
20220705 060541+00:00 $GPRMC,060536,A,4853.7996,N,12303.6396,W,6.49,313,050722,11.7,E,A,V*66
20220705 060541+00:00 $WIMWV,3.8,R,2.39,N,A*10
20220705 060543+00:00 $IIMDA,29.9,I,1.013,B,14.4,C,,C,79.1,,,C,,T,,M,,N,,M*25
20220705 060543+00:00 $HCHDT,314.3,T*2C
20220705 060543+00:00 $GPRMC,060538,A,4853.7996,N,12303.6498,W,6.49,313,050722,11.7,E,A,V*61
20220705 060543+00:00 $WIMWV,355.99,R,8.28,N,A*22
20220705 060545+00:00 $IIMDA,29.9,I,1.013,B,14.4,C,,C,79.1,,,C,,T,,M,,N,,M*25
20220705 060545+00:00 $HCHDT,314.2,T*2D
20220705 060545+00:00 $GPRMC,060540,A,4853.8098,N,12303.6498,W,6.49,313,050722,11.7,E,A,V*66
20220705 060545+00:00 $WIMWV,1,R,6.69,N,A*05
20220705 060547+00:00 $IIMDA,29.9,I,1.013,B,14.4,C,,C,79.1,,,C,,T,,M,,N,,M*25
20220705 060547+00:00 $HCHDT,314.2,T*2D
20220705 060547+00:00 $GPRMC,060542,A,4853.8098,N,12303.6600,W,6.49,313,050722,11.7,E,A,V*67
20220705 060547+00:00 $WIMWV,358.79,R,6.4,N,A*11
20220705 060549+00:00 $IIMDA,29.9,I,1.013,B,14.4,C,,C,79.2,,,C,,T,,M,,N,,M*26
20220705 060549+00:00 $HCHDT,314.1,T*2E
20220705 060549+00:00 $GPRMC,060544,A,4853.8098,N,12303.6600,W,6.49,313,050722,11.7,E,A,V*61
20220705 060549+00:00 $WIMWV,342.59,R,5.79,N,A*21
20220705 060551+00:00 $IIMDA,29.9,I,1.013,B,14.4,C,,C,79.2,,,C,,T,,M,,N,,M*26
20220705 060551+00:00 $HCHDT,314.1,T*2E
20220705 060551+00:00 $GPRMC,060546,A,4853.8098,N,12303.6696,W,6.49,313,050722,11.7,E,A,V*6C
20220705 060551+00:00 $WIMWV,346.19,R,5,N,A*01
20220705 060553+00:00 $IIMDA,29.9,I,1.013,B,14.4,C,,C,79.2,,,C,,T,,M,,N,,M*26
20220705 060553+00:00 $HCHDT,314.1,T*2E
20220705 060553+00:00 $GPRMC,060548,A,4853.8098,N,12303.6696,W,6.49,313,050722,11.7,E,A,V*62
20220705 060553+00:00 $WIMWV,357.49,R,5.29,N,A*21
20220705 060555+00:00 $IIMDA,29.9,I,1.013,B,14.4,C,,C,79.2,,,C,,T,,M,,N,,M*26
20220705 060555+00:00 $HCHDT,314.2,T*2D
20220705 060555+00:00 $GPRMC,060550,A,4853.8200,N,12303.6696,W,6.49,313,050722,11.7,E,A,V*68
20220705 060555+00:00 $WIMWV,11.1,R,2.68,N,A*2E
20220705 060557+00:00 $IIMDA,29.9,I,1.013,B,14.4,C,,C,79.2,,,C,,T,,M,,N,,M*26
20220705 060557+00:00 $HCHDT,314.1,T*2E
20220705 060557+00:00 $GPRMC,060552,A,4853.8200,N,12303.6798,W,6.49,313,050722,11.7,E,A,V*65
20220705 060557+00:00 $WIMWV,330.39,R,5.38,N,A*27
20220705 060559+00:00 $IIMDA,29.9,I,1.013,B,14.4,C,,C,79.2,,,C,,T,,M,,N,,M*26
20220705 060559+00:00 $HCHDT,314.2,T*2D
20220705 060559+00:00 $GPRMC,060554,A,4853.8200,N,12303.6798,W,6.49,313,050722,11.7,E,A,V*63
20220705 060559+00:00 $WIMWV,71.1,R,1.4,N,A*11
20220705 060601+00:00 $IIMDA,29.9,I,1.013,B,14.4,C,,C,79.1,,,C,,T,,M,,N,,M*25
20220705 060601+00:00 $HCHDT,314.2,T*2D
20220705 060601+00:00 $GPRMC,060556,A,4853.8200,N,12303.6900,W,6.49,313,050722,11.7,E,A,V*6E
20220705 060601+00:00 $WIMWV,352.19,R,4.9,N,A*12
20220705 060603+00:00 $IIMDA,29.9,I,1.013,B,14.4,C,,C,79.1,,,C,,T,,M,,N,,M*25
20220705 060603+00:00 $HCHDT,314.1,T*2E
20220705 060603+00:00 $GPRMC,060558,A,4853.8296,N,12303.6900,W,6.49,313,050722,11.7,E,A,V*6F
20220705 060603+00:00 $WIMWV,347.99,R,3.89,N,A*21
20220705 060605+00:00 $IIMDA,29.9,I,1.013,B,14.4,C,,C,79.1,,,C,,T,,M,,N,,M*25
20220705 060605+00:00 $HCHDT,314.1,T*2E
20220705 060605+00:00 $GPRMC,060600,A,4853.8296,N,12303.6900,W,6.49,313,050722,11.7,E,A,V*61
20220705 060605+00:00 $WIMWV,16.9,R,5.38,N,A*23
20220705 060607+00:00 $IIMDA,29.9,I,1.013,B,14.4,C,,C,79.1,,,C,,T,,M,,N,,M*25
20220705 060607+00:00 $HCHDT,314,T*31
20220705 060607+00:00 $GPRMC,060602,A,4853.8296,N,12303.6996,W,6.49,313,050722,11.7,E,A,V*6C
20220705 060607+00:00 $WIMWV,17.8,R,2.99,N,A*2F
20220705 060609+00:00 $IIMDA,29.9,I,1.013,B,14.4,C,,C,79.1,,,C,,T,,M,,N,,M*25
20220705 060609+00:00 $HCHDT,314,T*31
20220705 060609+00:00 $GPRMC,060604,A,4853.8296,N,12303.6996,W,6.49,313,050722,11.7,E,A,V*6A
20220705 060609+00:00 $WIMWV,304.39,R,0.29,N,A*25
20220705 060611+00:00 $IIMDA,29.9,I,1.013,B,14.4,C,,C,79.1,,,C,,T,,M,,N,,M*25
20220705 060611+00:00 $HCHDT,313.8,T*20
20220705 060611+00:00 $GPRMC,060606,A,4853.8398,N,12303.7098,W,6.49,313,050722,11.7,E,A,V*61
20220705 060611+00:00 $WIMWV,11.4,R,3.89,N,A*25
20220705 060613+00:00 $IIMDA,29.9,I,1.013,B,14.4,C,,C,79.1,,,C,,T,,M,,N,,M*25
20220705 060613+00:00 $HCHDT,313.8,T*20
20220705 060613+00:00 $GPRMC,060608,A,4853.8398,N,12303.7098,W,6.49,313,050722,11.7,E,A,V*6F
20220705 060613+00:00 $WIMWV,357.69,R,4.59,N,A*25
20220705 060615+00:00 $IIMDA,29.9,I,1.013,B,14.4,C,,C,79.1,,,C,,T,,M,,N,,M*25
20220705 060615+00:00 $HCHDT,313.7,T*2F
20220705 060615+00:00 $GPRMC,060610,A,4853.8398,N,12303.7098,W,6.49,313,050722,11.7,E,A,V*66
20220705 060615+00:00 $WIMWV,358.39,R,5.48,N,A*2E
20220705 060617+00:00 $IIMDA,29.9,I,1.013,B,14.4,C,,C,79,,,C,,T,,M,,N,,M*3A
20220705 060617+00:00 $HCHDT,313.6,T*2E
20220705 060617+00:00 $GPRMC,060612,A,4853.8398,N,12303.7200,W,6.49,313,050722,11.7,E,A,V*67
20220705 060617+00:00 $WIMWV,336.29,R,1.5,N,A*1A
20220705 060619+00:00 $IIMDA,29.9,I,1.013,B,14.4,C,,C,79.1,,,C,,T,,M,,N,,M*25
20220705 060619+00:00 $HCHDT,313.6,T*2E
20220705 060619+00:00 $GPRMC,060614,A,4853.8500,N,12303.7200,W,6.49,313,050722,11.7,E,A,V*66
20220705 060619+00:00 $WIMWV,349.59,R,5.38,N,A*2F
20220705 060621+00:00 $IIMDA,29.9,I,1.013,B,14.4,C,,C,79.1,,,C,,T,,M,,N,,M*25
20220705 060621+00:00 $HCHDT,313.8,T*20
20220705 060621+00:00 $GPRMC,060616,A,4853.8500,N,12303.7200,W,6.49,313,050722,11.7,E,A,V*64
20220705 060621+00:00 $WIMWV,36.39,R,3.79,N,A*11
20220705 060623+00:00 $IIMDA,29.9,I,1.013,B,14.4,C,,C,79,,,C,,T,,M,,N,,M*3A
20220705 060623+00:00 $HCHDT,314,T*31
20220705 060623+00:00 $GPRMC,060618,A,4853.8500,N,12303.7296,W,6.49,313,050722,11.7,E,A,V*65
20220705 060623+00:00 $WIMWV,352.29,R,7.79,N,A*25
20220705 060625+00:00 $IIMDA,29.9,I,1.013,B,14.4,C,,C,79.1,,,C,,T,,M,,N,,M*25
20220705 060625+00:00 $HCHDT,314.2,T*2D
20220705 060625+00:00 $GPRMC,060620,A,4853.8500,N,12303.7296,W,6.49,313,050722,11.7,E,A,V*6E
20220705 060625+00:00 $WIMWV,8,R,5.79,N,A*0E
20220705 060627+00:00 $IIMDA,29.9,I,1.013,B,14.4,C,,C,79.1,,,C,,T,,M,,N,,M*25
20220705 060627+00:00 $HCHDT,314.4,T*2B
20220705 060627+00:00 $GPRMC,060622,A,4853.8596,N,12303.7398,W,6.49,313,050722,11.7,E,A,V*6C
20220705 060627+00:00 $WIMWV,351.09,R,5.48,N,A*24
20220705 060629+00:00 $IIMDA,29.9,I,1.013,B,14.4,C,,C,79.1,,,C,,T,,M,,N,,M*25
20220705 060629+00:00 $HCHDT,314.6,T*29
20220705 060629+00:00 $GPRMC,060624,A,4853.8596,N,12303.7398,W,6.49,313,050722,11.7,E,A,V*6A
20220705 060629+00:00 $WIMWV,1.8,R,5.38,N,A*14
20220705 060631+00:00 $IIMDA,29.9,I,1.013,B,14.4,C,,C,79.1,,,C,,T,,M,,N,,M*25
20220705 060631+00:00 $HCHDT,314.8,T*27
20220705 060631+00:00 $GPRMC,060626,A,4853.8596,N,12303.7398,W,6.49,313,050722,11.7,E,A,V*68
20220705 060631+00:00 $WIMWV,0.19,R,6.88,N,A*2D
20220705 060633+00:00 $IIMDA,29.9,I,1.013,B,14.4,C,,C,79.1,,,C,,T,,M,,N,,M*25
20220705 060633+00:00 $HCHDT,315,T*30
20220705 060633+00:00 $GPRMC,060628,A,4853.8596,N,12303.7500,W,6.49,314,050722,11.7,E,A,V*66
20220705 060633+00:00 $WIMWV,4.5,R,4.08,N,A*1E
20220705 060635+00:00 $IIMDA,29.9,I,1.013,B,14.4,C,,C,79.1,,,C,,T,,M,,N,,M*25
20220705 060635+00:00 $HCHDT,315.1,T*2F
20220705 060635+00:00 $GPRMC,060630,A,4853.8698,N,12303.7500,W,6.49,314,050722,11.7,E,A,V*62
20220705 060635+00:00 $WIMWV,352.79,R,5.48,N,A*20
20220705 060637+00:00 $IIMDA,29.9,I,1.013,B,14.4,C,,C,79.1,,,C,,T,,M,,N,,M*25
20220705 060637+00:00 $HCHDT,315.3,T*2D
20220705 060637+00:00 $GPRMC,060632,A,4853.8698,N,12303.7596,W,6.4,314,050722,11.7,E,A,V*56
20220705 060637+00:00 $WIMWV,4.8,R,4.39,N,A*11
20220705 060639+00:00 $IIMDA,29.9,I,1.013,B,14.4,C,,C,79.1,,,C,,T,,M,,N,,M*25
20220705 060639+00:00 $HCHDT,315.4,T*2A
20220705 060639+00:00 $GPRMC,060634,A,4853.8698,N,12303.7596,W,6.4,314,050722,11.7,E,A,V*50
20220705 060639+00:00 $WIMWV,346.19,R,4.08,N,A*26
20220705 060641+00:00 $IIMDA,29.9,I,1.013,B,14.4,C,,C,79.1,,,C,,T,,M,,N,,M*25
20220705 060641+00:00 $HCHDT,315.6,T*28
20220705 060641+00:00 $GPRMC,060636,A,4853.8698,N,12303.7596,W,6.4,314,050722,11.7,E,A,V*52
20220705 060641+00:00 $WIMWV,338.59,R,6.18,N,A*28
20220705 060643+00:00 $IIMDA,29.9,I,1.013,B,14.4,C,,C,79.1,,,C,,T,,M,,N,,M*25
20220705 060643+00:00 $HCHDT,315.6,T*28
20220705 060643+00:00 $GPRMC,060638,A,4853.8800,N,12303.7698,W,6.49,315,050722,11.7,E,A,V*66
20220705 060643+00:00 $WIMWV,8.3,R,2.39,N,A*10
20220705 060645+00:00 $IIMDA,29.9,I,1.013,B,14.4,C,,C,79.1,,,C,,T,,M,,N,,M*25
20220705 060645+00:00 $HCHDT,315.7,T*29
20220705 060645+00:00 $GPRMC,060640,A,4853.8800,N,12303.7698,W,6.49,315,050722,11.7,E,A,V*69
20220705 060645+00:00 $WIMWV,7.1,R,3.38,N,A*1D
20220705 060647+00:00 $IIMDA,29.9,I,1.013,B,14.4,C,,C,79.1,,,C,,T,,M,,N,,M*25
20220705 060647+00:00 $HCHDT,315.7,T*29
20220705 060647+00:00 $GPRMC,060642,A,4853.8800,N,12303.7800,W,6.49,315,050722,11.7,E,A,V*64
20220705 060647+00:00 $WIMWV,349.99,R,4.08,N,A*21
20220705 060649+00:00 $IIMDA,29.9,I,1.013,B,14.4,C,,C,79.1,,,C,,T,,M,,N,,M*25
20220705 060649+00:00 $HCHDT,315.7,T*29
20220705 060649+00:00 $GPRMC,060644,A,4853.8800,N,12303.7800,W,6.49,315,050722,11.7,E,A,V*62
20220705 060649+00:00 $WIMWV,0.19,R,4.9,N,A*16
20220705 060651+00:00 $IIMDA,29.9,I,1.013,B,14.4,C,,C,79.1,,,C,,T,,M,,N,,M*25
20220705 060651+00:00 $HCHDT,315.5,T*2B
20220705 060651+00:00 $GPRMC,060646,A,4853.8896,N,12303.7800,W,6.49,315,050722,11.7,E,A,V*6F
20220705 060651+00:00 $WIMWV,1.7,R,5,N,A*3E
20220705 060653+00:00 $IIMDA,29.9,I,1.013,B,14.4,C,,C,79,,,C,,T,,M,,N,,M*3A
20220705 060653+00:00 $HCHDT,315.4,T*2A
20220705 060653+00:00 $GPRMC,060648,A,4853.8896,N,12303.7896,W,6.49,315,050722,11.7,E,A,V*6E
20220705 060653+00:00 $WIMWV,2.6,R,5,N,A*3C
20220705 060655+00:00 $IIMDA,29.9,I,1.013,B,14.4,C,,C,79,,,C,,T,,M,,N,,M*3A
20220705 060655+00:00 $HCHDT,315.1,T*2F
20220705 060655+00:00 $GPRMC,060650,A,4853.8896,N,12303.7896,W,6.49,315,050722,11.7,E,A,V*67
20220705 060655+00:00 $WIMWV,80.7,R,3.38,N,A*24
20220705 060657+00:00 $IIMDA,29.9,I,1.013,B,14.4,C,,C,79,,,C,,T,,M,,N,,M*3A
20220705 060657+00:00 $HCHDT,315,T*30
20220705 060657+00:00 $GPRMC,060652,A,4853.8896,N,12303.7998,W,6.49,315,050722,11.7,E,A,V*6A
20220705 060657+00:00 $WIMWV,327.79,R,1.69,N,A*25
20220705 060659+00:00 $IIMDA,29.9,I,1.013,B,14.4,C,,C,79,,,C,,T,,M,,N,,M*3A
20220705 060659+00:00 $HCHDT,314.8,T*27
20220705 060659+00:00 $GPRMC,060654,A,4853.8998,N,12303.7998,W,6.49,315,050722,11.7,E,A,V*63
20220705 060659+00:00 $WIMWV,340.69,R,2.68,N,A*27
20220705 060701+00:00 $IIMDA,29.9,I,1.013,B,14.4,C,,C,79,,,C,,T,,M,,N,,M*3A
20220705 060701+00:00 $HCHDT,314.8,T*27
20220705 060701+00:00 $GPRMC,060656,A,4853.8998,N,12303.7998,W,6.49,315,050722,11.7,E,A,V*61
20220705 060701+00:00 $WIMWV,6.8,R,4.68,N,A*17
20220705 060703+00:00 $IIMDA,29.9,I,1.013,B,14.4,C,,C,79,,,C,,T,,M,,N,,M*3A
20220705 060703+00:00 $HCHDT,314.6,T*29
20220705 060703+00:00 $GPRMC,060658,A,4853.8998,N,12303.8100,W,6.49,314,050722,11.7,E,A,V*68
20220705 060703+00:00 $WIMWV,350.89,R,6.69,N,A*2D
20220705 060705+00:00 $IIMDA,29.9,I,1.013,B,14.4,C,,C,79,,,C,,T,,M,,N,,M*3A
20220705 060705+00:00 $HCHDT,314.7,T*28
20220705 060705+00:00 $GPRMC,060700,A,4853.8998,N,12303.8100,W,6.49,314,050722,11.7,E,A,V*64
20220705 060705+00:00 $WIMWV,9.8,R,3.38,N,A*1A
20220705 060707+00:00 $IIMDA,29.9,I,1.013,B,14.4,C,,C,78.9,,,C,,T,,M,,N,,M*2C
20220705 060707+00:00 $HCHDT,314.6,T*29
20220705 060707+00:00 $GPRMC,060702,A,4853.9100,N,12303.8100,W,6.49,314,050722,11.7,E,A,V*6E
20220705 060707+00:00 $WIMWV,355.09,R,6.78,N,A*20
20220705 060709+00:00 $IIMDA,29.9,I,1.013,B,14.4,C,,C,78.9,,,C,,T,,M,,N,,M*2C
20220705 060709+00:00 $HCHDT,314.6,T*29
20220705 060709+00:00 $GPRMC,060704,A,4853.9100,N,12303.8196,W,6.4,314,050722,11.7,E,A,V*5E
20220705 060709+00:00 $WIMWV,14.6,R,4.49,N,A*29
20220705 060711+00:00 $IIMDA,29.9,I,1.013,B,14.4,C,,C,78.8,,,C,,T,,M,,N,,M*2D
20220705 060711+00:00 $HCHDT,314.6,T*29
20220705 060711+00:00 $GPRMC,060706,A,4853.9100,N,12303.8196,W,6.4,314,050722,11.7,E,A,V*5C
20220705 060711+00:00 $WIMWV,1.8,R,6.18,N,A*15
20220705 060713+00:00 $IIMDA,29.9,I,1.013,B,14.4,C,,C,78.8,,,C,,T,,M,,N,,M*2D
20220705 060713+00:00 $HCHDT,314.7,T*28
20220705 060713+00:00 $GPRMC,060708,A,4853.9100,N,12303.8298,W,6.4,314,050722,11.7,E,A,V*5F
20220705 060713+00:00 $WIMWV,18.29,R,1.98,N,A*11
20220705 060715+00:00 $IIMDA,29.9,I,1.013,B,14.4,C,,C,78.8,,,C,,T,,M,,N,,M*2D
20220705 060715+00:00 $HCHDT,314.7,T*28
20220705 060715+00:00 $GPRMC,060710,A,4853.9196,N,12303.8298,W,6.4,314,050722,11.7,E,A,V*59
20220705 060715+00:00 $WIMWV,357.19,R,5.29,N,A*24
20220705 060717+00:00 $IIMDA,29.9,I,1.013,B,14.4,C,,C,78.8,,,C,,T,,M,,N,,M*2D
20220705 060717+00:00 $HCHDT,314.8,T*27
20220705 060717+00:00 $GPRMC,060712,A,4853.9196,N,12303.8298,W,6.4,314,050722,11.7,E,A,V*5B
20220705 060717+00:00 $WIMWV,28.7,R,5.7,N,A*1C
20220705 060719+00:00 $IIMDA,29.9,I,1.013,B,14.4,C,,C,78.8,,,C,,T,,M,,N,,M*2D
20220705 060719+00:00 $HCHDT,314.8,T*27
20220705 060719+00:00 $GPRMC,060714,A,4853.9196,N,12303.8400,W,6.4,314,050722,11.7,E,A,V*5A
20220705 060719+00:00 $WIMWV,349.89,R,4.9,N,A*11
20220705 060721+00:00 $IIMDA,29.9,I,1.013,B,14.4,C,,C,78.7,,,C,,T,,M,,N,,M*22
20220705 060721+00:00 $HCHDT,314.8,T*27
20220705 060721+00:00 $GPRMC,060716,A,4853.9196,N,12303.8400,W,6.4,314,050722,11.7,E,A,V*58
20220705 060721+00:00 $WIMWV,346.69,R,1.59,N,A*20
20220705 060723+00:00 $IIMDA,29.9,I,1.013,B,14.4,C,,C,78.7,,,C,,T,,M,,N,,M*22
20220705 060723+00:00 $HCHDT,314.9,T*26
20220705 060723+00:00 $GPRMC,060718,A,4853.9298,N,12303.8496,W,6.4,314,050722,11.7,E,A,V*54
20220705 060723+00:00 $WIMWV,354.19,R,6.18,N,A*26
20220705 060725+00:00 $IIMDA,29.9,I,1.013,B,14.4,C,,C,78.7,,,C,,T,,M,,N,,M*22
20220705 060725+00:00 $HCHDT,314.9,T*26
20220705 060725+00:00 $GPRMC,060720,A,4853.9298,N,12303.8496,W,6.4,314,050722,11.7,E,A,V*5F
20220705 060725+00:00 $WIMWV,354.09,R,4.08,N,A*24
20220705 060727+00:00 $IIMDA,29.9,I,1.013,B,14.4,C,,C,78.7,,,C,,T,,M,,N,,M*22
20220705 060727+00:00 $HCHDT,314.9,T*26
20220705 060727+00:00 $GPRMC,060722,A,4853.9298,N,12303.8496,W,6.4,314,050722,11.7,E,A,V*5D
20220705 060727+00:00 $WIMWV,353.79,R,6.18,N,A*27
20220705 060729+00:00 $IIMDA,29.9,I,1.013,B,14.4,C,,C,78.7,,,C,,T,,M,,N,,M*22
20220705 060729+00:00 $HCHDT,315,T*30
20220705 060729+00:00 $GPRMC,060724,A,4853.9298,N,12303.8598,W,6.4,314,050722,11.7,E,A,V*54
20220705 060729+00:00 $WIMWV,31.4,R,3.29,N,A*2D
20220705 060731+00:00 $IIMDA,29.9,I,1.013,B,14.4,C,,C,78.7,,,C,,T,,M,,N,,M*22
20220705 060731+00:00 $HCHDT,315.1,T*2F
20220705 060731+00:00 $GPRMC,060726,A,4853.9400,N,12303.8598,W,6.4,315,050722,11.7,E,A,V*50
20220705 060731+00:00 $WIMWV,346.99,R,5.48,N,A*2B
20220705 060733+00:00 $IIMDA,29.9,I,1.013,B,14.4,C,,C,78.7,,,C,,T,,M,,N,,M*22
20220705 060733+00:00 $HCHDT,315.2,T*2C
20220705 060733+00:00 $GPRMC,060728,A,4853.9400,N,12303.8598,W,6.4,315,050722,11.7,E,A,V*5E
20220705 060733+00:00 $WIMWV,336.89,R,3.79,N,A*29
20220705 060735+00:00 $IIMDA,29.9,I,1.013,B,14.4,C,,C,78.7,,,C,,T,,M,,N,,M*22
20220705 060735+00:00 $HCHDT,315.2,T*2C
20220705 060735+00:00 $GPRMC,060730,A,4853.9400,N,12303.8700,W,6.4,315,050722,11.7,E,A,V*54
20220705 060735+00:00 $WIMWV,334.89,R,4.9,N,A*1B
20220705 060737+00:00 $IIMDA,29.9,I,1.013,B,14.4,C,,C,78.7,,,C,,T,,M,,N,,M*22
20220705 060737+00:00 $HCHDT,315.2,T*2C
20220705 060737+00:00 $GPRMC,060732,A,4853.9400,N,12303.8700,W,6.4,315,050722,11.7,E,A,V*56
20220705 060737+00:00 $WIMWV,344.39,R,2.2,N,A*1A
20220705 060739+00:00 $IIMDA,29.9,I,1.013,B,14.4,C,,C,78.6,,,C,,T,,M,,N,,M*23
20220705 060739+00:00 $HCHDT,315.2,T*2C
20220705 060739+00:00 $GPRMC,060734,A,4853.9496,N,12303.8796,W,6.4,315,050722,11.7,E,A,V*50
20220705 060739+00:00 $WIMWV,347.19,R,5,N,A*00
20220705 060741+00:00 $IIMDA,29.9,I,1.013,B,14.4,C,,C,78.6,,,C,,T,,M,,N,,M*23
20220705 060741+00:00 $HCHDT,315.2,T*2C
20220705 060741+00:00 $GPRMC,060736,A,4853.9496,N,12303.8796,W,6.4,315,050722,11.7,E,A,V*52
20220705 060741+00:00 $WIMWV,28.6,R,1.79,N,A*20
20220705 060743+00:00 $IIMDA,29.9,I,1.013,B,14.4,C,,C,78.6,,,C,,T,,M,,N,,M*23
20220705 060743+00:00 $HCHDT,315.1,T*2F
20220705 060743+00:00 $GPRMC,060738,A,4853.9496,N,12303.8796,W,6.4,315,050722,11.7,E,A,V*5C
20220705 060743+00:00 $WIMWV,2.4,R,5.99,N,A*10
