20220705 130001+00:00 $IIMDA,29.9,I,1.013,B,13.3,C,,C,89.4,,,C,,T,,M,,N,,M*2F
20220705 130001+00:00 $GPRMC,125956,A,4926.0496,N,12327.3696,W,0.99,338,050722,11.8,E,A,V*6E
20220705 130001+00:00 $HCHDT,343.7,T*2A
20220705 130001+00:00 $WIMWV,310.39,R,5.38,N,A*25
20220705 130003+00:00 $IIMDA,29.9,I,1.013,B,13.3,C,,C,89.4,,,C,,T,,M,,N,,M*2F
20220705 130003+00:00 $GPRMC,125958,A,4926.0496,N,12327.3696,W,0.99,338,050722,11.8,E,A,V*60
20220705 130003+00:00 $HCHDT,343.7,T*2A
20220705 130003+00:00 $WIMWV,311.19,R,4.78,N,A*23
20220705 130005+00:00 $IIMDA,29.9,I,1.013,B,13.3,C,,C,89.3,,,C,,T,,M,,N,,M*28
20220705 130005+00:00 $GPRMC,130000,A,4926.0496,N,12327.3696,W,0.99,338,050722,11.8,E,A,V*60
20220705 130005+00:00 $HCHDT,343.7,T*2A
20220705 130005+00:00 $WIMWV,311.69,R,4.9,N,A*12
20220705 130007+00:00 $IIMDA,29.9,I,1.013,B,13.3,C,,C,89.3,,,C,,T,,M,,N,,M*28
20220705 130007+00:00 $GPRMC,130002,A,4926.0496,N,12327.3696,W,0.99,338,050722,11.8,E,A,V*62
20220705 130007+00:00 $HCHDT,343.6,T*2B
20220705 130007+00:00 $WIMWV,312.09,R,5.19,N,A*27
20220705 130009+00:00 $IIMDA,29.9,I,1.013,B,13.3,C,,C,89.3,,,C,,T,,M,,N,,M*28
20220705 130009+00:00 $GPRMC,130004,A,4926.0496,N,12327.3696,W,0.99,338,050722,11.8,E,A,V*64
20220705 130009+00:00 $HCHDT,343.6,T*2B
20220705 130009+00:00 $WIMWV,312.09,R,5.29,N,A*24
20220705 130011+00:00 $IIMDA,29.9,I,1.013,B,13.3,C,,C,89.3,,,C,,T,,M,,N,,M*28
20220705 130011+00:00 $GPRMC,130006,A,4926.0496,N,12327.3696,W,0.99,338,050722,11.8,E,A,V*66
20220705 130011+00:00 $HCHDT,343.6,T*2B
20220705 130011+00:00 $WIMWV,310.49,R,5.29,N,A*22
20220705 130013+00:00 $IIMDA,29.9,I,1.013,B,13.3,C,,C,89.3,,,C,,T,,M,,N,,M*28
20220705 130013+00:00 $GPRMC,130008,A,4926.0496,N,12327.3696,W,0.99,338,050722,11.8,E,A,V*68
20220705 130013+00:00 $HCHDT,343.7,T*2A
20220705 130013+00:00 $WIMWV,312.39,R,5.48,N,A*20
20220705 130015+00:00 $IIMDA,29.9,I,1.013,B,13.3,C,,C,89.3,,,C,,T,,M,,N,,M*28
20220705 130015+00:00 $GPRMC,130010,A,4926.0496,N,12327.3696,W,0.99,337,050722,11.8,E,A,V*6E
20220705 130015+00:00 $HCHDT,343.7,T*2A
20220705 130015+00:00 $WIMWV,312.19,R,5.19,N,A*26
20220705 130017+00:00 $IIMDA,29.9,I,1.013,B,13.3,C,,C,89.3,,,C,,T,,M,,N,,M*28
20220705 130017+00:00 $GPRMC,130012,A,4926.0496,N,12327.3696,W,0.99,337,050722,11.8,E,A,V*6C
20220705 130017+00:00 $HCHDT,343.7,T*2A
20220705 130017+00:00 $WIMWV,313.89,R,5,N,A*08
20220705 130019+00:00 $IIMDA,29.9,I,1.013,B,13.3,C,,C,89.3,,,C,,T,,M,,N,,M*28
20220705 130019+00:00 $GPRMC,130014,A,4926.0496,N,12327.3696,W,0.99,337,050722,11.8,E,A,V*6A
20220705 130019+00:00 $HCHDT,343.7,T*2A
20220705 130019+00:00 $WIMWV,310.99,R,5.09,N,A*2D
20220705 130021+00:00 $IIMDA,29.9,I,1.013,B,13.3,C,,C,89.3,,,C,,T,,M,,N,,M*28
20220705 130021+00:00 $GPRMC,130016,A,4926.0496,N,12327.3696,W,0.99,337,050722,11.8,E,A,V*68
20220705 130021+00:00 $HCHDT,343.8,T*25
20220705 130021+00:00 $WIMWV,310.49,R,5,N,A*07
20220705 130023+00:00 $IIMDA,29.9,I,1.013,B,13.3,C,,C,89.3,,,C,,T,,M,,N,,M*28
20220705 130023+00:00 $GPRMC,130018,A,4926.0496,N,12327.3696,W,0.99,337,050722,11.8,E,A,V*66
20220705 130023+00:00 $HCHDT,343.9,T*24
20220705 130023+00:00 $WIMWV,310.69,R,5.38,N,A*20
20220705 130025+00:00 $IIMDA,29.9,I,1.013,B,13.3,C,,C,89.3,,,C,,T,,M,,N,,M*28
20220705 130025+00:00 $GPRMC,130020,A,4926.0598,N,12327.3696,W,0.89,337,050722,11.8,E,A,V*63
20220705 130025+00:00 $HCHDT,344,T*34
20220705 130025+00:00 $WIMWV,312.99,R,5.09,N,A*2F
20220705 130027+00:00 $IIMDA,29.9,I,1.013,B,13.3,C,,C,89.3,,,C,,T,,M,,N,,M*28
20220705 130027+00:00 $GPRMC,130022,A,4926.0598,N,12327.3696,W,0.89,337,050722,11.8,E,A,V*61
20220705 130027+00:00 $HCHDT,344.1,T*2B
20220705 130027+00:00 $WIMWV,312.19,R,5.48,N,A*22
20220705 130029+00:00 $IIMDA,29.9,I,1.013,B,13.3,C,,C,89.3,,,C,,T,,M,,N,,M*28
20220705 130029+00:00 $GPRMC,130024,A,4926.0598,N,12327.3696,W,0.89,338,050722,11.8,E,A,V*68
20220705 130029+00:00 $HCHDT,344.2,T*28
20220705 130029+00:00 $WIMWV,313.19,R,5,N,A*01
20220705 130031+00:00 $IIMDA,29.9,I,1.013,B,13.3,C,,C,89.3,,,C,,T,,M,,N,,M*28
20220705 130031+00:00 $GPRMC,130026,A,4926.0598,N,12327.3696,W,0.89,338,050722,11.8,E,A,V*6A
20220705 130031+00:00 $HCHDT,344.3,T*29
20220705 130031+00:00 $WIMWV,309.79,R,5.19,N,A*2A
20220705 130033+00:00 $IIMDA,29.9,I,1.013,B,13.3,C,,C,89.3,,,C,,T,,M,,N,,M*28
20220705 130033+00:00 $GPRMC,130028,A,4926.0598,N,12327.3696,W,0.89,338,050722,11.8,E,A,V*64
20220705 130033+00:00 $HCHDT,344.5,T*2F
20220705 130033+00:00 $WIMWV,309.09,R,4.9,N,A*1D
20220705 130035+00:00 $IIMDA,29.9,I,1.013,B,13.3,C,,C,89.3,,,C,,T,,M,,N,,M*28
20220705 130035+00:00 $GPRMC,130030,A,4926.0598,N,12327.3696,W,0.89,338,050722,11.8,E,A,V*6D
20220705 130035+00:00 $HCHDT,344.6,T*2C
20220705 130035+00:00 $WIMWV,307.79,R,4.59,N,A*21
20220705 130037+00:00 $IIMDA,29.9,I,1.013,B,13.3,C,,C,89.3,,,C,,T,,M,,N,,M*28
20220705 130037+00:00 $GPRMC,130032,A,4926.0598,N,12327.3696,W,0.89,338,050722,11.8,E,A,V*6F
20220705 130037+00:00 $HCHDT,344.7,T*2D
20220705 130037+00:00 $WIMWV,308.69,R,5,N,A*0C
20220705 130039+00:00 $IIMDA,29.9,I,1.013,B,13.3,C,,C,89.3,,,C,,T,,M,,N,,M*28
20220705 130039+00:00 $GPRMC,130034,A,4926.0598,N,12327.3696,W,0.89,338,050722,11.8,E,A,V*69
20220705 130039+00:00 $HCHDT,344.7,T*2D
20220705 130039+00:00 $WIMWV,307.89,R,4.68,N,A*2C
20220705 130041+00:00 $IIMDA,29.9,I,1.013,B,13.3,C,,C,89.4,,,C,,T,,M,,N,,M*2F
20220705 130041+00:00 $GPRMC,130036,A,4926.0598,N,12327.3696,W,0.89,338,050722,11.8,E,A,V*6B
20220705 130041+00:00 $HCHDT,344.8,T*22
20220705 130041+00:00 $WIMWV,308.69,R,4.49,N,A*2E
20220705 130043+00:00 $IIMDA,29.9,I,1.013,B,13.3,C,,C,89.4,,,C,,T,,M,,N,,M*2F
20220705 130043+00:00 $GPRMC,130038,A,4926.0598,N,12327.3696,W,0.89,338,050722,11.8,E,A,V*65
20220705 130043+00:00 $HCHDT,344.8,T*22
20220705 130043+00:00 $WIMWV,308.09,R,4.3,N,A*16
20220705 130045+00:00 $IIMDA,29.9,I,1.013,B,13.3,C,,C,89.4,,,C,,T,,M,,N,,M*2F
20220705 130045+00:00 $GPRMC,130040,A,4926.0598,N,12327.3696,W,0.89,338,050722,11.8,E,A,V*6A
20220705 130045+00:00 $HCHDT,344.8,T*22
20220705 130045+00:00 $WIMWV,309.49,R,4.59,N,A*2C
20220705 130047+00:00 $IIMDA,29.9,I,1.013,B,13.3,C,,C,89.4,,,C,,T,,M,,N,,M*2F
20220705 130047+00:00 $GPRMC,130042,A,4926.0598,N,12327.3696,W,0.89,338,050722,11.8,E,A,V*68
20220705 130047+00:00 $HCHDT,344.8,T*22
20220705 130047+00:00 $WIMWV,308.39,R,4.59,N,A*2A
20220705 130049+00:00 $IIMDA,29.9,I,1.013,B,13.3,C,,C,89.4,,,C,,T,,M,,N,,M*2F
20220705 130049+00:00 $GPRMC,130044,A,4926.0598,N,12327.3696,W,0.89,339,050722,11.8,E,A,V*6F
20220705 130049+00:00 $HCHDT,344.8,T*22
20220705 130049+00:00 $WIMWV,309.99,R,4.9,N,A*14
20220705 130051+00:00 $IIMDA,29.9,I,1.013,B,13.3,C,,C,89.4,,,C,,T,,M,,N,,M*2F
20220705 130051+00:00 $GPRMC,130046,A,4926.0598,N,12327.3696,W,0.89,339,050722,11.8,E,A,V*6D
20220705 130051+00:00 $HCHDT,344.8,T*22
20220705 130051+00:00 $WIMWV,312.29,R,4.68,N,A*22
20220705 130053+00:00 $IIMDA,29.9,I,1.013,B,13.3,C,,C,89.4,,,C,,T,,M,,N,,M*2F
20220705 130053+00:00 $GPRMC,130048,A,4926.0598,N,12327.3696,W,0.89,339,050722,11.8,E,A,V*63
20220705 130053+00:00 $HCHDT,344.7,T*2D
20220705 130053+00:00 $WIMWV,309.29,R,4.59,N,A*2A
20220705 130055+00:00 $IIMDA,29.9,I,1.013,B,13.3,C,,C,89.4,,,C,,T,,M,,N,,M*2F
20220705 130055+00:00 $GPRMC,130050,A,4926.0598,N,12327.3798,W,0.89,339,050722,11.8,E,A,V*65
20220705 130055+00:00 $HCHDT,344.7,T*2D
20220705 130055+00:00 $WIMWV,309.99,R,4.59,N,A*21
20220705 130057+00:00 $IIMDA,29.9,I,1.013,B,13.3,C,,C,89.4,,,C,,T,,M,,N,,M*2F
20220705 130057+00:00 $GPRMC,130052,A,4926.0598,N,12327.3798,W,0.89,339,050722,11.8,E,A,V*67
20220705 130057+00:00 $HCHDT,344.7,T*2D
20220705 130057+00:00 $WIMWV,309.79,R,4.78,N,A*2C
20220705 130059+00:00 $IIMDA,29.9,I,1.013,B,13.3,C,,C,89.4,,,C,,T,,M,,N,,M*2F
20220705 130059+00:00 $GPRMC,130054,A,4926.0598,N,12327.3798,W,0.89,339,050722,11.8,E,A,V*61
20220705 130059+00:00 $HCHDT,344.6,T*2C
20220705 130059+00:00 $WIMWV,308.29,R,4.68,N,A*29
20220705 130101+00:00 $IIMDA,29.9,I,1.013,B,13.3,C,,C,89.4,,,C,,T,,M,,N,,M*2F
20220705 130101+00:00 $GPRMC,130056,A,4926.0598,N,12327.3798,W,0.89,339,050722,11.8,E,A,V*63
20220705 130101+00:00 $HCHDT,344.5,T*2F
20220705 130101+00:00 $WIMWV,307.79,R,4.3,N,A*1E
20220705 130103+00:00 $IIMDA,29.9,I,1.013,B,13.3,C,,C,89.4,,,C,,T,,M,,N,,M*2F
20220705 130103+00:00 $GPRMC,130058,A,4926.0598,N,12327.3798,W,0.89,339,050722,11.8,E,A,V*6D
20220705 130103+00:00 $HCHDT,344.4,T*2E
20220705 130103+00:00 $WIMWV,308.39,R,4.3,N,A*15
20220705 130105+00:00 $IIMDA,29.9,I,1.013,B,13.3,C,,C,89.4,,,C,,T,,M,,N,,M*2F
20220705 130105+00:00 $GPRMC,130100,A,4926.0598,N,12327.3798,W,0.89,339,050722,11.8,E,A,V*61
20220705 130105+00:00 $HCHDT,344.4,T*2E
20220705 130105+00:00 $WIMWV,309.79,R,4.78,N,A*2C
20220705 130107+00:00 $IIMDA,29.9,I,1.013,B,13.3,C,,C,89.4,,,C,,T,,M,,N,,M*2F
20220705 130107+00:00 $GPRMC,130102,A,4926.0598,N,12327.3798,W,0.89,339,050722,11.8,E,A,V*63
20220705 130107+00:00 $HCHDT,344.3,T*29
20220705 130107+00:00 $WIMWV,311.29,R,5.48,N,A*22
20220705 130109+00:00 $IIMDA,29.9,I,1.013,B,13.3,C,,C,89.4,,,C,,T,,M,,N,,M*2F
20220705 130109+00:00 $GPRMC,130104,A,4926.0700,N,12327.3798,W,0.89,339,050722,11.8,E,A,V*66
20220705 130109+00:00 $HCHDT,344.3,T*29
20220705 130109+00:00 $WIMWV,311.89,R,4.78,N,A*2A
20220705 130111+00:00 $IIMDA,29.9,I,1.013,B,13.3,C,,C,89.4,,,C,,T,,M,,N,,M*2F
20220705 130111+00:00 $GPRMC,130106,A,4926.0700,N,12327.3798,W,0.89,339,050722,11.8,E,A,V*64
20220705 130111+00:00 $HCHDT,344.3,T*29
20220705 130111+00:00 $WIMWV,310.69,R,4.59,N,A*26
20220705 130113+00:00 $IIMDA,29.9,I,1.013,B,13.3,C,,C,89.4,,,C,,T,,M,,N,,M*2F
20220705 130113+00:00 $GPRMC,130108,A,4926.0700,N,12327.3798,W,0.89,339,050722,11.8,E,A,V*6A
20220705 130113+00:00 $HCHDT,344.2,T*28
20220705 130113+00:00 $WIMWV,310.79,R,4.49,N,A*26
20220705 130115+00:00 $IIMDA,29.9,I,1.013,B,13.3,C,,C,89.4,,,C,,T,,M,,N,,M*2F
20220705 130115+00:00 $GPRMC,130110,A,4926.0700,N,12327.3798,W,0.89,339,050722,11.8,E,A,V*63
20220705 130115+00:00 $HCHDT,344.2,T*28
20220705 130115+00:00 $WIMWV,310.39,R,4.39,N,A*25
20220705 130117+00:00 $IIMDA,29.9,I,1.013,B,13.3,C,,C,89.5,,,C,,T,,M,,N,,M*2E
20220705 130117+00:00 $GPRMC,130112,A,4926.0700,N,12327.3798,W,0.89,339,050722,11.8,E,A,V*61
20220705 130117+00:00 $HCHDT,344.1,T*2B
20220705 130117+00:00 $WIMWV,311.19,R,4.68,N,A*22
20220705 130119+00:00 $IIMDA,29.9,I,1.013,B,13.3,C,,C,89.5,,,C,,T,,M,,N,,M*2E
20220705 130119+00:00 $GPRMC,130114,A,4926.0700,N,12327.3798,W,0.89,339,050722,11.8,E,A,V*67
20220705 130119+00:00 $HCHDT,344.1,T*2B
20220705 130119+00:00 $WIMWV,312.69,R,4.39,N,A*22
20220705 130121+00:00 $IIMDA,29.9,I,1.013,B,13.3,C,,C,89.5,,,C,,T,,M,,N,,M*2E
20220705 130121+00:00 $GPRMC,130116,A,4926.0700,N,12327.3798,W,0.89,339,050722,11.8,E,A,V*65
20220705 130121+00:00 $HCHDT,344.1,T*2B
20220705 130121+00:00 $WIMWV,311.89,R,4.39,N,A*2F
20220705 130123+00:00 $IIMDA,29.9,I,1.013,B,13.3,C,,C,89.5,,,C,,T,,M,,N,,M*2E
20220705 130123+00:00 $GPRMC,130118,A,4926.0700,N,12327.3798,W,0.8,339,050722,11.8,E,A,V*52
20220705 130123+00:00 $HCHDT,344,T*34
20220705 130123+00:00 $WIMWV,311.89,R,4.59,N,A*29
20220705 130125+00:00 $IIMDA,29.9,I,1.013,B,13.3,C,,C,89.4,,,C,,T,,M,,N,,M*2F
20220705 130125+00:00 $GPRMC,130120,A,4926.0700,N,12327.3798,W,0.8,339,050722,11.8,E,A,V*59
20220705 130125+00:00 $HCHDT,344,T*34
20220705 130125+00:00 $WIMWV,311.89,R,4.9,N,A*1C
20220705 130127+00:00 $IIMDA,29.9,I,1.013,B,13.3,C,,C,89.4,,,C,,T,,M,,N,,M*2F
20220705 130127+00:00 $GPRMC,130122,A,4926.0700,N,12327.3798,W,0.8,339,050722,11.8,E,A,V*5B
20220705 130127+00:00 $HCHDT,344,T*34
20220705 130127+00:00 $WIMWV,311.89,R,4.59,N,A*29
20220705 130129+00:00 $IIMDA,29.9,I,1.013,B,13.3,C,,C,89.5,,,C,,T,,M,,N,,M*2E
20220705 130129+00:00 $GPRMC,130124,A,4926.0700,N,12327.3798,W,0.8,339,050722,11.8,E,A,V*5D
20220705 130129+00:00 $HCHDT,344,T*34
20220705 130129+00:00 $WIMWV,313.59,R,4.68,N,A*24
20220705 130131+00:00 $IIMDA,29.9,I,1.013,B,13.3,C,,C,89.4,,,C,,T,,M,,N,,M*2F
20220705 130131+00:00 $GPRMC,130126,A,4926.0700,N,12327.3798,W,0.89,339,050722,11.8,E,A,V*66
20220705 130131+00:00 $HCHDT,344,T*34
20220705 130131+00:00 $WIMWV,310.99,R,4.78,N,A*2A
20220705 130133+00:00 $IIMDA,29.9,I,1.013,B,13.3,C,,C,89.4,,,C,,T,,M,,N,,M*2F
20220705 130133+00:00 $GPRMC,130128,A,4926.0700,N,12327.3798,W,0.89,339,050722,11.8,E,A,V*68
20220705 130133+00:00 $HCHDT,344,T*34
20220705 130133+00:00 $WIMWV,310.59,R,5,N,A*06
20220705 130135+00:00 $IIMDA,29.9,I,1.013,B,13.3,C,,C,89.4,,,C,,T,,M,,N,,M*2F
20220705 130135+00:00 $GPRMC,130130,A,4926.0700,N,12327.3798,W,0.89,339,050722,11.8,E,A,V*61
20220705 130135+00:00 $HCHDT,344.1,T*2B
20220705 130135+00:00 $WIMWV,311.29,R,4.9,N,A*16
20220705 130137+00:00 $IIMDA,29.9,I,1.013,B,13.3,C,,C,89.4,,,C,,T,,M,,N,,M*2F
20220705 130137+00:00 $GPRMC,130132,A,4926.0700,N,12327.3798,W,0.89,339,050722,11.8,E,A,V*63
20220705 130137+00:00 $HCHDT,344.2,T*28
20220705 130137+00:00 $WIMWV,310.39,R,4.78,N,A*20
20220705 130139+00:00 $IIMDA,29.9,I,1.013,B,13.3,C,,C,89.4,,,C,,T,,M,,N,,M*2F
20220705 130139+00:00 $GPRMC,130134,A,4926.0700,N,12327.3798,W,0.89,339,050722,11.8,E,A,V*65
20220705 130139+00:00 $HCHDT,344.3,T*29
20220705 130139+00:00 $WIMWV,309.49,R,5.09,N,A*28
20220705 130141+00:00 $IIMDA,29.9,I,1.013,B,13.3,C,,C,89.4,,,C,,T,,M,,N,,M*2F
20220705 130141+00:00 $GPRMC,130136,A,4926.0700,N,12327.3798,W,0.89,340,050722,11.8,E,A,V*69
20220705 130141+00:00 $HCHDT,344.4,T*2E
20220705 130141+00:00 $WIMWV,310.99,R,5.29,N,A*2F
20220705 130143+00:00 $IIMDA,29.9,I,1.013,B,13.3,C,,C,89.4,,,C,,T,,M,,N,,M*2F
20220705 130143+00:00 $GPRMC,130138,A,4926.0700,N,12327.3798,W,0.89,340,050722,11.8,E,A,V*67
20220705 130143+00:00 $HCHDT,344.6,T*2C
20220705 130143+00:00 $WIMWV,309.49,R,5,N,A*0F
20220705 130145+00:00 $IIMDA,29.9,I,1.013,B,13.3,C,,C,89.4,,,C,,T,,M,,N,,M*2F
20220705 130145+00:00 $GPRMC,130140,A,4926.0700,N,12327.3798,W,0.89,341,050722,11.8,E,A,V*69
20220705 130145+00:00 $HCHDT,344.7,T*2D
20220705 130145+00:00 $WIMWV,309.39,R,4.78,N,A*28
20220705 130147+00:00 $IIMDA,29.9,I,1.013,B,13.3,C,,C,89.4,,,C,,T,,M,,N,,M*2F
20220705 130147+00:00 $GPRMC,130142,A,4926.0700,N,12327.3798,W,0.89,341,050722,11.8,E,A,V*6B
20220705 130147+00:00 $HCHDT,344.9,T*23
20220705 130147+00:00 $WIMWV,309.89,R,5,N,A*03
20220705 130149+00:00 $IIMDA,29.9,I,1.013,B,13.3,C,,C,89.4,,,C,,T,,M,,N,,M*2F
20220705 130149+00:00 $GPRMC,130144,A,4926.0700,N,12327.3798,W,0.89,342,050722,11.8,E,A,V*6E
20220705 130149+00:00 $HCHDT,345,T*35
20220705 130149+00:00 $WIMWV,311.19,R,5.38,N,A*26
20220705 130151+00:00 $IIMDA,29.9,I,1.013,B,13.3,C,,C,89.3,,,C,,T,,M,,N,,M*28
20220705 130151+00:00 $GPRMC,130146,A,4926.0700,N,12327.3798,W,0.89,342,050722,11.8,E,A,V*6C
20220705 130151+00:00 $HCHDT,345.1,T*2A
20220705 130151+00:00 $WIMWV,311.59,R,5.38,N,A*22
20220705 130153+00:00 $IIMDA,29.9,I,1.013,B,13.3,C,,C,89.4,,,C,,T,,M,,N,,M*2F
20220705 130153+00:00 $GPRMC,130148,A,4926.0796,N,12327.3798,W,0.89,343,050722,11.8,E,A,V*6C
20220705 130153+00:00 $HCHDT,345.1,T*2A
20220705 130153+00:00 $WIMWV,310.49,R,5.38,N,A*22
20220705 130155+00:00 $IIMDA,29.9,I,1.013,B,13.3,C,,C,89.3,,,C,,T,,M,,N,,M*28
20220705 130155+00:00 $GPRMC,130150,A,4926.0796,N,12327.3798,W,0.89,343,050722,11.8,E,A,V*65
20220705 130155+00:00 $HCHDT,345.1,T*2A
20220705 130155+00:00 $WIMWV,314.09,R,4.78,N,A*27
20220705 130157+00:00 $IIMDA,29.9,I,1.013,B,13.3,C,,C,89.4,,,C,,T,,M,,N,,M*2F
20220705 130157+00:00 $GPRMC,130152,A,4926.0796,N,12327.3798,W,0.89,343,050722,11.8,E,A,V*67
20220705 130157+00:00 $HCHDT,345.1,T*2A
20220705 130157+00:00 $WIMWV,312.29,R,4.49,N,A*21
20220705 130159+00:00 $IIMDA,29.9,I,1.013,B,13.3,C,,C,89.4,,,C,,T,,M,,N,,M*2F
20220705 130159+00:00 $GPRMC,130154,A,4926.0796,N,12327.3798,W,0.89,343,050722,11.8,E,A,V*61
20220705 130159+00:00 $HCHDT,345.1,T*2A
20220705 130159+00:00 $WIMWV,312.09,R,4.59,N,A*22
20220705 130201+00:00 $IIMDA,29.9,I,1.013,B,13.3,C,,C,89.4,,,C,,T,,M,,N,,M*2F
20220705 130201+00:00 $GPRMC,130156,A,4926.0796,N,12327.3798,W,0.89,343,050722,11.8,E,A,V*63
20220705 130201+00:00 $HCHDT,345.1,T*2A
20220705 130201+00:00 $WIMWV,311.19,R,4.49,N,A*21
20220705 130203+00:00 $IIMDA,29.9,I,1.013,B,13.3,C,,C,89.4,,,C,,T,,M,,N,,M*2F
20220705 130203+00:00 $GPRMC,130158,A,4926.0796,N,12327.3798,W,0.89,343,050722,11.8,E,A,V*6D
20220705 130203+00:00 $HCHDT,345.1,T*2A
20220705 130203+00:00 $WIMWV,311.49,R,4.2,N,A*1B
20220705 130205+00:00 $IIMDA,29.9,I,1.013,B,13.3,C,,C,89.4,,,C,,T,,M,,N,,M*2F
20220705 130205+00:00 $GPRMC,130200,A,4926.0796,N,12327.3798,W,0.89,343,050722,11.8,E,A,V*63
20220705 130205+00:00 $HCHDT,345,T*35
20220705 130205+00:00 $WIMWV,311.09,R,4.59,N,A*21
20220705 130207+00:00 $IIMDA,29.9,I,1.013,B,13.3,C,,C,89.4,,,C,,T,,M,,N,,M*2F
20220705 130207+00:00 $GPRMC,130202,A,4926.0796,N,12327.3798,W,0.89,344,050722,11.8,E,A,V*66
20220705 130207+00:00 $HCHDT,345,T*35
20220705 130207+00:00 $WIMWV,311.89,R,4.59,N,A*29
20220705 130209+00:00 $IIMDA,29.9,I,1.013,B,13.3,C,,C,89.4,,,C,,T,,M,,N,,M*2F
20220705 130209+00:00 $GPRMC,130204,A,4926.0796,N,12327.3798,W,0.89,344,050722,11.8,E,A,V*60
20220705 130209+00:00 $HCHDT,344.9,T*23
20220705 130209+00:00 $WIMWV,310.39,R,4.39,N,A*25
20220705 130211+00:00 $IIMDA,29.9,I,1.013,B,13.3,C,,C,89.4,,,C,,T,,M,,N,,M*2F
20220705 130211+00:00 $GPRMC,130206,A,4926.0796,N,12327.3798,W,0.89,344,050722,11.8,E,A,V*62
20220705 130211+00:00 $HCHDT,344.9,T*23
20220705 130211+00:00 $WIMWV,311.29,R,4.3,N,A*1C
20220705 130213+00:00 $IIMDA,29.9,I,1.013,B,13.2,C,,C,89.4,,,C,,T,,M,,N,,M*2E
20220705 130213+00:00 $GPRMC,130208,A,4926.0796,N,12327.3798,W,0.99,344,050722,11.8,E,A,V*6D
20220705 130213+00:00 $HCHDT,344.8,T*22
20220705 130213+00:00 $WIMWV,309.49,R,4.2,N,A*12
20220705 130215+00:00 $IIMDA,29.9,I,1.013,B,13.2,C,,C,89.4,,,C,,T,,M,,N,,M*2E
20220705 130215+00:00 $GPRMC,130210,A,4926.0796,N,12327.3798,W,0.99,343,050722,11.8,E,A,V*63
20220705 130215+00:00 $HCHDT,344.8,T*22
20220705 130215+00:00 $WIMWV,309.49,R,4.2,N,A*12
20220705 130217+00:00 $IIMDA,29.9,I,1.013,B,13.2,C,,C,89.5,,,C,,T,,M,,N,,M*2F
20220705 130217+00:00 $GPRMC,130212,A,4926.0796,N,12327.3900,W,0.99,343,050722,11.8,E,A,V*6E
20220705 130217+00:00 $HCHDT,344.7,T*2D
20220705 130217+00:00 $WIMWV,310.59,R,4.08,N,A*21
20220705 130219+00:00 $IIMDA,29.9,I,1.013,B,13.2,C,,C,89.4,,,C,,T,,M,,N,,M*2E
20220705 130219+00:00 $GPRMC,130214,A,4926.0796,N,12327.3900,W,0.99,343,050722,11.8,E,A,V*68
20220705 130219+00:00 $HCHDT,344.7,T*2D
20220705 130219+00:00 $WIMWV,307.19,R,4.08,N,A*23
20220705 130221+00:00 $IIMDA,29.9,I,1.013,B,13.2,C,,C,89.4,,,C,,T,,M,,N,,M*2E
20220705 130221+00:00 $GPRMC,130216,A,4926.0796,N,12327.3900,W,0.99,343,050722,11.8,E,A,V*6A
20220705 130221+00:00 $HCHDT,344.7,T*2D
20220705 130221+00:00 $WIMWV,307.79,R,4.3,N,A*1E
20220705 130223+00:00 $IIMDA,29.9,I,1.013,B,13.2,C,,C,89.4,,,C,,T,,M,,N,,M*2E
20220705 130223+00:00 $GPRMC,130218,A,4926.0796,N,12327.3900,W,0.99,343,050722,11.8,E,A,V*64
20220705 130223+00:00 $HCHDT,344.7,T*2D
20220705 130223+00:00 $WIMWV,310.69,R,4.3,N,A*19
20220705 130225+00:00 $IIMDA,29.9,I,1.013,B,13.2,C,,C,89.4,,,C,,T,,M,,N,,M*2E
20220705 130225+00:00 $GPRMC,130220,A,4926.0796,N,12327.3900,W,0.99,343,050722,11.8,E,A,V*6F
20220705 130225+00:00 $HCHDT,344.7,T*2D
20220705 130225+00:00 $WIMWV,308.39,R,4.3,N,A*15
20220705 130227+00:00 $IIMDA,29.9,I,1.013,B,13.2,C,,C,89.5,,,C,,T,,M,,N,,M*2F
20220705 130227+00:00 $GPRMC,130222,A,4926.0796,N,12327.3900,W,0.99,343,050722,11.8,E,A,V*6D
20220705 130227+00:00 $HCHDT,344.8,T*22
20220705 130227+00:00 $WIMWV,309.89,R,4.78,N,A*23
20220705 130229+00:00 $IIMDA,29.9,I,1.013,B,13.2,C,,C,89.5,,,C,,T,,M,,N,,M*2F
20220705 130229+00:00 $GPRMC,130224,A,4926.0898,N,12327.3900,W,0.99,343,050722,11.8,E,A,V*6A
20220705 130229+00:00 $HCHDT,344.8,T*22
20220705 130229+00:00 $WIMWV,312.79,R,4.49,N,A*24
20220705 130231+00:00 $IIMDA,29.9,I,1.013,B,13.2,C,,C,89.4,,,C,,T,,M,,N,,M*2E
20220705 130231+00:00 $GPRMC,130226,A,4926.0898,N,12327.3900,W,0.99,343,050722,11.8,E,A,V*68
20220705 130231+00:00 $HCHDT,344.8,T*22
20220705 130231+00:00 $WIMWV,314.59,R,4.78,N,A*22
20220705 130233+00:00 $IIMDA,29.9,I,1.013,B,13.2,C,,C,89.4,,,C,,T,,M,,N,,M*2E
20220705 130233+00:00 $GPRMC,130228,A,4926.0898,N,12327.3900,W,0.99,343,050722,11.8,E,A,V*66
20220705 130233+00:00 $HCHDT,344.9,T*23
20220705 130233+00:00 $WIMWV,309.09,R,5.19,N,A*2D
20220705 130235+00:00 $IIMDA,29.9,I,1.013,B,13.2,C,,C,89.4,,,C,,T,,M,,N,,M*2E
20220705 130235+00:00 $GPRMC,130230,A,4926.0898,N,12327.3900,W,0.99,343,050722,11.8,E,A,V*6F
20220705 130235+00:00 $HCHDT,345,T*35
20220705 130235+00:00 $WIMWV,309.89,R,4.78,N,A*23
20220705 130237+00:00 $IIMDA,29.9,I,1.013,B,13.2,C,,C,89.4,,,C,,T,,M,,N,,M*2E
20220705 130237+00:00 $GPRMC,130232,A,4926.0898,N,12327.3900,W,0.99,343,050722,11.8,E,A,V*6D
20220705 130237+00:00 $HCHDT,345.1,T*2A
20220705 130237+00:00 $WIMWV,307.69,R,4.39,N,A*26
20220705 130239+00:00 $IIMDA,29.9,I,1.013,B,13.2,C,,C,89.5,,,C,,T,,M,,N,,M*2F
20220705 130239+00:00 $GPRMC,130234,A,4926.0898,N,12327.3900,W,0.99,343,050722,11.8,E,A,V*6B
20220705 130239+00:00 $HCHDT,345.1,T*2A
20220705 130239+00:00 $WIMWV,309.09,R,4.39,N,A*2E
20220705 130241+00:00 $IIMDA,29.9,I,1.013,B,13.2,C,,C,89.5,,,C,,T,,M,,N,,M*2F
20220705 130241+00:00 $GPRMC,130236,A,4926.0898,N,12327.3900,W,0.99,343,050722,11.8,E,A,V*69
20220705 130241+00:00 $HCHDT,345.1,T*2A
20220705 130241+00:00 $WIMWV,309.99,R,4.78,N,A*22
20220705 130243+00:00 $IIMDA,29.9,I,1.013,B,13.2,C,,C,89.4,,,C,,T,,M,,N,,M*2E
20220705 130243+00:00 $GPRMC,130238,A,4926.0898,N,12327.3900,W,0.99,344,050722,11.8,E,A,V*60
20220705 130243+00:00 $HCHDT,345.1,T*2A
20220705 130243+00:00 $WIMWV,310.09,R,4.59,N,A*20
20220705 130245+00:00 $IIMDA,29.9,I,1.013,B,13.2,C,,C,89.5,,,C,,T,,M,,N,,M*2F
20220705 130245+00:00 $GPRMC,130240,A,4926.0898,N,12327.3900,W,0.99,343,050722,11.8,E,A,V*68
20220705 130245+00:00 $HCHDT,345.1,T*2A
20220705 130245+00:00 $WIMWV,308.39,R,4.49,N,A*2B
20220705 130247+00:00 $IIMDA,29.9,I,1.013,B,13.2,C,,C,89.4,,,C,,T,,M,,N,,M*2E
20220705 130247+00:00 $GPRMC,130242,A,4926.0898,N,12327.3900,W,1.11,343,050722,11.8,E,A,V*6B
20220705 130247+00:00 $HCHDT,345.2,T*29
20220705 130247+00:00 $WIMWV,312.79,R,5,N,A*06
20220705 130249+00:00 $IIMDA,29.9,I,1.013,B,13.2,C,,C,89.5,,,C,,T,,M,,N,,M*2F
20220705 130249+00:00 $GPRMC,130244,A,4926.0898,N,12327.3900,W,1.11,343,050722,11.8,E,A,V*6D
20220705 130249+00:00 $HCHDT,345.2,T*29
20220705 130249+00:00 $WIMWV,314.39,R,3.98,N,A*2D
20220705 130251+00:00 $IIMDA,29.9,I,1.013,B,13.2,C,,C,89.5,,,C,,T,,M,,N,,M*2F
20220705 130251+00:00 $GPRMC,130246,A,4926.0898,N,12327.3900,W,1.11,343,050722,11.8,E,A,V*6F
20220705 130251+00:00 $HCHDT,345.3,T*28
20220705 130251+00:00 $WIMWV,309.09,R,4.78,N,A*2B
20220705 130253+00:00 $IIMDA,29.9,I,1.013,B,13.2,C,,C,89.5,,,C,,T,,M,,N,,M*2F
20220705 130253+00:00 $GPRMC,130248,A,4926.0898,N,12327.3900,W,1.11,343,050722,11.8,E,A,V*61
20220705 130253+00:00 $HCHDT,345.3,T*28
20220705 130253+00:00 $WIMWV,310.99,R,4.59,N,A*29
20220705 130255+00:00 $IIMDA,29.9,I,1.013,B,13.2,C,,C,89.5,,,C,,T,,M,,N,,M*2F
20220705 130255+00:00 $GPRMC,130250,A,4926.0898,N,12327.3900,W,1.11,343,050722,11.8,E,A,V*68
20220705 130255+00:00 $HCHDT,345.4,T*2F
20220705 130255+00:00 $WIMWV,312.09,R,4.3,N,A*1D
20220705 130257+00:00 $IIMDA,29.9,I,1.013,B,13.2,C,,C,89.5,,,C,,T,,M,,N,,M*2F
20220705 130257+00:00 $GPRMC,130252,A,4926.0898,N,12327.3900,W,1.11,343,050722,11.8,E,A,V*6A
20220705 130257+00:00 $HCHDT,345.5,T*2E
20220705 130257+00:00 $WIMWV,313.99,R,3.89,N,A*20
20220705 130259+00:00 $IIMDA,29.9,I,1.013,B,13.2,C,,C,89.5,,,C,,T,,M,,N,,M*2F
20220705 130259+00:00 $GPRMC,130254,A,4926.0898,N,12327.3900,W,1.11,343,050722,11.8,E,A,V*6C
20220705 130259+00:00 $HCHDT,345.5,T*2E
20220705 130259+00:00 $WIMWV,312.39,R,3.98,N,A*2B
20220705 130301+00:00 $IIMDA,29.9,I,1.013,B,13.2,C,,C,89.5,,,C,,T,,M,,N,,M*2F
20220705 130301+00:00 $GPRMC,130256,A,4926.0898,N,12327.3900,W,1.11,344,050722,11.8,E,A,V*69
20220705 130301+00:00 $HCHDT,345.6,T*2D
20220705 130301+00:00 $WIMWV,309.89,R,4.2,N,A*1E
20220705 130303+00:00 $IIMDA,29.9,I,1.013,B,13.2,C,,C,89.5,,,C,,T,,M,,N,,M*2F
20220705 130303+00:00 $GPRMC,130258,A,4926.0898,N,12327.3900,W,1.11,344,050722,11.8,E,A,V*67
20220705 130303+00:00 $HCHDT,345.6,T*2D
20220705 130303+00:00 $WIMWV,311.29,R,4.3,N,A*1C
20220705 130305+00:00 $IIMDA,29.9,I,1.013,B,13.2,C,,C,89.5,,,C,,T,,M,,N,,M*2F
20220705 130305+00:00 $GPRMC,130300,A,4926.1000,N,12327.3900,W,1.11,344,050722,11.8,E,A,V*63
20220705 130305+00:00 $HCHDT,345.7,T*2C
20220705 130305+00:00 $WIMWV,312.89,R,3.98,N,A*20
20220705 130307+00:00 $IIMDA,29.9,I,1.013,B,13.2,C,,C,89.5,,,C,,T,,M,,N,,M*2F
20220705 130307+00:00 $GPRMC,130302,A,4926.1000,N,12327.3900,W,1.11,344,050722,11.8,E,A,V*61
20220705 130307+00:00 $HCHDT,345.7,T*2C
20220705 130307+00:00 $WIMWV,309.09,R,4.08,N,A*2C
20220705 130309+00:00 $IIMDA,29.9,I,1.013,B,13.2,C,,C,89.5,,,C,,T,,M,,N,,M*2F
20220705 130309+00:00 $GPRMC,130304,A,4926.1000,N,12327.3900,W,1.11,344,050722,11.8,E,A,V*67
20220705 130309+00:00 $HCHDT,345.7,T*2C
20220705 130309+00:00 $WIMWV,310.39,R,3.89,N,A*29
20220705 130311+00:00 $IIMDA,29.9,I,1.013,B,13.2,C,,C,89.5,,,C,,T,,M,,N,,M*2F
20220705 130311+00:00 $GPRMC,130306,A,4926.1000,N,12327.3900,W,1.11,344,050722,11.8,E,A,V*65
20220705 130311+00:00 $HCHDT,345.8,T*23
20220705 130311+00:00 $WIMWV,308.79,R,3.98,N,A*24
20220705 130313+00:00 $IIMDA,29.9,I,1.013,B,13.2,C,,C,89.5,,,C,,T,,M,,N,,M*2F
20220705 130313+00:00 $GPRMC,130308,A,4926.1000,N,12327.3900,W,1.21,344,050722,11.8,E,A,V*68
20220705 130313+00:00 $HCHDT,345.8,T*23
20220705 130313+00:00 $WIMWV,311.29,R,3.79,N,A*26
20220705 130315+00:00 $IIMDA,29.9,I,1.013,B,13.2,C,,C,89.5,,,C,,T,,M,,N,,M*2F
20220705 130315+00:00 $GPRMC,130310,A,4926.1000,N,12327.3900,W,1.21,344,050722,11.8,E,A,V*61
20220705 130315+00:00 $HCHDT,345.9,T*22
20220705 130315+00:00 $WIMWV,311.09,R,3.69,N,A*25
20220705 130317+00:00 $IIMDA,29.9,I,1.013,B,13.2,C,,C,89.4,,,C,,T,,M,,N,,M*2E
20220705 130317+00:00 $GPRMC,130312,A,4926.1000,N,12327.3900,W,1.21,344,050722,11.8,E,A,V*63
20220705 130317+00:00 $HCHDT,345.9,T*22
20220705 130317+00:00 $WIMWV,312.09,R,3.5,N,A*1C
20220705 130319+00:00 $IIMDA,29.9,I,1.013,B,13.3,C,,C,89.4,,,C,,T,,M,,N,,M*2F
20220705 130319+00:00 $GPRMC,130314,A,4926.1000,N,12327.3900,W,1.21,344,050722,11.8,E,A,V*65
20220705 130319+00:00 $HCHDT,345.9,T*22
20220705 130319+00:00 $WIMWV,309.39,R,4.08,N,A*2F
20220705 130321+00:00 $IIMDA,29.9,I,1.013,B,13.3,C,,C,89.4,,,C,,T,,M,,N,,M*2F
20220705 130321+00:00 $GPRMC,130316,A,4926.1000,N,12327.3900,W,1.21,344,050722,11.8,E,A,V*67
20220705 130321+00:00 $HCHDT,345.9,T*22
20220705 130321+00:00 $WIMWV,311.09,R,4.08,N,A*25
20220705 130323+00:00 $IIMDA,29.9,I,1.013,B,13.3,C,,C,89.4,,,C,,T,,M,,N,,M*2F
20220705 130323+00:00 $GPRMC,130318,A,4926.1000,N,12327.3900,W,1.21,344,050722,11.8,E,A,V*69
20220705 130323+00:00 $HCHDT,345.9,T*22
20220705 130323+00:00 $WIMWV,310.19,R,4.2,N,A*1F
20220705 130325+00:00 $IIMDA,29.9,I,1.013,B,13.3,C,,C,89.4,,,C,,T,,M,,N,,M*2F
20220705 130325+00:00 $GPRMC,130320,A,4926.1000,N,12327.3900,W,1.21,344,050722,11.8,E,A,V*62
20220705 130325+00:00 $HCHDT,345.9,T*22
20220705 130325+00:00 $WIMWV,311.69,R,4.08,N,A*23
20220705 130327+00:00 $IIMDA,29.9,I,1.013,B,13.3,C,,C,89.4,,,C,,T,,M,,N,,M*2F
20220705 130327+00:00 $GPRMC,130322,A,4926.1000,N,12327.3900,W,1.21,344,050722,11.8,E,A,V*60
20220705 130327+00:00 $HCHDT,345.8,T*23
20220705 130327+00:00 $WIMWV,310.59,R,4.59,N,A*25
20220705 130329+00:00 $IIMDA,29.9,I,1.013,B,13.3,C,,C,89.4,,,C,,T,,M,,N,,M*2F
20220705 130329+00:00 $GPRMC,130324,A,4926.1000,N,12327.3900,W,1.21,344,050722,11.8,E,A,V*66
20220705 130329+00:00 $HCHDT,345.8,T*23
20220705 130329+00:00 $WIMWV,312.29,R,3.98,N,A*2A
20220705 130331+00:00 $IIMDA,29.9,I,1.013,B,13.3,C,,C,89.4,,,C,,T,,M,,N,,M*2F
20220705 130331+00:00 $GPRMC,130326,A,4926.1000,N,12327.3996,W,1.21,344,050722,11.8,E,A,V*6B
20220705 130331+00:00 $HCHDT,345.7,T*2C
20220705 130331+00:00 $WIMWV,313.19,R,3.69,N,A*26
20220705 130333+00:00 $IIMDA,29.9,I,1.013,B,13.3,C,,C,89.4,,,C,,T,,M,,N,,M*2F
20220705 130333+00:00 $GPRMC,130328,A,4926.1000,N,12327.3996,W,1.21,344,050722,11.8,E,A,V*65
20220705 130333+00:00 $HCHDT,345.7,T*2C
20220705 130333+00:00 $WIMWV,311.59,R,3.6,N,A*19
20220705 130335+00:00 $IIMDA,29.9,I,1.013,B,13.3,C,,C,89.4,,,C,,T,,M,,N,,M*2F
20220705 130335+00:00 $GPRMC,130330,A,4926.1096,N,12327.3996,W,1.21,344,050722,11.8,E,A,V*63
20220705 130335+00:00 $HCHDT,345.6,T*2D
20220705 130335+00:00 $WIMWV,309.49,R,3.98,N,A*26
20220705 130337+00:00 $IIMDA,29.9,I,1.013,B,13.3,C,,C,89.4,,,C,,T,,M,,N,,M*2F
20220705 130337+00:00 $GPRMC,130332,A,4926.1096,N,12327.3996,W,1.21,344,050722,11.8,E,A,V*61
20220705 130337+00:00 $HCHDT,345.6,T*2D
20220705 130337+00:00 $WIMWV,311.89,R,4.2,N,A*17
20220705 130339+00:00 $IIMDA,29.9,I,1.013,B,13.3,C,,C,89.4,,,C,,T,,M,,N,,M*2F
20220705 130339+00:00 $GPRMC,130334,A,4926.1096,N,12327.3996,W,1.21,344,050722,11.8,E,A,V*67
20220705 130339+00:00 $HCHDT,345.6,T*2D
20220705 130339+00:00 $WIMWV,311.69,R,3.98,N,A*2D
20220705 130341+00:00 $IIMDA,29.9,I,1.013,B,13.3,C,,C,89.5,,,C,,T,,M,,N,,M*2E
20220705 130341+00:00 $GPRMC,130336,A,4926.1096,N,12327.3996,W,1.21,344,050722,11.8,E,A,V*65
20220705 130341+00:00 $HCHDT,345.7,T*2C
20220705 130341+00:00 $WIMWV,310.79,R,4.39,N,A*21
20220705 130343+00:00 $IIMDA,29.9,I,1.013,B,13.3,C,,C,89.4,,,C,,T,,M,,N,,M*2F
20220705 130343+00:00 $GPRMC,130338,A,4926.1096,N,12327.3996,W,1.21,344,050722,11.8,E,A,V*6B
20220705 130343+00:00 $HCHDT,345.8,T*23
20220705 130343+00:00 $WIMWV,312.09,R,4.59,N,A*22
20220705 130345+00:00 $IIMDA,29.9,I,1.013,B,13.3,C,,C,89.4,,,C,,T,,M,,N,,M*2F
20220705 130345+00:00 $GPRMC,130340,A,4926.1096,N,12327.3996,W,1.21,344,050722,11.8,E,A,V*64
20220705 130345+00:00 $HCHDT,345.9,T*22
20220705 130345+00:00 $WIMWV,312.69,R,4.3,N,A*1B
20220705 130347+00:00 $IIMDA,29.9,I,1.013,B,13.3,C,,C,89.5,,,C,,T,,M,,N,,M*2E
20220705 130347+00:00 $GPRMC,130342,A,4926.1096,N,12327.3996,W,1.21,344,050722,11.8,E,A,V*66
20220705 130347+00:00 $HCHDT,346.1,T*29
20220705 130347+00:00 $WIMWV,311.59,R,4.59,N,A*24
20220705 130349+00:00 $IIMDA,29.9,I,1.013,B,13.3,C,,C,89.5,,,C,,T,,M,,N,,M*2E
20220705 130349+00:00 $GPRMC,130344,A,4926.1096,N,12327.3996,W,1.3,345,050722,11.8,E,A,V*51
20220705 130349+00:00 $HCHDT,346.2,T*2A
20220705 130349+00:00 $WIMWV,311.89,R,4.08,N,A*2D
20220705 130351+00:00 $IIMDA,29.9,I,1.013,B,13.3,C,,C,89.5,,,C,,T,,M,,N,,M*2E
20220705 130351+00:00 $GPRMC,130346,A,4926.1096,N,12327.3996,W,1.3,345,050722,11.8,E,A,V*53
20220705 130351+00:00 $HCHDT,346.2,T*2A
20220705 130351+00:00 $WIMWV,312.19,R,4.08,N,A*27
20220705 130353+00:00 $IIMDA,29.9,I,1.013,B,13.3,C,,C,89.5,,,C,,T,,M,,N,,M*2E
20220705 130353+00:00 $GPRMC,130348,A,4926.1096,N,12327.3996,W,1.3,345,050722,11.8,E,A,V*5D
20220705 130353+00:00 $HCHDT,346.3,T*2B
20220705 130353+00:00 $WIMWV,313.79,R,3.69,N,A*20
20220705 130355+00:00 $IIMDA,29.9,I,1.013,B,13.3,C,,C,89.4,,,C,,T,,M,,N,,M*2F
20220705 130355+00:00 $GPRMC,130350,A,4926.1096,N,12327.3996,W,1.3,345,050722,11.8,E,A,V*54
20220705 130355+00:00 $HCHDT,346.4,T*2C
20220705 130355+00:00 $WIMWV,311.89,R,3.79,N,A*2C
20220705 130357+00:00 $IIMDA,29.9,I,1.013,B,13.3,C,,C,89.5,,,C,,T,,M,,N,,M*2E
20220705 130357+00:00 $GPRMC,130352,A,4926.1096,N,12327.3996,W,1.3,346,050722,11.8,E,A,V*55
20220705 130357+00:00 $HCHDT,346.5,T*2D
20220705 130357+00:00 $WIMWV,310.99,R,4.08,N,A*2D
20220705 130359+00:00 $IIMDA,29.9,I,1.013,B,13.3,C,,C,89.4,,,C,,T,,M,,N,,M*2F
20220705 130359+00:00 $GPRMC,130354,A,4926.1096,N,12327.3996,W,1.3,346,050722,11.8,E,A,V*53
20220705 130359+00:00 $HCHDT,346.7,T*2F
20220705 130359+00:00 $WIMWV,310.99,R,3.98,N,A*23
20220705 130401+00:00 $IIMDA,29.9,I,1.013,B,13.3,C,,C,89.4,,,C,,T,,M,,N,,M*2F
20220705 130401+00:00 $GPRMC,130356,A,4926.1096,N,12327.3996,W,1.3,346,050722,11.8,E,A,V*51
20220705 130401+00:00 $HCHDT,346.9,T*21
20220705 130401+00:00 $WIMWV,309.79,R,4.08,N,A*2B
20220705 130403+00:00 $IIMDA,29.9,I,1.013,B,13.3,C,,C,89.4,,,C,,T,,M,,N,,M*2F
20220705 130403+00:00 $GPRMC,130358,A,4926.1096,N,12327.3996,W,1.3,346,050722,11.8,E,A,V*5F
20220705 130403+00:00 $HCHDT,347,T*37
20220705 130403+00:00 $WIMWV,310.39,R,4.39,N,A*25
20220705 130405+00:00 $IIMDA,29.9,I,1.013,B,13.3,C,,C,89.4,,,C,,T,,M,,N,,M*2F
20220705 130405+00:00 $GPRMC,130400,A,4926.1096,N,12327.3996,W,1.3,346,050722,11.8,E,A,V*55
20220705 130405+00:00 $HCHDT,347.2,T*2B
20220705 130405+00:00 $WIMWV,310.99,R,4.39,N,A*2F
20220705 130407+00:00 $IIMDA,29.9,I,1.013,B,13.3,C,,C,89.4,,,C,,T,,M,,N,,M*2F
20220705 130407+00:00 $GPRMC,130402,A,4926.1198,N,12327.3996,W,1.3,346,050722,11.8,E,A,V*58
20220705 130407+00:00 $HCHDT,347.3,T*2A
20220705 130407+00:00 $WIMWV,310.19,R,4.39,N,A*27
20220705 130409+00:00 $IIMDA,29.9,I,1.013,B,13.3,C,,C,89.4,,,C,,T,,M,,N,,M*2F
20220705 130409+00:00 $GPRMC,130404,A,4926.1198,N,12327.3996,W,1.3,346,050722,11.8,E,A,V*5E
20220705 130409+00:00 $HCHDT,347.4,T*2D
20220705 130409+00:00 $WIMWV,309.79,R,4.78,N,A*2C
20220705 130411+00:00 $IIMDA,29.9,I,1.013,B,13.3,C,,C,89.4,,,C,,T,,M,,N,,M*2F
20220705 130411+00:00 $GPRMC,130406,A,4926.1198,N,12327.3996,W,1.3,347,050722,11.8,E,A,V*5D
20220705 130411+00:00 $HCHDT,347.5,T*2C
20220705 130411+00:00 $WIMWV,309.79,R,4.78,N,A*2C
20220705 130413+00:00 $IIMDA,29.9,I,1.013,B,13.3,C,,C,89.4,,,C,,T,,M,,N,,M*2F
20220705 130413+00:00 $GPRMC,130408,A,4926.1198,N,12327.3996,W,1.3,347,050722,11.8,E,A,V*53
20220705 130413+00:00 $HCHDT,347.6,T*2F
20220705 130413+00:00 $WIMWV,317.29,R,4.08,N,A*21
20220705 130415+00:00 $IIMDA,29.9,I,1.013,B,13.3,C,,C,89.4,,,C,,T,,M,,N,,M*2F
20220705 130415+00:00 $GPRMC,130410,A,4926.1198,N,12327.3996,W,1.3,347,050722,11.8,E,A,V*5A
20220705 130415+00:00 $HCHDT,347.7,T*2E
20220705 130415+00:00 $WIMWV,313.19,R,4.08,N,A*26
20220705 130417+00:00 $IIMDA,29.9,I,1.013,B,13.3,C,,C,89.4,,,C,,T,,M,,N,,M*2F
20220705 130417+00:00 $GPRMC,130412,A,4926.1198,N,12327.3996,W,1.3,347,050722,11.8,E,A,V*58
20220705 130417+00:00 $HCHDT,347.8,T*21
20220705 130417+00:00 $WIMWV,311.49,R,4.3,N,A*1A
20220705 130419+00:00 $IIMDA,29.9,I,1.013,B,13.3,C,,C,89.4,,,C,,T,,M,,N,,M*2F
20220705 130419+00:00 $GPRMC,130414,A,4926.1198,N,12327.3996,W,1.3,347,050722,11.8,E,A,V*5E
20220705 130419+00:00 $HCHDT,347.9,T*20
20220705 130419+00:00 $WIMWV,313.29,R,3.79,N,A*24
20220705 130421+00:00 $IIMDA,29.9,I,1.013,B,13.3,C,,C,89.4,,,C,,T,,M,,N,,M*2F
20220705 130421+00:00 $GPRMC,130416,A,4926.1198,N,12327.3996,W,1.3,348,050722,11.8,E,A,V*53
20220705 130421+00:00 $HCHDT,348,T*38
20220705 130421+00:00 $WIMWV,312.99,R,3.79,N,A*2E
20220705 130423+00:00 $IIMDA,29.9,I,1.013,B,13.3,C,,C,89.4,,,C,,T,,M,,N,,M*2F
20220705 130423+00:00 $GPRMC,130418,A,4926.1198,N,12327.3996,W,1.3,348,050722,11.8,E,A,V*5D
20220705 130423+00:00 $HCHDT,348,T*38
20220705 130423+00:00 $WIMWV,312.49,R,3.89,N,A*2C
20220705 130425+00:00 $IIMDA,29.9,I,1.013,B,13.3,C,,C,89.4,,,C,,T,,M,,N,,M*2F
20220705 130425+00:00 $GPRMC,130420,A,4926.1198,N,12327.3996,W,1.3,348,050722,11.8,E,A,V*56
20220705 130425+00:00 $HCHDT,348,T*38
20220705 130425+00:00 $WIMWV,312.49,R,4.08,N,A*22
20220705 130427+00:00 $IIMDA,29.9,I,1.013,B,13.3,C,,C,89.4,,,C,,T,,M,,N,,M*2F
20220705 130427+00:00 $GPRMC,130422,A,4926.1198,N,12327.3996,W,1.3,348,050722,11.8,E,A,V*54
20220705 130427+00:00 $HCHDT,348.1,T*27
20220705 130427+00:00 $WIMWV,311.09,R,3.6,N,A*1C
20220705 130429+00:00 $IIMDA,29.9,I,1.013,B,13.3,C,,C,89.4,,,C,,T,,M,,N,,M*2F
20220705 130429+00:00 $GPRMC,130424,A,4926.1198,N,12327.3996,W,1.3,348,050722,11.8,E,A,V*52
20220705 130429+00:00 $HCHDT,348.1,T*27
20220705 130429+00:00 $WIMWV,311.19,R,3.5,N,A*1E
20220705 130431+00:00 $IIMDA,29.9,I,1.013,B,13.3,C,,C,89.4,,,C,,T,,M,,N,,M*2F
20220705 130431+00:00 $GPRMC,130426,A,4926.1198,N,12327.3996,W,1.4,348,050722,11.8,E,A,V*57
20220705 130431+00:00 $HCHDT,348.1,T*27
20220705 130431+00:00 $WIMWV,313.19,R,3.38,N,A*22
20220705 130433+00:00 $IIMDA,29.9,I,1.013,B,13.3,C,,C,89.4,,,C,,T,,M,,N,,M*2F
20220705 130433+00:00 $GPRMC,130428,A,4926.1198,N,12327.3996,W,1.4,348,050722,11.8,E,A,V*59
20220705 130433+00:00 $HCHDT,348.2,T*24
20220705 130433+00:00 $WIMWV,310.79,R,4.08,N,A*23
20220705 130435+00:00 $IIMDA,29.9,I,1.013,B,13.3,C,,C,89.5,,,C,,T,,M,,N,,M*2E
20220705 130435+00:00 $GPRMC,130430,A,4926.1300,N,12327.3996,W,1.4,348,050722,11.8,E,A,V*53
20220705 130435+00:00 $HCHDT,348.2,T*24
20220705 130435+00:00 $WIMWV,309.79,R,4.39,N,A*29
20220705 130437+00:00 $IIMDA,29.9,I,1.013,B,13.3,C,,C,89.5,,,C,,T,,M,,N,,M*2E
20220705 130437+00:00 $GPRMC,130432,A,4926.1300,N,12327.3996,W,1.4,348,050722,11.8,E,A,V*51
20220705 130437+00:00 $HCHDT,348.3,T*25
20220705 130437+00:00 $WIMWV,310.59,R,4.3,N,A*1A
20220705 130439+00:00 $IIMDA,29.9,I,1.013,B,13.3,C,,C,89.5,,,C,,T,,M,,N,,M*2E
20220705 130439+00:00 $GPRMC,130434,A,4926.1300,N,12327.3996,W,1.4,349,050722,11.8,E,A,V*56
20220705 130439+00:00 $HCHDT,348.4,T*22
20220705 130439+00:00 $WIMWV,310.59,R,4.49,N,A*24
20220705 130441+00:00 $IIMDA,29.9,I,1.013,B,13.3,C,,C,89.5,,,C,,T,,M,,N,,M*2E
20220705 130441+00:00 $GPRMC,130436,A,4926.1300,N,12327.3996,W,1.4,349,050722,11.8,E,A,V*54
20220705 130441+00:00 $HCHDT,348.5,T*23
20220705 130441+00:00 $WIMWV,312.19,R,4.3,N,A*1C
20220705 130443+00:00 $IIMDA,29.9,I,1.013,B,13.3,C,,C,89.5,,,C,,T,,M,,N,,M*2E
20220705 130443+00:00 $GPRMC,130438,A,4926.1300,N,12327.3996,W,1.4,349,050722,11.8,E,A,V*5A
20220705 130443+00:00 $HCHDT,348.6,T*20
20220705 130443+00:00 $WIMWV,309.89,R,4.39,N,A*26
20220705 130445+00:00 $IIMDA,29.9,I,1.013,B,13.3,C,,C,89.5,,,C,,T,,M,,N,,M*2E
20220705 130445+00:00 $GPRMC,130440,A,4926.1300,N,12327.3996,W,1.4,350,050722,11.8,E,A,V*5D
20220705 130445+00:00 $HCHDT,348.7,T*21
20220705 130445+00:00 $WIMWV,310.69,R,4.08,N,A*22
20220705 130447+00:00 $IIMDA,29.9,I,1.013,B,13.3,C,,C,89.5,,,C,,T,,M,,N,,M*2E
20220705 130447+00:00 $GPRMC,130442,A,4926.1300,N,12327.3996,W,1.4,350,050722,11.8,E,A,V*5F
20220705 130447+00:00 $HCHDT,348.7,T*21
20220705 130447+00:00 $WIMWV,310.49,R,3.89,N,A*2E
20220705 130449+00:00 $IIMDA,29.9,I,1.013,B,13.3,C,,C,89.5,,,C,,T,,M,,N,,M*2E
20220705 130449+00:00 $GPRMC,130444,A,4926.1300,N,12327.3996,W,1.4,351,050722,11.8,E,A,V*58
20220705 130449+00:00 $HCHDT,348.7,T*21
20220705 130449+00:00 $WIMWV,313.19,R,3.89,N,A*28
20220705 130451+00:00 $IIMDA,29.9,I,1.013,B,13.3,C,,C,89.5,,,C,,T,,M,,N,,M*2E
20220705 130451+00:00 $GPRMC,130446,A,4926.1300,N,12327.4098,W,1.4,351,050722,11.8,E,A,V*5A
20220705 130451+00:00 $HCHDT,348.7,T*21
20220705 130451+00:00 $WIMWV,311.69,R,4.39,N,A*21
20220705 130453+00:00 $IIMDA,29.9,I,1.013,B,13.3,C,,C,89.4,,,C,,T,,M,,N,,M*2F
20220705 130453+00:00 $GPRMC,130448,A,4926.1300,N,12327.4098,W,1.4,351,050722,11.8,E,A,V*54
20220705 130453+00:00 $HCHDT,348.7,T*21
20220705 130453+00:00 $WIMWV,310.09,R,4.68,N,A*22
20220705 130455+00:00 $IIMDA,29.9,I,1.013,B,13.3,C,,C,89.4,,,C,,T,,M,,N,,M*2F
20220705 130455+00:00 $GPRMC,130450,A,4926.1300,N,12327.4098,W,1.4,352,050722,11.8,E,A,V*5E
20220705 130455+00:00 $HCHDT,348.7,T*21
20220705 130455+00:00 $WIMWV,314.79,R,3.89,N,A*29
20220705 130457+00:00 $IIMDA,29.9,I,1.013,B,13.3,C,,C,89.4,,,C,,T,,M,,N,,M*2F
20220705 130457+00:00 $GPRMC,130452,A,4926.1300,N,12327.4098,W,1.5,352,050722,11.8,E,A,V*5D
20220705 130457+00:00 $HCHDT,348.8,T*2E
20220705 130457+00:00 $WIMWV,312.39,R,4.59,N,A*21
20220705 130459+00:00 $IIMDA,29.9,I,1.013,B,13.3,C,,C,89.4,,,C,,T,,M,,N,,M*2F
20220705 130459+00:00 $GPRMC,130454,A,4926.1396,N,12327.4098,W,1.5,352,050722,11.8,E,A,V*54
20220705 130459+00:00 $HCHDT,348.8,T*2E
20220705 130459+00:00 $WIMWV,311.49,R,4.59,N,A*25
20220705 130501+00:00 $IIMDA,29.9,I,1.013,B,13.3,C,,C,89.4,,,C,,T,,M,,N,,M*2F
20220705 130501+00:00 $GPRMC,130456,A,4926.1396,N,12327.4098,W,1.5,352,050722,11.8,E,A,V*56
20220705 130501+00:00 $HCHDT,348.9,T*2F
20220705 130501+00:00 $WIMWV,313.79,R,3.98,N,A*2E
20220705 130503+00:00 $IIMDA,29.9,I,1.013,B,13.3,C,,C,89.4,,,C,,T,,M,,N,,M*2F
20220705 130503+00:00 $GPRMC,130458,A,4926.1396,N,12327.4098,W,1.5,352,050722,11.8,E,A,V*58
20220705 130503+00:00 $HCHDT,349,T*39
20220705 130503+00:00 $WIMWV,314.19,R,3.98,N,A*2F
20220705 130505+00:00 $IIMDA,29.9,I,1.013,B,13.3,C,,C,89.4,,,C,,T,,M,,N,,M*2F
20220705 130505+00:00 $GPRMC,130500,A,4926.1396,N,12327.4098,W,1.5,352,050722,11.8,E,A,V*54
20220705 130505+00:00 $HCHDT,349.1,T*26
20220705 130505+00:00 $WIMWV,315.49,R,3.98,N,A*2B
20220705 130507+00:00 $IIMDA,29.9,I,1.013,B,13.3,C,,C,89.4,,,C,,T,,M,,N,,M*2F
20220705 130507+00:00 $GPRMC,130502,A,4926.1396,N,12327.4098,W,1.5,352,050722,11.8,E,A,V*56
20220705 130507+00:00 $HCHDT,349.2,T*25
20220705 130507+00:00 $WIMWV,314.09,R,3.79,N,A*21
20220705 130509+00:00 $IIMDA,29.9,I,1.013,B,13.3,C,,C,89.4,,,C,,T,,M,,N,,M*2F
20220705 130509+00:00 $GPRMC,130504,A,4926.1396,N,12327.4098,W,1.5,353,050722,11.8,E,A,V*51
20220705 130509+00:00 $HCHDT,349.2,T*25
20220705 130509+00:00 $WIMWV,323.59,R,4.08,N,A*21
20220705 130511+00:00 $IIMDA,29.9,I,1.013,B,13.3,C,,C,89.3,,,C,,T,,M,,N,,M*28
20220705 130511+00:00 $GPRMC,130506,A,4926.1396,N,12327.4098,W,1.5,353,050722,11.8,E,A,V*53
20220705 130511+00:00 $HCHDT,349.2,T*25
20220705 130511+00:00 $WIMWV,321.69,R,3.69,N,A*20
20220705 130513+00:00 $IIMDA,29.9,I,1.013,B,13.3,C,,C,89.4,,,C,,T,,M,,N,,M*2F
20220705 130513+00:00 $GPRMC,130508,A,4926.1396,N,12327.4098,W,1.5,352,050722,11.8,E,A,V*5C
20220705 130513+00:00 $HCHDT,349.2,T*25
20220705 130513+00:00 $WIMWV,325.89,R,4.2,N,A*10
20220705 130515+00:00 $IIMDA,29.9,I,1.013,B,13.3,C,,C,89.3,,,C,,T,,M,,N,,M*28
20220705 130515+00:00 $GPRMC,130510,A,4926.1396,N,12327.4098,W,1.5,352,050722,11.8,E,A,V*55
20220705 130515+00:00 $HCHDT,349.3,T*24
20220705 130515+00:00 $WIMWV,327.99,R,3.79,N,A*28
20220705 130517+00:00 $IIMDA,29.9,I,1.013,B,13.3,C,,C,89.4,,,C,,T,,M,,N,,M*2F
20220705 130517+00:00 $GPRMC,130512,A,4926.1396,N,12327.4098,W,1.59,352,050722,11.8,E,A,V*6E
20220705 130517+00:00 $HCHDT,349.4,T*23
20220705 130517+00:00 $WIMWV,331.49,R,3.6,N,A*1A
20220705 130519+00:00 $IIMDA,29.9,I,1.013,B,13.3,C,,C,89.3,,,C,,T,,M,,N,,M*28
20220705 130519+00:00 $GPRMC,130514,A,4926.1396,N,12327.4098,W,1.59,352,050722,11.8,E,A,V*68
20220705 130519+00:00 $HCHDT,349.5,T*22
20220705 130519+00:00 $WIMWV,333.59,R,3.29,N,A*24
20220705 130521+00:00 $IIMDA,29.9,I,1.013,B,13.3,C,,C,89.3,,,C,,T,,M,,N,,M*28
20220705 130521+00:00 $GPRMC,130516,A,4926.1396,N,12327.4098,W,1.59,352,050722,11.8,E,A,V*6A
20220705 130521+00:00 $HCHDT,349.5,T*22
20220705 130521+00:00 $WIMWV,330.49,R,3.38,N,A*26
20220705 130523+00:00 $IIMDA,29.9,I,1.013,B,13.3,C,,C,89.3,,,C,,T,,M,,N,,M*28
20220705 130523+00:00 $GPRMC,130518,A,4926.1498,N,12327.4098,W,1.59,352,050722,11.8,E,A,V*6D
20220705 130523+00:00 $HCHDT,349.6,T*21
20220705 130523+00:00 $WIMWV,330.49,R,3.38,N,A*26
20220705 130525+00:00 $IIMDA,29.9,I,1.013,B,13.3,C,,C,89.4,,,C,,T,,M,,N,,M*2F
20220705 130525+00:00 $GPRMC,130520,A,4926.1498,N,12327.4098,W,1.59,352,050722,11.8,E,A,V*66
20220705 130525+00:00 $HCHDT,349.6,T*21
20220705 130525+00:00 $WIMWV,331.79,R,3.6,N,A*19
20220705 130527+00:00 $IIMDA,29.9,I,1.013,B,13.3,C,,C,89.3,,,C,,T,,M,,N,,M*28
20220705 130527+00:00 $GPRMC,130522,A,4926.1498,N,12327.4098,W,1.59,352,050722,11.8,E,A,V*64
20220705 130527+00:00 $HCHDT,349.5,T*22
20220705 130527+00:00 $WIMWV,329.59,R,3.5,N,A*11
20220705 130529+00:00 $IIMDA,29.9,I,1.013,B,13.3,C,,C,89.3,,,C,,T,,M,,N,,M*28
20220705 130529+00:00 $GPRMC,130524,A,4926.1498,N,12327.4098,W,1.59,352,050722,11.8,E,A,V*62
20220705 130529+00:00 $HCHDT,349.5,T*22
20220705 130529+00:00 $WIMWV,325.09,R,3.79,N,A*23
20220705 130531+00:00 $IIMDA,29.9,I,1.013,B,13.3,C,,C,89.3,,,C,,T,,M,,N,,M*28
20220705 130531+00:00 $GPRMC,130526,A,4926.1498,N,12327.4098,W,1.59,352,050722,11.8,E,A,V*60
20220705 130531+00:00 $HCHDT,349.5,T*22
20220705 130531+00:00 $WIMWV,319.99,R,3.38,N,A*20
20220705 130533+00:00 $IIMDA,29.9,I,1.013,B,13.3,C,,C,89.3,,,C,,T,,M,,N,,M*28
20220705 130533+00:00 $GPRMC,130528,A,4926.1498,N,12327.4098,W,1.59,351,050722,11.8,E,A,V*6D
20220705 130533+00:00 $HCHDT,349.4,T*23
20220705 130533+00:00 $WIMWV,315.09,R,3.5,N,A*1B
20220705 130535+00:00 $IIMDA,29.9,I,1.013,B,13.3,C,,C,89.3,,,C,,T,,M,,N,,M*28
20220705 130535+00:00 $GPRMC,130530,A,4926.1498,N,12327.4098,W,1.59,351,050722,11.8,E,A,V*64
20220705 130535+00:00 $HCHDT,349.3,T*24
20220705 130535+00:00 $WIMWV,313.59,R,3.69,N,A*22
20220705 130537+00:00 $IIMDA,29.9,I,1.013,B,13.3,C,,C,89.3,,,C,,T,,M,,N,,M*28
20220705 130537+00:00 $GPRMC,130532,A,4926.1498,N,12327.4098,W,1.59,351,050722,11.8,E,A,V*66
20220705 130537+00:00 $HCHDT,349.2,T*25
20220705 130537+00:00 $WIMWV,310.59,R,4.3,N,A*1A
20220705 130539+00:00 $IIMDA,29.9,I,1.013,B,13.3,C,,C,89.3,,,C,,T,,M,,N,,M*28
20220705 130539+00:00 $GPRMC,130534,A,4926.1498,N,12327.4098,W,1.59,351,050722,11.8,E,A,V*60
20220705 130539+00:00 $HCHDT,349.2,T*25
20220705 130539+00:00 $WIMWV,319.79,R,3.69,N,A*2A
20220705 130541+00:00 $IIMDA,29.9,I,1.013,B,13.3,C,,C,89.3,,,C,,T,,M,,N,,M*28
20220705 130541+00:00 $GPRMC,130536,A,4926.1498,N,12327.4098,W,1.59,351,050722,11.8,E,A,V*62
20220705 130541+00:00 $HCHDT,349.1,T*26
20220705 130541+00:00 $WIMWV,320.99,R,3.79,N,A*2F
20220705 130543+00:00 $IIMDA,29.9,I,1.013,B,13.3,C,,C,89.3,,,C,,T,,M,,N,,M*28
20220705 130543+00:00 $GPRMC,130538,A,4926.1600,N,12327.4098,W,1.59,350,050722,11.8,E,A,V*6E
20220705 130543+00:00 $HCHDT,349.1,T*26
20220705 130543+00:00 $WIMWV,314.29,R,3.6,N,A*1B
20220705 130545+00:00 $IIMDA,29.9,I,1.013,B,13.3,C,,C,89.3,,,C,,T,,M,,N,,M*28
20220705 130545+00:00 $GPRMC,130540,A,4926.1600,N,12327.4098,W,1.59,350,050722,11.8,E,A,V*61
20220705 130545+00:00 $HCHDT,349,T*39
20220705 130545+00:00 $WIMWV,314.79,R,3.5,N,A*1D
20220705 130547+00:00 $IIMDA,29.9,I,1.013,B,13.3,C,,C,89.3,,,C,,T,,M,,N,,M*28
20220705 130547+00:00 $GPRMC,130542,A,4926.1600,N,12327.4098,W,1.59,350,050722,11.8,E,A,V*63
20220705 130547+00:00 $HCHDT,348.9,T*2F
20220705 130547+00:00 $WIMWV,316.99,R,3.6,N,A*12
20220705 130549+00:00 $IIMDA,29.9,I,1.013,B,13.3,C,,C,89.4,,,C,,T,,M,,N,,M*2F
20220705 130549+00:00 $GPRMC,130544,A,4926.1600,N,12327.4098,W,1.69,350,050722,11.8,E,A,V*66
20220705 130549+00:00 $HCHDT,348.8,T*2E
20220705 130549+00:00 $WIMWV,320.09,R,3.6,N,A*1E
20220705 130551+00:00 $IIMDA,29.9,I,1.013,B,13.3,C,,C,89.3,,,C,,T,,M,,N,,M*28
20220705 130551+00:00 $GPRMC,130546,A,4926.1600,N,12327.4098,W,1.69,350,050722,11.8,E,A,V*64
20220705 130551+00:00 $HCHDT,348.7,T*21
20220705 130551+00:00 $WIMWV,316.09,R,3.29,N,A*26
20220705 130553+00:00 $IIMDA,29.9,I,1.013,B,13.3,C,,C,89.4,,,C,,T,,M,,N,,M*2F
20220705 130553+00:00 $GPRMC,130548,A,4926.1600,N,12327.4098,W,1.69,350,050722,11.8,E,A,V*6A
20220705 130553+00:00 $HCHDT,348.7,T*21
20220705 130553+00:00 $WIMWV,315.49,R,3.38,N,A*21
20220705 130555+00:00 $IIMDA,29.9,I,1.013,B,13.3,C,,C,89.4,,,C,,T,,M,,N,,M*2F
20220705 130555+00:00 $GPRMC,130550,A,4926.1600,N,12327.4098,W,1.69,350,050722,11.8,E,A,V*63
20220705 130555+00:00 $HCHDT,348.6,T*20
20220705 130555+00:00 $WIMWV,328.89,R,3.6,N,A*1E
20220705 130557+00:00 $IIMDA,29.9,I,1.013,B,13.3,C,,C,89.4,,,C,,T,,M,,N,,M*2F
20220705 130557+00:00 $GPRMC,130552,A,4926.1600,N,12327.4098,W,1.69,350,050722,11.8,E,A,V*61
20220705 130557+00:00 $HCHDT,348.6,T*20
20220705 130557+00:00 $WIMWV,336.09,R,3.29,N,A*24
20220705 130559+00:00 $IIMDA,29.9,I,1.013,B,13.3,C,,C,89.4,,,C,,T,,M,,N,,M*2F
20220705 130559+00:00 $GPRMC,130554,A,4926.1600,N,12327.4098,W,1.69,350,050722,11.8,E,A,V*67
20220705 130559+00:00 $HCHDT,348.6,T*20
20220705 130559+00:00 $WIMWV,340.59,R,3.19,N,A*23
20220705 130601+00:00 $IIMDA,29.9,I,1.013,B,13.3,C,,C,89.4,,,C,,T,,M,,N,,M*2F
20220705 130601+00:00 $GPRMC,130556,A,4926.1600,N,12327.4098,W,1.69,350,050722,11.8,E,A,V*65
20220705 130601+00:00 $HCHDT,348.5,T*23
20220705 130601+00:00 $WIMWV,340.99,R,3.79,N,A*29
20220705 130603+00:00 $IIMDA,29.9,I,1.013,B,13.3,C,,C,89.4,,,C,,T,,M,,N,,M*2F
20220705 130603+00:00 $GPRMC,130558,A,4926.1600,N,12327.4098,W,1.69,350,050722,11.8,E,A,V*6B
20220705 130603+00:00 $HCHDT,348.4,T*22
20220705 130603+00:00 $WIMWV,345.09,R,4.49,N,A*21
20220705 130605+00:00 $IIMDA,29.9,I,1.013,B,13.3,C,,C,89.4,,,C,,T,,M,,N,,M*2F
20220705 130605+00:00 $GPRMC,130600,A,4926.1600,N,12327.4098,W,1.69,349,050722,11.8,E,A,V*6D
20220705 130605+00:00 $HCHDT,348.4,T*22
20220705 130605+00:00 $WIMWV,348.59,R,4.39,N,A*2E
20220705 130607+00:00 $IIMDA,29.9,I,1.013,B,13.3,C,,C,89.4,,,C,,T,,M,,N,,M*2F
20220705 130607+00:00 $GPRMC,130602,A,4926.1696,N,12327.4098,W,1.69,349,050722,11.8,E,A,V*60
20220705 130607+00:00 $HCHDT,348.3,T*25
20220705 130607+00:00 $WIMWV,348.59,R,4.08,N,A*2C
20220705 130609+00:00 $IIMDA,29.9,I,1.013,B,13.3,C,,C,89.5,,,C,,T,,M,,N,,M*2E
20220705 130609+00:00 $GPRMC,130604,A,4926.1696,N,12327.4098,W,1.69,349,050722,11.8,E,A,V*66
20220705 130609+00:00 $HCHDT,348.2,T*24
20220705 130609+00:00 $WIMWV,347.49,R,4.39,N,A*20
20220705 130611+00:00 $IIMDA,29.9,I,1.013,B,13.3,C,,C,89.5,,,C,,T,,M,,N,,M*2E
20220705 130611+00:00 $GPRMC,130606,A,4926.1696,N,12327.4098,W,1.69,349,050722,11.8,E,A,V*64
20220705 130611+00:00 $HCHDT,348.2,T*24
20220705 130611+00:00 $WIMWV,347.89,R,4.59,N,A*2A
20220705 130613+00:00 $IIMDA,29.9,I,1.013,B,13.3,C,,C,89.5,,,C,,T,,M,,N,,M*2E
20220705 130613+00:00 $GPRMC,130608,A,4926.1696,N,12327.4098,W,1.69,349,050722,11.8,E,A,V*6A
20220705 130613+00:00 $HCHDT,348.2,T*24
20220705 130613+00:00 $WIMWV,346.39,R,4.9,N,A*15
20220705 130615+00:00 $IIMDA,29.9,I,1.013,B,13.3,C,,C,89.5,,,C,,T,,M,,N,,M*2E
20220705 130615+00:00 $GPRMC,130610,A,4926.1696,N,12327.4098,W,1.69,349,050722,11.8,E,A,V*63
20220705 130615+00:00 $HCHDT,348.1,T*27
20220705 130615+00:00 $WIMWV,345.49,R,4.9,N,A*11
20220705 130617+00:00 $IIMDA,29.9,I,1.013,B,13.3,C,,C,89.5,,,C,,T,,M,,N,,M*2E
20220705 130617+00:00 $GPRMC,130612,A,4926.1696,N,12327.4098,W,1.69,349,050722,11.8,E,A,V*61
20220705 130617+00:00 $HCHDT,348.1,T*27
20220705 130617+00:00 $WIMWV,346.29,R,5.19,N,A*24
20220705 130619+00:00 $IIMDA,29.9,I,1.013,B,13.3,C,,C,89.5,,,C,,T,,M,,N,,M*2E
20220705 130619+00:00 $GPRMC,130614,A,4926.1696,N,12327.4200,W,1.69,349,050722,11.8,E,A,V*64
20220705 130619+00:00 $HCHDT,348,T*38
20220705 130619+00:00 $WIMWV,349.49,R,5.19,N,A*2D
20220705 130621+00:00 $IIMDA,29.9,I,1.013,B,13.3,C,,C,89.5,,,C,,T,,M,,N,,M*2E
20220705 130621+00:00 $GPRMC,130616,A,4926.1696,N,12327.4200,W,1.69,349,050722,11.8,E,A,V*66
20220705 130621+00:00 $HCHDT,347.9,T*20
20220705 130621+00:00 $WIMWV,346.19,R,4.78,N,A*21
20220705 130623+00:00 $IIMDA,29.9,I,1.013,B,13.3,C,,C,89.5,,,C,,T,,M,,N,,M*2E
20220705 130623+00:00 $GPRMC,130618,A,4926.1696,N,12327.4200,W,1.69,349,050722,11.8,E,A,V*68
20220705 130623+00:00 $HCHDT,347.9,T*20
20220705 130623+00:00 $WIMWV,348.39,R,4.68,N,A*2C
20220705 130625+00:00 $IIMDA,29.9,I,1.013,B,13.3,C,,C,89.5,,,C,,T,,M,,N,,M*2E
20220705 130625+00:00 $GPRMC,130620,A,4926.1696,N,12327.4200,W,1.69,349,050722,11.8,E,A,V*63
20220705 130625+00:00 $HCHDT,347.8,T*21
20220705 130625+00:00 $WIMWV,346.79,R,4.39,N,A*22
20220705 130627+00:00 $IIMDA,29.9,I,1.013,B,13.3,C,,C,89.5,,,C,,T,,M,,N,,M*2E
20220705 130627+00:00 $GPRMC,130622,A,4926.1798,N,12327.4200,W,1.69,348,050722,11.8,E,A,V*6F
20220705 130627+00:00 $HCHDT,347.8,T*21
20220705 130627+00:00 $WIMWV,347.69,R,4.78,N,A*27
20220705 130629+00:00 $IIMDA,29.9,I,1.013,B,13.3,C,,C,89.5,,,C,,T,,M,,N,,M*2E
20220705 130629+00:00 $GPRMC,130624,A,4926.1798,N,12327.4200,W,1.81,348,050722,11.8,E,A,V*6F
20220705 130629+00:00 $HCHDT,347.8,T*21
20220705 130629+00:00 $WIMWV,350.99,R,4.68,N,A*2F
20220705 130631+00:00 $IIMDA,29.9,I,1.013,B,13.3,C,,C,89.5,,,C,,T,,M,,N,,M*2E
20220705 130631+00:00 $GPRMC,130626,A,4926.1798,N,12327.4200,W,1.81,348,050722,11.8,E,A,V*6D
20220705 130631+00:00 $HCHDT,347.7,T*2E
20220705 130631+00:00 $WIMWV,345.29,R,4.59,N,A*22
20220705 130633+00:00 $IIMDA,29.9,I,1.013,B,13.3,C,,C,89.5,,,C,,T,,M,,N,,M*2E
20220705 130633+00:00 $GPRMC,130628,A,4926.1798,N,12327.4200,W,1.81,348,050722,11.8,E,A,V*63
20220705 130633+00:00 $HCHDT,347.7,T*2E
20220705 130633+00:00 $WIMWV,345.39,R,4.49,N,A*22
20220705 130635+00:00 $IIMDA,29.9,I,1.013,B,13.3,C,,C,89.5,,,C,,T,,M,,N,,M*2E
20220705 130635+00:00 $GPRMC,130630,A,4926.1798,N,12327.4200,W,1.81,348,050722,11.8,E,A,V*6A
20220705 130635+00:00 $HCHDT,347.8,T*21
20220705 130635+00:00 $WIMWV,355.99,R,3.79,N,A*2D
20220705 130637+00:00 $IIMDA,29.9,I,1.013,B,13.3,C,,C,89.5,,,C,,T,,M,,N,,M*2E
20220705 130637+00:00 $GPRMC,130632,A,4926.1798,N,12327.4200,W,1.81,348,050722,11.8,E,A,V*68
20220705 130637+00:00 $HCHDT,347.8,T*21
20220705 130637+00:00 $WIMWV,0.19,R,2.2,N,A*1B
20220705 130639+00:00 $IIMDA,29.9,I,1.013,B,13.3,C,,C,89.5,,,C,,T,,M,,N,,M*2E
20220705 130639+00:00 $GPRMC,130634,A,4926.1798,N,12327.4200,W,1.81,348,050722,11.8,E,A,V*6E
20220705 130639+00:00 $HCHDT,347.8,T*21
20220705 130639+00:00 $WIMWV,348.79,R,3.89,N,A*20
20220705 130641+00:00 $IIMDA,29.9,I,1.013,B,13.3,C,,C,89.5,,,C,,T,,M,,N,,M*2E
20220705 130641+00:00 $GPRMC,130636,A,4926.1798,N,12327.4200,W,1.81,348,050722,11.8,E,A,V*6C
20220705 130641+00:00 $HCHDT,347.8,T*21
20220705 130641+00:00 $WIMWV,348.49,R,4.3,N,A*16
20220705 130643+00:00 $IIMDA,29.9,I,1.013,B,13.3,C,,C,89.5,,,C,,T,,M,,N,,M*2E
20220705 130643+00:00 $GPRMC,130638,A,4926.1798,N,12327.4200,W,1.81,348,050722,11.8,E,A,V*62
20220705 130643+00:00 $HCHDT,347.9,T*20
20220705 130643+00:00 $WIMWV,346.79,R,4.3,N,A*1B
20220705 130645+00:00 $IIMDA,29.9,I,1.013,B,13.3,C,,C,89.5,,,C,,T,,M,,N,,M*2E
20220705 130645+00:00 $GPRMC,130640,A,4926.1798,N,12327.4200,W,1.81,347,050722,11.8,E,A,V*62
20220705 130645+00:00 $HCHDT,347.9,T*20
20220705 130645+00:00 $WIMWV,346.79,R,4.68,N,A*26
20220705 130647+00:00 $IIMDA,29.9,I,1.013,B,13.3,C,,C,89.5,,,C,,T,,M,,N,,M*2E
20220705 130647+00:00 $GPRMC,130642,A,4926.1900,N,12327.4200,W,1.81,347,050722,11.8,E,A,V*6F
20220705 130647+00:00 $HCHDT,348,T*38
20220705 130647+00:00 $WIMWV,352.99,R,4.2,N,A*11
20220705 130649+00:00 $IIMDA,29.9,I,1.013,B,13.3,C,,C,89.5,,,C,,T,,M,,N,,M*2E
20220705 130649+00:00 $GPRMC,130644,A,4926.1900,N,12327.4200,W,1.81,347,050722,11.8,E,A,V*69
20220705 130649+00:00 $HCHDT,348,T*38
20220705 130649+00:00 $WIMWV,348.49,R,4.3,N,A*16
20220705 130651+00:00 $IIMDA,29.9,I,1.013,B,13.3,C,,C,89.5,,,C,,T,,M,,N,,M*2E
20220705 130651+00:00 $GPRMC,130646,A,4926.1900,N,12327.4200,W,1.81,347,050722,11.8,E,A,V*6B
20220705 130651+00:00 $HCHDT,348.1,T*27
20220705 130651+00:00 $WIMWV,344.09,R,3.38,N,A*21
20220705 130653+00:00 $IIMDA,29.9,I,1.013,B,13.3,C,,C,89.5,,,C,,T,,M,,N,,M*2E
20220705 130653+00:00 $GPRMC,130648,A,4926.1900,N,12327.4200,W,1.81,347,050722,11.8,E,A,V*65
20220705 130653+00:00 $HCHDT,348.1,T*27
20220705 130653+00:00 $WIMWV,352.29,R,2.99,N,A*2E
20220705 130655+00:00 $IIMDA,29.9,I,1.013,B,13.3,C,,C,89.5,,,C,,T,,M,,N,,M*2E
20220705 130655+00:00 $GPRMC,130650,A,4926.1900,N,12327.4200,W,1.81,347,050722,11.8,E,A,V*6C
20220705 130655+00:00 $HCHDT,348.1,T*27
20220705 130655+00:00 $WIMWV,351.49,R,2.29,N,A*20
20220705 130657+00:00 $IIMDA,29.9,I,1.013,B,13.3,C,,C,89.5,,,C,,T,,M,,N,,M*2E
20220705 130657+00:00 $GPRMC,130652,A,4926.1900,N,12327.4200,W,1.81,347,050722,11.8,E,A,V*6E
20220705 130657+00:00 $HCHDT,348.1,T*27
20220705 130657+00:00 $WIMWV,2.8,R,3.19,N,A*12
20220705 130659+00:00 $IIMDA,29.9,I,1.013,B,13.3,C,,C,89.5,,,C,,T,,M,,N,,M*2E
20220705 130659+00:00 $GPRMC,130654,A,4926.1900,N,12327.4200,W,1.81,347,050722,11.8,E,A,V*68
20220705 130659+00:00 $HCHDT,348.1,T*27
20220705 130659+00:00 $WIMWV,352.99,R,3.69,N,A*2B
20220705 130701+00:00 $IIMDA,29.9,I,1.013,B,13.3,C,,C,89.5,,,C,,T,,M,,N,,M*2E
20220705 130701+00:00 $GPRMC,130656,A,4926.1900,N,12327.4200,W,1.81,347,050722,11.8,E,A,V*6A
20220705 130701+00:00 $HCHDT,348.1,T*27
20220705 130701+00:00 $WIMWV,0.19,R,3.89,N,A*29
20220705 130703+00:00 $IIMDA,29.9,I,1.013,B,13.3,C,,C,89.5,,,C,,T,,M,,N,,M*2E
20220705 130703+00:00 $GPRMC,130658,A,4926.1900,N,12327.4200,W,1.81,347,050722,11.8,E,A,V*64
20220705 130703+00:00 $HCHDT,348.1,T*27
20220705 130703+00:00 $WIMWV,356.69,R,3.98,N,A*2E
20220705 130705+00:00 $IIMDA,29.9,I,1.013,B,13.3,C,,C,89.4,,,C,,T,,M,,N,,M*2F
20220705 130705+00:00 $GPRMC,130700,A,4926.1900,N,12327.4200,W,1.81,347,050722,11.8,E,A,V*68
20220705 130705+00:00 $HCHDT,348,T*38
20220705 130705+00:00 $WIMWV,350.59,R,3.6,N,A*1C
20220705 130707+00:00 $IIMDA,29.9,I,1.013,B,13.3,C,,C,89.5,,,C,,T,,M,,N,,M*2E
20220705 130707+00:00 $GPRMC,130702,A,4926.1996,N,12327.4200,W,1.81,347,050722,11.8,E,A,V*65
20220705 130707+00:00 $HCHDT,348,T*38
20220705 130707+00:00 $WIMWV,344.79,R,3.38,N,A*26
20220705 130709+00:00 $IIMDA,29.9,I,1.013,B,13.3,C,,C,89.4,,,C,,T,,M,,N,,M*2F
20220705 130709+00:00 $GPRMC,130704,A,4926.1996,N,12327.4200,W,1.81,347,050722,11.8,E,A,V*63
20220705 130709+00:00 $HCHDT,348,T*38
20220705 130709+00:00 $WIMWV,348.99,R,3.6,N,A*19
20220705 130711+00:00 $IIMDA,29.9,I,1.013,B,13.3,C,,C,89.4,,,C,,T,,M,,N,,M*2F
20220705 130711+00:00 $GPRMC,130706,A,4926.1996,N,12327.4200,W,1.81,347,050722,11.8,E,A,V*61
20220705 130711+00:00 $HCHDT,348,T*38
20220705 130711+00:00 $WIMWV,349.89,R,4.49,N,A*25
20220705 130713+00:00 $IIMDA,29.9,I,1.013,B,13.3,C,,C,89.4,,,C,,T,,M,,N,,M*2F
20220705 130713+00:00 $GPRMC,130708,A,4926.1996,N,12327.4200,W,1.81,346,050722,11.8,E,A,V*6E
20220705 130713+00:00 $HCHDT,347.9,T*20
20220705 130713+00:00 $WIMWV,350.99,R,4.2,N,A*13
20220705 130715+00:00 $IIMDA,29.9,I,1.013,B,13.3,C,,C,89.4,,,C,,T,,M,,N,,M*2F
20220705 130715+00:00 $GPRMC,130710,A,4926.1996,N,12327.4200,W,1.81,346,050722,11.8,E,A,V*67
20220705 130715+00:00 $HCHDT,347.9,T*20
20220705 130715+00:00 $WIMWV,348.79,R,3.98,N,A*20
20220705 130717+00:00 $IIMDA,29.9,I,1.013,B,13.3,C,,C,89.4,,,C,,T,,M,,N,,M*2F
20220705 130717+00:00 $GPRMC,130712,A,4926.1996,N,12327.4200,W,1.81,346,050722,11.8,E,A,V*65
20220705 130717+00:00 $HCHDT,347.9,T*20
20220705 130717+00:00 $WIMWV,347.49,R,4.08,N,A*22
20220705 130719+00:00 $IIMDA,29.9,I,1.013,B,13.3,C,,C,89.4,,,C,,T,,M,,N,,M*2F
20220705 130719+00:00 $GPRMC,130714,A,4926.1996,N,12327.4296,W,1.81,346,050722,11.8,E,A,V*6C
20220705 130719+00:00 $HCHDT,347.8,T*21
20220705 130719+00:00 $WIMWV,347.29,R,4.2,N,A*1E
20220705 130721+00:00 $IIMDA,29.9,I,1.013,B,13.3,C,,C,89.4,,,C,,T,,M,,N,,M*2F
20220705 130721+00:00 $GPRMC,130716,A,4926.1996,N,12327.4296,W,1.9,346,050722,11.8,E,A,V*5E
20220705 130721+00:00 $HCHDT,347.8,T*21
20220705 130721+00:00 $WIMWV,349.39,R,4.3,N,A*10
20220705 130723+00:00 $IIMDA,29.9,I,1.013,B,13.3,C,,C,89.4,,,C,,T,,M,,N,,M*2F
20220705 130723+00:00 $GPRMC,130718,A,4926.1996,N,12327.4296,W,1.9,346,050722,11.8,E,A,V*50
20220705 130723+00:00 $HCHDT,347.7,T*2E
20220705 130723+00:00 $WIMWV,349.79,R,4.08,N,A*2F
20220705 130725+00:00 $IIMDA,29.9,I,1.013,B,13.3,C,,C,89.4,,,C,,T,,M,,N,,M*2F
20220705 130725+00:00 $GPRMC,130720,A,4926.1996,N,12327.4296,W,1.9,346,050722,11.8,E,A,V*5B
20220705 130725+00:00 $HCHDT,347.7,T*2E
20220705 130725+00:00 $WIMWV,347.09,R,4.08,N,A*26
20220705 130727+00:00 $IIMDA,29.9,I,1.013,B,13.3,C,,C,89.4,,,C,,T,,M,,N,,M*2F
20220705 130727+00:00 $GPRMC,130722,A,4926.1996,N,12327.4296,W,1.9,346,050722,11.8,E,A,V*59
20220705 130727+00:00 $HCHDT,347.6,T*2F
20220705 130727+00:00 $WIMWV,348.79,R,4.08,N,A*2E
20220705 130729+00:00 $IIMDA,29.9,I,1.013,B,13.2,C,,C,89.4,,,C,,T,,M,,N,,M*2E
20220705 130729+00:00 $GPRMC,130724,A,4926.2098,N,12327.4296,W,1.9,346,050722,11.8,E,A,V*5B
20220705 130729+00:00 $HCHDT,347.6,T*2F
20220705 130729+00:00 $WIMWV,353.79,R,3.79,N,A*25
20220705 130731+00:00 $IIMDA,29.9,I,1.013,B,13.2,C,,C,89.4,,,C,,T,,M,,N,,M*2E
20220705 130731+00:00 $GPRMC,130726,A,4926.2098,N,12327.4296,W,1.9,346,050722,11.8,E,A,V*59
20220705 130731+00:00 $HCHDT,347.5,T*2C
20220705 130731+00:00 $WIMWV,344.79,R,3.29,N,A*26
20220705 130733+00:00 $IIMDA,29.9,I,1.013,B,13.2,C,,C,89.4,,,C,,T,,M,,N,,M*2E
20220705 130733+00:00 $GPRMC,130728,A,4926.2098,N,12327.4296,W,1.9,346,050722,11.8,E,A,V*57
20220705 130733+00:00 $HCHDT,347.5,T*2C
20220705 130733+00:00 $WIMWV,341.59,R,3.79,N,A*24
20220705 130735+00:00 $IIMDA,29.9,I,1.013,B,13.2,C,,C,89.4,,,C,,T,,M,,N,,M*2E
20220705 130735+00:00 $GPRMC,130730,A,4926.2098,N,12327.4296,W,1.9,345,050722,11.8,E,A,V*5D
20220705 130735+00:00 $HCHDT,347.5,T*2C
20220705 130735+00:00 $WIMWV,342.49,R,3.89,N,A*29
20220705 130737+00:00 $IIMDA,29.9,I,1.013,B,13.2,C,,C,89.5,,,C,,T,,M,,N,,M*2F
20220705 130737+00:00 $GPRMC,130732,A,4926.2098,N,12327.4296,W,1.9,345,050722,11.8,E,A,V*5F
20220705 130737+00:00 $HCHDT,347.5,T*2C
20220705 130737+00:00 $WIMWV,345.39,R,3.79,N,A*26
20220705 130739+00:00 $IIMDA,29.9,I,1.013,B,13.2,C,,C,89.5,,,C,,T,,M,,N,,M*2F
20220705 130739+00:00 $GPRMC,130734,A,4926.2098,N,12327.4296,W,1.9,345,050722,11.8,E,A,V*59
20220705 130739+00:00 $HCHDT,347.5,T*2C
20220705 130739+00:00 $WIMWV,344.09,R,3.89,N,A*2B
20220705 130741+00:00 $IIMDA,29.9,I,1.013,B,13.2,C,,C,89.4,,,C,,T,,M,,N,,M*2E
