20220704 120001+00:00 $IIMDA,29.9,I,1.011,B,12.3,C,,C,92.4,,,C,,T,,M,,N,,M*26
20220704 120001+00:00 $HCHDT,124.5,T*2B
20220704 120001+00:00 $GPRMC,115956,A,4855.9398,N,12556.3898,W,9,128,040722,12.2,E,A,V*44
20220704 120001+00:00 $WIMWV,91.7,R,3.6,N,A*19
20220704 120003+00:00 $IIMDA,29.9,I,1.011,B,12.3,C,,C,92.4,,,C,,T,,M,,N,,M*26
20220704 120003+00:00 $HCHDT,124.8,T*26
20220704 120003+00:00 $GPRMC,115958,A,4855.9398,N,12556.3796,W,9,128,040722,12.2,E,A,V*4B
20220704 120003+00:00 $WIMWV,122.69,R,6.49,N,A*26
20220704 120005+00:00 $IIMDA,29.9,I,1.011,B,12.3,C,,C,92.4,,,C,,T,,M,,N,,M*26
20220704 120005+00:00 $HCHDT,125.2,T*2D
20220704 120005+00:00 $GPRMC,120000,A,4855.9398,N,12556.3796,W,9,128,040722,12.2,E,A,V*49
20220704 120005+00:00 $WIMWV,120.1,R,7.48,N,A*1A
20220704 120007+00:00 $IIMDA,29.9,I,1.011,B,12.3,C,,C,92.4,,,C,,T,,M,,N,,M*26
20220704 120007+00:00 $HCHDT,125.7,T*28
20220704 120007+00:00 $GPRMC,120002,A,4855.9296,N,12556.3700,W,9,128,040722,12.2,E,A,V*4B
20220704 120007+00:00 $WIMWV,125,R,8.28,N,A*09
20220704 120009+00:00 $IIMDA,29.9,I,1.011,B,12.3,C,,C,92.4,,,C,,T,,M,,N,,M*26
20220704 120009+00:00 $HCHDT,126.1,T*2D
20220704 120009+00:00 $GPRMC,120004,A,4855.9296,N,12556.3598,W,9,128,040722,12.2,E,A,V*4E
20220704 120009+00:00 $WIMWV,114.6,R,4.78,N,A*1A
20220704 120011+00:00 $IIMDA,29.9,I,1.011,B,12.3,C,,C,92.4,,,C,,T,,M,,N,,M*26
20220704 120011+00:00 $HCHDT,126.1,T*2D
20220704 120011+00:00 $GPRMC,120006,A,4855.9296,N,12556.3598,W,9,128,040722,12.2,E,A,V*4C
20220704 120011+00:00 $WIMWV,122.89,R,7.89,N,A*25
20220704 120013+00:00 $IIMDA,29.9,I,1.011,B,12.3,C,,C,92.4,,,C,,T,,M,,N,,M*26
20220704 120013+00:00 $HCHDT,125.5,T*2A
20220704 120013+00:00 $GPRMC,120008,A,4855.9200,N,12556.3496,W,9,128,040722,12.2,E,A,V*42
20220704 120013+00:00 $WIMWV,119.59,R,6.59,N,A*2C
20220704 120015+00:00 $IIMDA,29.9,I,1.011,B,12.3,C,,C,92.4,,,C,,T,,M,,N,,M*26
20220704 120015+00:00 $HCHDT,125,T*31
20220704 120015+00:00 $GPRMC,120010,A,4855.9200,N,12556.3496,W,9.1,128,040722,12.2,E,A,V*54
20220704 120015+00:00 $WIMWV,125.49,R,7.39,N,A*25
20220704 120017+00:00 $IIMDA,29.9,I,1.011,B,12.3,C,,C,92.4,,,C,,T,,M,,N,,M*26
20220704 120017+00:00 $HCHDT,124.9,T*27
20220704 120017+00:00 $GPRMC,120012,A,4855.9200,N,12556.3400,W,9.1,129,040722,12.2,E,A,V*58
20220704 120017+00:00 $WIMWV,121.79,R,5.79,N,A*24
20220704 120019+00:00 $IIMDA,29.9,I,1.011,B,12.3,C,,C,92.4,,,C,,T,,M,,N,,M*26
20220704 120019+00:00 $HCHDT,125.1,T*2E
20220704 120019+00:00 $GPRMC,120014,A,4855.9098,N,12556.3298,W,9,129,040722,12.2,E,A,V*45
20220704 120019+00:00 $WIMWV,117.99,R,4.08,N,A*28
20220704 120021+00:00 $IIMDA,29.9,I,1.011,B,12.3,C,,C,92.3,,,C,,T,,M,,N,,M*21
20220704 120021+00:00 $HCHDT,124.6,T*28
20220704 120021+00:00 $GPRMC,120016,A,4855.9098,N,12556.3298,W,9,129,040722,12.2,E,A,V*47
20220704 120021+00:00 $WIMWV,125.09,R,5.09,N,A*20
20220704 120023+00:00 $IIMDA,29.9,I,1.011,B,12.3,C,,C,92.3,,,C,,T,,M,,N,,M*21
20220704 120023+00:00 $HCHDT,124.2,T*2C
20220704 120023+00:00 $GPRMC,120018,A,4855.9098,N,12556.3196,W,9,129,040722,12.2,E,A,V*44
20220704 120023+00:00 $WIMWV,124.39,R,5.99,N,A*2B
20220704 120025+00:00 $IIMDA,29.9,I,1.011,B,12.3,C,,C,92.3,,,C,,T,,M,,N,,M*21
20220704 120025+00:00 $HCHDT,123.6,T*2F
20220704 120025+00:00 $GPRMC,120020,A,4855.9098,N,12556.3196,W,9,128,040722,12.2,E,A,V*4E
20220704 120025+00:00 $WIMWV,24,R,1.98,N,A*3B
20220704 120027+00:00 $IIMDA,29.9,I,1.011,B,12.3,C,,C,92.3,,,C,,T,,M,,N,,M*21
20220704 120027+00:00 $HCHDT,123.6,T*2F
20220704 120027+00:00 $GPRMC,120022,A,4855.8996,N,12556.3100,W,9,128,040722,12.2,E,A,V*45
20220704 120027+00:00 $WIMWV,118.89,R,2.1,N,A*19
20220704 120029+00:00 $IIMDA,29.9,I,1.011,B,12.3,C,,C,92.3,,,C,,T,,M,,N,,M*21
20220704 120029+00:00 $HCHDT,124,T*30
20220704 120029+00:00 $GPRMC,120024,A,4855.8996,N,12556.2998,W,9,127,040722,12.2,E,A,V*44
20220704 120029+00:00 $WIMWV,94.8,R,2.59,N,A*28
20220704 120031+00:00 $IIMDA,29.9,I,1.011,B,12.3,C,,C,92.3,,,C,,T,,M,,N,,M*21
20220704 120031+00:00 $HCHDT,124.3,T*2D
20220704 120031+00:00 $GPRMC,120026,A,4855.8996,N,12556.2998,W,9,127,040722,12.2,E,A,V*46
20220704 120031+00:00 $WIMWV,123.99,R,5.29,N,A*2D
20220704 120033+00:00 $IIMDA,29.9,I,1.011,B,12.3,C,,C,92.3,,,C,,T,,M,,N,,M*21
20220704 120033+00:00 $HCHDT,124.7,T*29
20220704 120033+00:00 $GPRMC,120028,A,4855.8900,N,12556.2896,W,9,127,040722,12.2,E,A,V*48
20220704 120033+00:00 $WIMWV,112.49,R,4.3,N,A*1B
20220704 120035+00:00 $IIMDA,29.9,I,1.011,B,12.3,C,,C,92.3,,,C,,T,,M,,N,,M*21
20220704 120035+00:00 $HCHDT,124.8,T*26
20220704 120035+00:00 $GPRMC,120030,A,4855.8900,N,12556.2896,W,9,127,040722,12.2,E,A,V*41
20220704 120035+00:00 $WIMWV,115.5,R,5,N,A*38
20220704 120037+00:00 $IIMDA,29.9,I,1.011,B,12.3,C,,C,92.3,,,C,,T,,M,,N,,M*21
20220704 120037+00:00 $HCHDT,124.8,T*26
20220704 120037+00:00 $GPRMC,120032,A,4855.8900,N,12556.2800,W,9,127,040722,12.2,E,A,V*4C
20220704 120037+00:00 $WIMWV,129.09,R,5.7,N,A*12
20220704 120039+00:00 $IIMDA,29.9,I,1.011,B,12.3,C,,C,92.3,,,C,,T,,M,,N,,M*21
20220704 120039+00:00 $HCHDT,124.6,T*28
20220704 120039+00:00 $GPRMC,120034,A,4855.8798,N,12556.2698,W,9,127,040722,12.2,E,A,V*4A
20220704 120039+00:00 $WIMWV,114.2,R,4.78,N,A*1E
20220704 120041+00:00 $IIMDA,29.9,I,1.011,B,12.3,C,,C,92.3,,,C,,T,,M,,N,,M*21
20220704 120041+00:00 $HCHDT,125.2,T*2D
20220704 120041+00:00 $GPRMC,120036,A,4855.8798,N,12556.2698,W,9,127,040722,12.2,E,A,V*48
20220704 120041+00:00 $WIMWV,117.5,R,5.7,N,A*23
20220704 120043+00:00 $IIMDA,29.9,I,1.011,B,12.3,C,,C,92.3,,,C,,T,,M,,N,,M*21
20220704 120043+00:00 $HCHDT,125.8,T*27
20220704 120043+00:00 $GPRMC,120038,A,4855.8798,N,12556.2596,W,9,127,040722,12.2,E,A,V*4B
20220704 120043+00:00 $WIMWV,124.6,R,6.88,N,A*14
20220704 120045+00:00 $IIMDA,29.9,I,1.011,B,12.3,C,,C,92.3,,,C,,T,,M,,N,,M*21
20220704 120045+00:00 $HCHDT,126,T*32
20220704 120045+00:00 $GPRMC,120040,A,4855.8696,N,12556.2596,W,9,128,040722,12.2,E,A,V*44
20220704 120045+00:00 $WIMWV,119.5,R,2.49,N,A*10
20220704 120047+00:00 $IIMDA,29.9,I,1.011,B,12.3,C,,C,92.3,,,C,,T,,M,,N,,M*21
20220704 120047+00:00 $HCHDT,125.7,T*28
20220704 120047+00:00 $GPRMC,120042,A,4855.8696,N,12556.2500,W,9,128,040722,12.2,E,A,V*49
20220704 120047+00:00 $WIMWV,119.59,R,6.59,N,A*2C
20220704 120049+00:00 $IIMDA,29.9,I,1.011,B,12.3,C,,C,92.3,,,C,,T,,M,,N,,M*21
20220704 120049+00:00 $HCHDT,124.9,T*27
20220704 120049+00:00 $GPRMC,120044,A,4855.8696,N,12556.2398,W,9,128,040722,12.2,E,A,V*48
20220704 120049+00:00 $WIMWV,127.29,R,6.3,N,A*19
20220704 120051+00:00 $IIMDA,29.9,I,1.011,B,12.3,C,,C,92.3,,,C,,T,,M,,N,,M*21
20220704 120051+00:00 $HCHDT,124.1,T*2F
20220704 120051+00:00 $GPRMC,120046,A,4855.8696,N,12556.2398,W,9,128,040722,12.2,E,A,V*4A
20220704 120051+00:00 $WIMWV,91.7,R,1.98,N,A*2C
20220704 120053+00:00 $IIMDA,29.9,I,1.011,B,12.3,C,,C,92.3,,,C,,T,,M,,N,,M*21
20220704 120053+00:00 $HCHDT,124.3,T*2D
20220704 120053+00:00 $GPRMC,120048,A,4855.8600,N,12556.2296,W,9,128,040722,12.2,E,A,V*44
20220704 120053+00:00 $WIMWV,124.49,R,5.48,N,A*20
20220704 120055+00:00 $IIMDA,29.9,I,1.011,B,12.3,C,,C,92.3,,,C,,T,,M,,N,,M*21
20220704 120055+00:00 $HCHDT,124.4,T*2A
20220704 120055+00:00 $GPRMC,120050,A,4855.8600,N,12556.2296,W,9,128,040722,12.2,E,A,V*4D
20220704 120055+00:00 $WIMWV,68.7,R,2.2,N,A*1A
20220704 120057+00:00 $IIMDA,29.9,I,1.011,B,12.3,C,,C,92.3,,,C,,T,,M,,N,,M*21
20220704 120057+00:00 $HCHDT,124.9,T*27
20220704 120057+00:00 $GPRMC,120052,A,4855.8600,N,12556.2200,W,9,128,040722,12.2,E,A,V*40
20220704 120057+00:00 $WIMWV,130.79,R,6.3,N,A*1A
20220704 120059+00:00 $IIMDA,29.9,I,1.011,B,12.3,C,,C,92.3,,,C,,T,,M,,N,,M*21
20220704 120059+00:00 $HCHDT,124.8,T*26
20220704 120059+00:00 $GPRMC,120054,A,4855.8498,N,12556.2098,W,9,128,040722,12.2,E,A,V*46
20220704 120059+00:00 $WIMWV,77.69,R,2.68,N,A*10
20220704 120101+00:00 $IIMDA,29.9,I,1.011,B,12.3,C,,C,92.3,,,C,,T,,M,,N,,M*21
20220704 120101+00:00 $HCHDT,124.8,T*26
20220704 120101+00:00 $GPRMC,120056,A,4855.8498,N,12556.2098,W,9,128,040722,12.2,E,A,V*44
20220704 120101+00:00 $WIMWV,124.8,R,7.7,N,A*2C
20220704 120103+00:00 $IIMDA,29.9,I,1.011,B,12.3,C,,C,92.3,,,C,,T,,M,,N,,M*21
20220704 120103+00:00 $HCHDT,124.6,T*28
20220704 120103+00:00 $GPRMC,120058,A,4855.8498,N,12556.1996,W,9,127,040722,12.2,E,A,V*41
20220704 120103+00:00 $WIMWV,123.29,R,6.3,N,A*1D
20220704 120105+00:00 $IIMDA,29.9,I,1.011,B,12.3,C,,C,92.4,,,C,,T,,M,,N,,M*26
20220704 120105+00:00 $HCHDT,124.1,T*2F
20220704 120105+00:00 $GPRMC,120100,A,4855.8396,N,12556.1996,W,9,128,040722,12.2,E,A,V*4B
20220704 120105+00:00 $WIMWV,115.79,R,6.3,N,A*1D
20220704 120107+00:00 $IIMDA,29.9,I,1.011,B,12.3,C,,C,92.3,,,C,,T,,M,,N,,M*21
20220704 120107+00:00 $HCHDT,123.8,T*21
20220704 120107+00:00 $GPRMC,120102,A,4855.8396,N,12556.1900,W,9,128,040722,12.2,E,A,V*46
20220704 120107+00:00 $WIMWV,121.99,R,7.39,N,A*2C
20220704 120109+00:00 $IIMDA,29.9,I,1.011,B,12.3,C,,C,92.3,,,C,,T,,M,,N,,M*21
20220704 120109+00:00 $HCHDT,124.2,T*2C
20220704 120109+00:00 $GPRMC,120104,A,4855.8396,N,12556.1798,W,9,128,040722,12.2,E,A,V*4F
20220704 120109+00:00 $WIMWV,124.49,R,7,N,A*00
20220704 120111+00:00 $IIMDA,29.9,I,1.011,B,12.3,C,,C,92.3,,,C,,T,,M,,N,,M*21
20220704 120111+00:00 $HCHDT,124.5,T*2B
20220704 120111+00:00 $GPRMC,120106,A,4855.8396,N,12556.1798,W,9,128,040722,12.2,E,A,V*4D
20220704 120111+00:00 $WIMWV,131.29,R,5.48,N,A*22
20220704 120113+00:00 $IIMDA,29.9,I,1.011,B,12.3,C,,C,92.3,,,C,,T,,M,,N,,M*21
20220704 120113+00:00 $HCHDT,124.1,T*2F
20220704 120113+00:00 $GPRMC,120108,A,4855.8300,N,12556.1696,W,9,128,040722,12.2,E,A,V*43
20220704 120113+00:00 $WIMWV,123.59,R,4.68,N,A*25
20220704 120115+00:00 $IIMDA,29.9,I,1.011,B,12.3,C,,C,92.3,,,C,,T,,M,,N,,M*21
20220704 120115+00:00 $HCHDT,123.9,T*20
20220704 120115+00:00 $GPRMC,120110,A,4855.8300,N,12556.1696,W,9,128,040722,12.2,E,A,V*4A
20220704 120115+00:00 $WIMWV,151.3,R,3.38,N,A*1D
20220704 120117+00:00 $IIMDA,29.9,I,1.011,B,12.3,C,,C,92.3,,,C,,T,,M,,N,,M*21
20220704 120117+00:00 $HCHDT,124.2,T*2C
20220704 120117+00:00 $GPRMC,120112,A,4855.8300,N,12556.1600,W,9,127,040722,12.2,E,A,V*48
20220704 120117+00:00 $WIMWV,124.89,R,6.3,N,A*10
20220704 120119+00:00 $IIMDA,29.9,I,1.011,B,12.3,C,,C,92.3,,,C,,T,,M,,N,,M*21
20220704 120119+00:00 $HCHDT,124.4,T*2A
20220704 120119+00:00 $GPRMC,120114,A,4855.8198,N,12556.1498,W,9,127,040722,12.2,E,A,V*4E
20220704 120119+00:00 $WIMWV,123.29,R,5.38,N,A*26
20220704 120121+00:00 $IIMDA,29.9,I,1.011,B,12.3,C,,C,92.3,,,C,,T,,M,,N,,M*21
20220704 120121+00:00 $HCHDT,123.7,T*2E
20220704 120121+00:00 $GPRMC,120116,A,4855.8198,N,12556.1498,W,9,127,040722,12.2,E,A,V*4C
20220704 120121+00:00 $WIMWV,125.99,R,7.1,N,A*13
20220704 120123+00:00 $IIMDA,29.9,I,1.011,B,12.3,C,,C,92.3,,,C,,T,,M,,N,,M*21
20220704 120123+00:00 $HCHDT,123.5,T*2C
20220704 120123+00:00 $GPRMC,120118,A,4855.8198,N,12556.1396,W,9,128,040722,12.2,E,A,V*44
20220704 120123+00:00 $WIMWV,140.29,R,4.08,N,A*21
20220704 120125+00:00 $IIMDA,29.9,I,1.011,B,12.3,C,,C,92.3,,,C,,T,,M,,N,,M*21
20220704 120125+00:00 $HCHDT,123.6,T*2F
20220704 120125+00:00 $GPRMC,120120,A,4855.8096,N,12556.1396,W,9,127,040722,12.2,E,A,V*4F
20220704 120125+00:00 $WIMWV,120.49,R,4.49,N,A*24
20220704 120127+00:00 $IIMDA,29.9,I,1.011,B,12.3,C,,C,92.3,,,C,,T,,M,,N,,M*21
20220704 120127+00:00 $HCHDT,124.1,T*2F
20220704 120127+00:00 $GPRMC,120122,A,4855.8096,N,12556.1300,W,9,127,040722,12.2,E,A,V*42
20220704 120127+00:00 $WIMWV,102.3,R,3.29,N,A*1B
20220704 120129+00:00 $IIMDA,29.9,I,1.011,B,12.3,C,,C,92.3,,,C,,T,,M,,N,,M*21
20220704 120129+00:00 $HCHDT,124.3,T*2D
20220704 120129+00:00 $GPRMC,120124,A,4855.8096,N,12556.1198,W,9,127,040722,12.2,E,A,V*47
20220704 120129+00:00 $WIMWV,118.6,R,2.68,N,A*11
20220704 120131+00:00 $IIMDA,29.9,I,1.011,B,12.3,C,,C,92.4,,,C,,T,,M,,N,,M*26
20220704 120131+00:00 $HCHDT,124.7,T*29
20220704 120131+00:00 $GPRMC,120126,A,4855.8096,N,12556.1198,W,9,127,040722,12.2,E,A,V*45
20220704 120131+00:00 $WIMWV,124.49,R,4.49,N,A*20
20220704 120133+00:00 $IIMDA,29.9,I,1.011,B,12.3,C,,C,92.3,,,C,,T,,M,,N,,M*21
20220704 120133+00:00 $HCHDT,123.7,T*2E
20220704 120133+00:00 $GPRMC,120128,A,4855.8000,N,12556.1096,W,9,127,040722,12.2,E,A,V*4B
20220704 120133+00:00 $WIMWV,124.3,R,7.39,N,A*1A
20220704 120135+00:00 $IIMDA,29.9,I,1.011,B,12.3,C,,C,92.3,,,C,,T,,M,,N,,M*21
20220704 120135+00:00 $HCHDT,123.4,T*2D
20220704 120135+00:00 $GPRMC,120130,A,4855.8000,N,12556.1096,W,9.1,127,040722,12.2,E,A,V*5D
20220704 120135+00:00 $WIMWV,123.29,R,6.18,N,A*27
20220704 120137+00:00 $IIMDA,29.9,I,1.011,B,12.3,C,,C,92.3,,,C,,T,,M,,N,,M*21
20220704 120137+00:00 $HCHDT,123.9,T*20
20220704 120137+00:00 $GPRMC,120132,A,4855.8000,N,12556.1000,W,9,127,040722,12.2,E,A,V*4F
20220704 120137+00:00 $WIMWV,125.4,R,5.38,N,A*1F
20220704 120139+00:00 $IIMDA,29.9,I,1.011,B,12.3,C,,C,92.3,,,C,,T,,M,,N,,M*21
20220704 120139+00:00 $HCHDT,124.1,T*2F
20220704 120139+00:00 $GPRMC,120134,A,4855.7898,N,12556.0898,W,9,127,040722,12.2,E,A,V*47
20220704 120139+00:00 $WIMWV,148.4,R,1.09,N,A*12
20220704 120141+00:00 $IIMDA,29.9,I,1.011,B,12.3,C,,C,92.3,,,C,,T,,M,,N,,M*21
20220704 120141+00:00 $HCHDT,124.5,T*2B
20220704 120141+00:00 $GPRMC,120136,A,4855.7898,N,12556.0898,W,9,127,040722,12.2,E,A,V*45
20220704 120141+00:00 $WIMWV,115.19,R,2.68,N,A*22
20220704 120143+00:00 $IIMDA,29.9,I,1.011,B,12.3,C,,C,92.3,,,C,,T,,M,,N,,M*21
20220704 120143+00:00 $HCHDT,124.2,T*2C
20220704 120143+00:00 $GPRMC,120138,A,4855.7898,N,12556.0796,W,9,127,040722,12.2,E,A,V*4A
20220704 120143+00:00 $WIMWV,125.29,R,5.09,N,A*22
20220704 120145+00:00 $IIMDA,29.9,I,1.011,B,12.3,C,,C,92.2,,,C,,T,,M,,N,,M*20
20220704 120145+00:00 $HCHDT,123.9,T*20
20220704 120145+00:00 $GPRMC,120140,A,4855.7796,N,12556.0796,W,9,127,040722,12.2,E,A,V*44
20220704 120145+00:00 $WIMWV,108.5,R,3.09,N,A*15
20220704 120147+00:00 $IIMDA,29.9,I,1.011,B,12.3,C,,C,92.3,,,C,,T,,M,,N,,M*21
20220704 120147+00:00 $HCHDT,123.6,T*2F
20220704 120147+00:00 $GPRMC,120142,A,4855.7796,N,12556.0700,W,9.1,127,040722,12.2,E,A,V*56
20220704 120147+00:00 $WIMWV,124.1,R,5.48,N,A*1C
20220704 120149+00:00 $IIMDA,29.9,I,1.011,B,12.3,C,,C,92.2,,,C,,T,,M,,N,,M*20
20220704 120149+00:00 $HCHDT,123.7,T*2E
20220704 120149+00:00 $GPRMC,120144,A,4855.7796,N,12556.0598,W,9.1,127,040722,12.2,E,A,V*53
20220704 120149+00:00 $WIMWV,124.8,R,5.29,N,A*12
20220704 120151+00:00 $IIMDA,29.9,I,1.011,B,12.3,C,,C,92.2,,,C,,T,,M,,N,,M*20
20220704 120151+00:00 $HCHDT,123.6,T*2F
20220704 120151+00:00 $GPRMC,120146,A,4855.7796,N,12556.0598,W,9,127,040722,12.2,E,A,V*4E
20220704 120151+00:00 $WIMWV,125.4,R,5.99,N,A*14
20220704 120153+00:00 $IIMDA,29.9,I,1.011,B,12.3,C,,C,92.2,,,C,,T,,M,,N,,M*20
20220704 120153+00:00 $HCHDT,123.4,T*2D
20220704 120153+00:00 $GPRMC,120148,A,4855.7700,N,12556.0496,W,9,127,040722,12.2,E,A,V*40
20220704 120153+00:00 $WIMWV,123.99,R,3.89,N,A*21
20220704 120155+00:00 $IIMDA,29.9,I,1.011,B,12.3,C,,C,92.2,,,C,,T,,M,,N,,M*20
20220704 120155+00:00 $HCHDT,123.8,T*21
20220704 120155+00:00 $GPRMC,120150,A,4855.7700,N,12556.0496,W,8.9,127,040722,12.2,E,A,V*5F
20220704 120155+00:00 $WIMWV,123.29,R,2.59,N,A*26
20220704 120157+00:00 $IIMDA,29.9,I,1.011,B,12.3,C,,C,92.2,,,C,,T,,M,,N,,M*20
20220704 120157+00:00 $HCHDT,123.6,T*2F
20220704 120157+00:00 $GPRMC,120152,A,4855.7700,N,12556.0400,W,8.9,127,040722,12.2,E,A,V*52
20220704 120157+00:00 $WIMWV,146.6,R,2.68,N,A*1A
20220704 120159+00:00 $IIMDA,29.9,I,1.011,B,12.3,C,,C,92.2,,,C,,T,,M,,N,,M*20
20220704 120159+00:00 $HCHDT,123.5,T*2C
20220704 120159+00:00 $GPRMC,120154,A,4855.7598,N,12556.0298,W,9,127,040722,12.2,E,A,V*46
20220704 120159+00:00 $WIMWV,124.6,R,3.98,N,A*10
20220704 120201+00:00 $IIMDA,29.9,I,1.011,B,12.3,C,,C,92.2,,,C,,T,,M,,N,,M*20
20220704 120201+00:00 $HCHDT,124.1,T*2F
20220704 120201+00:00 $GPRMC,120156,A,4855.7598,N,12556.0298,W,9,126,040722,12.2,E,A,V*45
20220704 120201+00:00 $WIMWV,116.29,R,4.2,N,A*18
20220704 120203+00:00 $IIMDA,29.9,I,1.011,B,12.3,C,,C,92.2,,,C,,T,,M,,N,,M*20
20220704 120203+00:00 $HCHDT,124.8,T*26
20220704 120203+00:00 $GPRMC,120158,A,4855.7598,N,12556.0196,W,9.1,127,040722,12.2,E,A,V*58
20220704 120203+00:00 $WIMWV,123.79,R,5.19,N,A*20
20220704 120205+00:00 $IIMDA,29.9,I,1.011,B,12.3,C,,C,92.2,,,C,,T,,M,,N,,M*20
20220704 120205+00:00 $HCHDT,124.9,T*27
20220704 120205+00:00 $GPRMC,120200,A,4855.7496,N,12556.0196,W,9,127,040722,12.2,E,A,V*46
20220704 120205+00:00 $WIMWV,65.99,R,1.09,N,A*18
20220704 120207+00:00 $IIMDA,29.9,I,1.011,B,12.3,C,,C,92.2,,,C,,T,,M,,N,,M*20
20220704 120207+00:00 $HCHDT,124.8,T*26
20220704 120207+00:00 $GPRMC,120202,A,4855.7496,N,12556.0100,W,9,127,040722,12.2,E,A,V*4B
20220704 120207+00:00 $WIMWV,118.4,R,1.4,N,A*2A
20220704 120209+00:00 $IIMDA,29.9,I,1.011,B,12.3,C,,C,92.2,,,C,,T,,M,,N,,M*20
20220704 120209+00:00 $HCHDT,125.3,T*2C
20220704 120209+00:00 $GPRMC,120204,A,4855.7496,N,12555.9998,W,9,128,040722,12.2,E,A,V*41
20220704 120209+00:00 $WIMWV,118.2,R,3.89,N,A*1B
20220704 120211+00:00 $IIMDA,29.9,I,1.011,B,12.3,C,,C,92.3,,,C,,T,,M,,N,,M*21
20220704 120211+00:00 $HCHDT,125.7,T*28
20220704 120211+00:00 $GPRMC,120206,A,4855.7400,N,12555.9998,W,9,128,040722,12.2,E,A,V*4C
20220704 120211+00:00 $WIMWV,80.6,R,1.98,N,A*2D
20220704 120213+00:00 $IIMDA,29.9,I,1.011,B,12.3,C,,C,92.3,,,C,,T,,M,,N,,M*21
20220704 120213+00:00 $HCHDT,126,T*32
20220704 120213+00:00 $GPRMC,120208,A,4855.7400,N,12555.9896,W,9,128,040722,12.2,E,A,V*4D
20220704 120213+00:00 $WIMWV,117,R,4.3,N,A*3D
20220704 120215+00:00 $IIMDA,29.9,I,1.011,B,12.3,C,,C,92.3,,,C,,T,,M,,N,,M*21
20220704 120215+00:00 $HCHDT,125.4,T*2B
20220704 120215+00:00 $GPRMC,120210,A,4855.7400,N,12555.9896,W,9,128,040722,12.2,E,A,V*44
20220704 120215+00:00 $WIMWV,101.29,R,3.79,N,A*25
20220704 120217+00:00 $IIMDA,29.9,I,1.011,B,12.3,C,,C,92.3,,,C,,T,,M,,N,,M*21
20220704 120217+00:00 $HCHDT,124.3,T*2D
20220704 120217+00:00 $GPRMC,120212,A,4855.7400,N,12555.9800,W,9,128,040722,12.2,E,A,V*49
20220704 120217+00:00 $WIMWV,125.49,R,6.49,N,A*23
20220704 120219+00:00 $IIMDA,29.9,I,1.011,B,12.3,C,,C,92.3,,,C,,T,,M,,N,,M*21
20220704 120219+00:00 $HCHDT,123.8,T*21
20220704 120219+00:00 $GPRMC,120214,A,4855.7298,N,12555.9698,W,9.1,128,040722,12.2,E,A,V*58
20220704 120219+00:00 $WIMWV,110.6,R,4.49,N,A*1C
20220704 120221+00:00 $IIMDA,29.9,I,1.011,B,12.3,C,,C,92.3,,,C,,T,,M,,N,,M*21
20220704 120221+00:00 $HCHDT,124.3,T*2D
20220704 120221+00:00 $GPRMC,120216,A,4855.7298,N,12555.9698,W,9.1,128,040722,12.2,E,A,V*5A
20220704 120221+00:00 $WIMWV,124.89,R,6.49,N,A*2E
20220704 120223+00:00 $IIMDA,29.9,I,1.011,B,12.3,C,,C,92.3,,,C,,T,,M,,N,,M*21
20220704 120223+00:00 $HCHDT,124.8,T*26
20220704 120223+00:00 $GPRMC,120218,A,4855.7298,N,12555.9596,W,9.1,128,040722,12.2,E,A,V*59
20220704 120223+00:00 $WIMWV,117.99,R,5.48,N,A*2D
20220704 120225+00:00 $IIMDA,29.9,I,1.011,B,12.3,C,,C,92.3,,,C,,T,,M,,N,,M*21
20220704 120225+00:00 $HCHDT,124.5,T*2B
20220704 120225+00:00 $GPRMC,120220,A,4855.7196,N,12555.9500,W,9.1,128,040722,12.2,E,A,V*50
20220704 120225+00:00 $WIMWV,121.39,R,5.19,N,A*26
20220704 120227+00:00 $IIMDA,29.9,I,1.011,B,12.3,C,,C,92.3,,,C,,T,,M,,N,,M*21
20220704 120227+00:00 $HCHDT,124.1,T*2F
20220704 120227+00:00 $GPRMC,120222,A,4855.7196,N,12555.9500,W,9.1,128,040722,12.2,E,A,V*52
20220704 120227+00:00 $WIMWV,129.09,R,5.79,N,A*2B
20220704 120229+00:00 $IIMDA,29.9,I,1.011,B,12.3,C,,C,92.3,,,C,,T,,M,,N,,M*21
20220704 120229+00:00 $HCHDT,124.4,T*2A
20220704 120229+00:00 $GPRMC,120224,A,4855.7196,N,12555.9398,W,9,128,040722,12.2,E,A,V*4C
20220704 120229+00:00 $WIMWV,123.9,R,6.18,N,A*15
20220704 120231+00:00 $IIMDA,29.9,I,1.011,B,12.3,C,,C,92.3,,,C,,T,,M,,N,,M*21
20220704 120231+00:00 $HCHDT,124.3,T*2D
20220704 120231+00:00 $GPRMC,120226,A,4855.7100,N,12555.9398,W,9,128,040722,12.2,E,A,V*41
20220704 120231+00:00 $WIMWV,116.89,R,4.9,N,A*19
20220704 120233+00:00 $IIMDA,29.9,I,1.011,B,12.3,C,,C,92.3,,,C,,T,,M,,N,,M*21
20220704 120233+00:00 $HCHDT,124.2,T*2C
20220704 120233+00:00 $GPRMC,120228,A,4855.7100,N,12555.9296,W,9,128,040722,12.2,E,A,V*40
20220704 120233+00:00 $WIMWV,138.7,R,5.38,N,A*10
20220704 120235+00:00 $IIMDA,29.9,I,1.011,B,12.3,C,,C,92.3,,,C,,T,,M,,N,,M*21
20220704 120235+00:00 $HCHDT,124.5,T*2B
20220704 120235+00:00 $GPRMC,120230,A,4855.7100,N,12555.9200,W,9.1,128,040722,12.2,E,A,V*59
20220704 120235+00:00 $WIMWV,113.39,R,4.49,N,A*23
20220704 120237+00:00 $IIMDA,29.9,I,1.011,B,12.3,C,,C,92.2,,,C,,T,,M,,N,,M*20
20220704 120237+00:00 $HCHDT,124.5,T*2B
20220704 120237+00:00 $GPRMC,120232,A,4855.6998,N,12555.9200,W,9.1,128,040722,12.2,E,A,V*53
20220704 120237+00:00 $WIMWV,117.19,R,5.29,N,A*22
20220704 120239+00:00 $IIMDA,29.9,I,1.011,B,12.3,C,,C,92.2,,,C,,T,,M,,N,,M*20
20220704 120239+00:00 $HCHDT,124,T*30
20220704 120239+00:00 $GPRMC,120234,A,4855.6998,N,12555.9098,W,9.1,128,040722,12.2,E,A,V*56
20220704 120239+00:00 $WIMWV,115.9,R,5.6,N,A*2C
20220704 120241+00:00 $IIMDA,29.9,I,1.011,B,12.3,C,,C,92.2,,,C,,T,,M,,N,,M*20
20220704 120241+00:00 $HCHDT,123.5,T*2C
20220704 120241+00:00 $GPRMC,120236,A,4855.6998,N,12555.9098,W,9.1,127,040722,12.2,E,A,V*5B
20220704 120241+00:00 $WIMWV,117.3,R,5.19,N,A*1A
20220704 120243+00:00 $IIMDA,29.9,I,1.011,B,12.3,C,,C,92.2,,,C,,T,,M,,N,,M*20
20220704 120243+00:00 $HCHDT,123.7,T*2E
20220704 120243+00:00 $GPRMC,120238,A,4855.6998,N,12555.8996,W,9,127,040722,12.2,E,A,V*4C
20220704 120243+00:00 $WIMWV,82.99,R,3.09,N,A*13
20220704 120245+00:00 $IIMDA,29.9,I,1.011,B,12.3,C,,C,92.2,,,C,,T,,M,,N,,M*20
20220704 120245+00:00 $HCHDT,124.4,T*2A
20220704 120245+00:00 $GPRMC,120240,A,4855.6896,N,12555.8900,W,9,127,040722,12.2,E,A,V*43
20220704 120245+00:00 $WIMWV,120.2,R,7.79,N,A*1B
20220704 120247+00:00 $IIMDA,29.9,I,1.011,B,12.3,C,,C,92.2,,,C,,T,,M,,N,,M*20
20220704 120247+00:00 $HCHDT,124.5,T*2B
20220704 120247+00:00 $GPRMC,120242,A,4855.6896,N,12555.8900,W,9.1,128,040722,12.2,E,A,V*51
20220704 120247+00:00 $WIMWV,120.8,R,6.69,N,A*11
20220704 120249+00:00 $IIMDA,29.9,I,1.011,B,12.3,C,,C,92.2,,,C,,T,,M,,N,,M*20
20220704 120249+00:00 $HCHDT,123.6,T*2F
20220704 120249+00:00 $GPRMC,120244,A,4855.6896,N,12555.8798,W,9.1,128,040722,12.2,E,A,V*58
20220704 120249+00:00 $WIMWV,125.4,R,6.69,N,A*18
20220704 120251+00:00 $IIMDA,29.9,I,1.011,B,12.3,C,,C,92.1,,,C,,T,,M,,N,,M*23
20220704 120251+00:00 $HCHDT,122.4,T*2C
20220704 120251+00:00 $GPRMC,120246,A,4855.6800,N,12555.8798,W,9.1,128,040722,12.2,E,A,V*55
20220704 120251+00:00 $WIMWV,119.39,R,5.89,N,A*24
20220704 120253+00:00 $IIMDA,29.9,I,1.011,B,12.3,C,,C,92.1,,,C,,T,,M,,N,,M*23
20220704 120253+00:00 $HCHDT,122.3,T*2B
20220704 120253+00:00 $GPRMC,120248,A,4855.6800,N,12555.8696,W,9.1,127,040722,12.2,E,A,V*5B
20220704 120253+00:00 $WIMWV,115.1,R,5.6,N,A*24
20220704 120255+00:00 $IIMDA,29.9,I,1.011,B,12.3,C,,C,92.1,,,C,,T,,M,,N,,M*23
20220704 120255+00:00 $HCHDT,123.7,T*2E
20220704 120255+00:00 $GPRMC,120250,A,4855.6800,N,12555.8600,W,9,127,040722,12.2,E,A,V*42
20220704 120255+00:00 $WIMWV,125.49,R,6.88,N,A*2E
20220704 120257+00:00 $IIMDA,29.9,I,1.011,B,12.3,C,,C,92.1,,,C,,T,,M,,N,,M*23
20220704 120257+00:00 $HCHDT,124.8,T*26
20220704 120257+00:00 $GPRMC,120252,A,4855.6698,N,12555.8600,W,9,126,040722,12.2,E,A,V*4E
20220704 120257+00:00 $WIMWV,124.8,R,8.4,N,A*20
20220704 120259+00:00 $IIMDA,29.9,I,1.011,B,12.3,C,,C,92.1,,,C,,T,,M,,N,,M*23
20220704 120259+00:00 $HCHDT,124.3,T*2D
20220704 120259+00:00 $GPRMC,120254,A,4855.6698,N,12555.8498,W,9.1,127,040722,12.2,E,A,V*55
20220704 120259+00:00 $WIMWV,126.1,R,7.89,N,A*11
20220704 120301+00:00 $IIMDA,29.9,I,1.011,B,12.3,C,,C,92.1,,,C,,T,,M,,N,,M*23
20220704 120301+00:00 $HCHDT,124,T*30
20220704 120301+00:00 $GPRMC,120256,A,4855.6698,N,12555.8498,W,9.1,127,040722,12.2,E,A,V*57
20220704 120301+00:00 $WIMWV,125.49,R,7.19,N,A*27
20220704 120303+00:00 $IIMDA,29.9,I,1.011,B,12.3,C,,C,92.1,,,C,,T,,M,,N,,M*23
20220704 120303+00:00 $HCHDT,124.1,T*2F
20220704 120303+00:00 $GPRMC,120258,A,4855.6698,N,12555.8396,W,9.1,127,040722,12.2,E,A,V*50
20220704 120303+00:00 $WIMWV,126.5,R,5.89,N,A*17
20220704 120305+00:00 $IIMDA,29.9,I,1.011,B,12.3,C,,C,92,,,C,,T,,M,,N,,M*3C
20220704 120305+00:00 $HCHDT,124.3,T*2D
20220704 120305+00:00 $GPRMC,120300,A,4855.6596,N,12555.8300,W,9.1,127,040722,12.2,E,A,V*5E
20220704 120305+00:00 $WIMWV,86.89,R,3.98,N,A*1E
20220704 120307+00:00 $IIMDA,29.9,I,1.011,B,12.3,C,,C,92.1,,,C,,T,,M,,N,,M*23
20220704 120307+00:00 $HCHDT,125.3,T*2C
20220704 120307+00:00 $GPRMC,120302,A,4855.6596,N,12555.8300,W,9.1,127,040722,12.2,E,A,V*5C
20220704 120307+00:00 $WIMWV,110.99,R,2.9,N,A*18
20220704 120309+00:00 $IIMDA,29.9,I,1.011,B,12.3,C,,C,92,,,C,,T,,M,,N,,M*3C
20220704 120309+00:00 $HCHDT,125.6,T*29
20220704 120309+00:00 $GPRMC,120304,A,4855.6596,N,12555.8198,W,9.1,127,040722,12.2,E,A,V*59
20220704 120309+00:00 $WIMWV,126.39,R,8.88,N,A*24
20220704 120311+00:00 $IIMDA,29.9,I,1.011,B,12.3,C,,C,92,,,C,,T,,M,,N,,M*3C
20220704 120311+00:00 $HCHDT,125.3,T*2C
20220704 120311+00:00 $GPRMC,120306,A,4855.6500,N,12555.8096,W,9.1,127,040722,12.2,E,A,V*5B
20220704 120311+00:00 $WIMWV,121.2,R,7,N,A*3A
20220704 120313+00:00 $IIMDA,29.9,I,1.011,B,12.3,C,,C,92,,,C,,T,,M,,N,,M*3C
20220704 120313+00:00 $HCHDT,124.5,T*2B
20220704 120313+00:00 $GPRMC,120308,A,4855.6500,N,12555.8096,W,9.1,127,040722,12.2,E,A,V*55
20220704 120313+00:00 $WIMWV,120.49,R,7.48,N,A*26
20220704 120315+00:00 $IIMDA,29.9,I,1.011,B,12.3,C,,C,92,,,C,,T,,M,,N,,M*3C
20220704 120315+00:00 $HCHDT,124.1,T*2F
20220704 120315+00:00 $GPRMC,120310,A,4855.6500,N,12555.8000,W,9.1,127,040722,12.2,E,A,V*53
20220704 120315+00:00 $WIMWV,119.3,R,5.6,N,A*2A
20220704 120317+00:00 $IIMDA,29.9,I,1.011,B,12.3,C,,C,91.9,,,C,,T,,M,,N,,M*28
20220704 120317+00:00 $HCHDT,124.3,T*2D
20220704 120317+00:00 $GPRMC,120312,A,4855.6398,N,12555.8000,W,9.1,128,040722,12.2,E,A,V*59
20220704 120317+00:00 $WIMWV,124.39,R,5.99,N,A*2B
20220704 120319+00:00 $IIMDA,29.9,I,1.011,B,12.3,C,,C,91.9,,,C,,T,,M,,N,,M*28
20220704 120319+00:00 $HCHDT,124.5,T*2B
20220704 120319+00:00 $GPRMC,120314,A,4855.6398,N,12555.7898,W,9.1,128,040722,12.2,E,A,V*59
20220704 120319+00:00 $WIMWV,128.19,R,4.59,N,A*28
20220704 120321+00:00 $IIMDA,29.9,I,1.011,B,12.3,C,,C,91.9,,,C,,T,,M,,N,,M*28
20220704 120321+00:00 $HCHDT,124.8,T*26
20220704 120321+00:00 $GPRMC,120316,A,4855.6398,N,12555.7796,W,9.1,128,040722,12.2,E,A,V*5A
20220704 120321+00:00 $WIMWV,121.5,R,5.19,N,A*19
20220704 120323+00:00 $IIMDA,29.9,I,1.011,B,12.3,C,,C,91.8,,,C,,T,,M,,N,,M*29
20220704 120323+00:00 $HCHDT,124.6,T*28
20220704 120323+00:00 $GPRMC,120318,A,4855.6296,N,12555.7796,W,9.1,128,040722,12.2,E,A,V*5B
20220704 120323+00:00 $WIMWV,123.9,R,6.88,N,A*1C
20220704 120325+00:00 $IIMDA,29.9,I,1.011,B,12.3,C,,C,91.8,,,C,,T,,M,,N,,M*29
20220704 120325+00:00 $HCHDT,124.3,T*2D
20220704 120325+00:00 $GPRMC,120320,A,4855.6296,N,12555.7700,W,9.1,127,040722,12.2,E,A,V*50
20220704 120325+00:00 $WIMWV,112.9,R,4.59,N,A*10
20220704 120327+00:00 $IIMDA,29.9,I,1.011,B,12.3,C,,C,91.8,,,C,,T,,M,,N,,M*29
20220704 120327+00:00 $HCHDT,124.3,T*2D
20220704 120327+00:00 $GPRMC,120322,A,4855.6296,N,12555.7700,W,9.1,127,040722,12.2,E,A,V*52
20220704 120327+00:00 $WIMWV,121.79,R,4.78,N,A*24
20220704 120329+00:00 $IIMDA,29.9,I,1.011,B,12.3,C,,C,91.8,,,C,,T,,M,,N,,M*29
20220704 120329+00:00 $HCHDT,124.2,T*2C
20220704 120329+00:00 $GPRMC,120324,A,4855.6296,N,12555.7598,W,9.1,127,040722,12.2,E,A,V*57
20220704 120329+00:00 $WIMWV,119.3,R,1.4,N,A*2C
20220704 120331+00:00 $IIMDA,29.9,I,1.011,B,12.3,C,,C,91.8,,,C,,T,,M,,N,,M*29
20220704 120331+00:00 $HCHDT,124.1,T*2F
20220704 120331+00:00 $GPRMC,120326,A,4855.6200,N,12555.7496,W,9.1,127,040722,12.2,E,A,V*55
20220704 120331+00:00 $WIMWV,118.4,R,5.19,N,A*12
20220704 120333+00:00 $IIMDA,29.9,I,1.011,B,12.3,C,,C,91.8,,,C,,T,,M,,N,,M*29
20220704 120333+00:00 $HCHDT,123.8,T*21
20220704 120333+00:00 $GPRMC,120328,A,4855.6200,N,12555.7496,W,9.1,127,040722,12.2,E,A,V*5B
20220704 120333+00:00 $WIMWV,120.8,R,5,N,A*33
20220704 120335+00:00 $IIMDA,29.9,I,1.011,B,12.3,C,,C,91.8,,,C,,T,,M,,N,,M*29
20220704 120335+00:00 $HCHDT,123.8,T*21
20220704 120335+00:00 $GPRMC,120330,A,4855.6200,N,12555.7400,W,9.1,127,040722,12.2,E,A,V*5D
20220704 120335+00:00 $WIMWV,126.3,R,5.6,N,A*26
20220704 120337+00:00 $IIMDA,29.9,I,1.011,B,12.3,C,,C,91.8,,,C,,T,,M,,N,,M*29
20220704 120337+00:00 $HCHDT,124.1,T*2F
20220704 120337+00:00 $GPRMC,120332,A,4855.6098,N,12555.7400,W,9.1,127,040722,12.2,E,A,V*5C
20220704 120337+00:00 $WIMWV,119.5,R,4.39,N,A*11
20220704 120339+00:00 $IIMDA,29.9,I,1.011,B,12.3,C,,C,91.8,,,C,,T,,M,,N,,M*29
20220704 120339+00:00 $HCHDT,124.3,T*2D
20220704 120339+00:00 $GPRMC,120334,A,4855.6098,N,12555.7298,W,9.1,127,040722,12.2,E,A,V*5D
20220704 120339+00:00 $WIMWV,117.1,R,3.69,N,A*19
20220704 120341+00:00 $IIMDA,29.9,I,1.011,B,12.3,C,,C,91.9,,,C,,T,,M,,N,,M*28
20220704 120341+00:00 $HCHDT,123.8,T*21
20220704 120341+00:00 $GPRMC,120336,A,4855.6098,N,12555.7196,W,9.1,127,040722,12.2,E,A,V*52
20220704 120341+00:00 $WIMWV,122.69,R,4.49,N,A*24
20220704 120343+00:00 $IIMDA,29.9,I,1.011,B,12.3,C,,C,91.8,,,C,,T,,M,,N,,M*29
20220704 120343+00:00 $HCHDT,123.4,T*2D
20220704 120343+00:00 $GPRMC,120338,A,4855.5996,N,12555.7196,W,9.1,127,040722,12.2,E,A,V*58
20220704 120343+00:00 $WIMWV,118.49,R,3.6,N,A*13
20220704 120345+00:00 $IIMDA,29.9,I,1.011,B,12.3,C,,C,91.8,,,C,,T,,M,,N,,M*29
20220704 120345+00:00 $HCHDT,123.2,T*2B
20220704 120345+00:00 $GPRMC,120340,A,4855.5996,N,12555.7100,W,9.1,127,040722,12.2,E,A,V*58
20220704 120345+00:00 $WIMWV,111.3,R,3.98,N,A*13
20220704 120347+00:00 $IIMDA,29.9,I,1.011,B,12.3,C,,C,91.9,,,C,,T,,M,,N,,M*28
20220704 120347+00:00 $HCHDT,123.4,T*2D
20220704 120347+00:00 $GPRMC,120342,A,4855.5996,N,12555.6998,W,9.1,127,040722,12.2,E,A,V*52
20220704 120347+00:00 $WIMWV,124.1,R,4.2,N,A*23
20220704 120349+00:00 $IIMDA,29.9,I,1.011,B,12.3,C,,C,91.9,,,C,,T,,M,,N,,M*28
20220704 120349+00:00 $HCHDT,123.4,T*2D
20220704 120349+00:00 $GPRMC,120344,A,4855.5996,N,12555.6998,W,9.1,126,040722,12.2,E,A,V*55
20220704 120349+00:00 $WIMWV,124.49,R,4.49,N,A*20
20220704 120351+00:00 $IIMDA,29.9,I,1.011,B,12.3,C,,C,91.9,,,C,,T,,M,,N,,M*28
20220704 120351+00:00 $HCHDT,123.5,T*2C
20220704 120351+00:00 $GPRMC,120346,A,4855.5900,N,12555.6896,W,9.1,127,040722,12.2,E,A,V*56
20220704 120351+00:00 $WIMWV,124.49,R,4.39,N,A*27
20220704 120353+00:00 $IIMDA,29.9,I,1.011,B,12.3,C,,C,92,,,C,,T,,M,,N,,M*3C
20220704 120353+00:00 $HCHDT,123.3,T*2A
20220704 120353+00:00 $GPRMC,120348,A,4855.5900,N,12555.6896,W,9.1,127,040722,12.2,E,A,V*58
20220704 120353+00:00 $WIMWV,120.1,R,5.09,N,A*1D
20220704 120355+00:00 $IIMDA,29.9,I,1.011,B,12.3,C,,C,92,,,C,,T,,M,,N,,M*3C
20220704 120355+00:00 $HCHDT,123.4,T*2D
20220704 120355+00:00 $GPRMC,120350,A,4855.5900,N,12555.6800,W,9.1,126,040722,12.2,E,A,V*5F
20220704 120355+00:00 $WIMWV,156.49,R,2.2,N,A*1C
20220704 120357+00:00 $IIMDA,29.9,I,1.011,B,12.3,C,,C,92,,,C,,T,,M,,N,,M*3C
20220704 120357+00:00 $HCHDT,124,T*30
20220704 120357+00:00 $GPRMC,120352,A,4855.5798,N,12555.6698,W,9.1,126,040722,12.2,E,A,V*5D
20220704 120357+00:00 $WIMWV,120.4,R,3.09,N,A*1E
20220704 120359+00:00 $IIMDA,29.9,I,1.011,B,12.3,C,,C,92,,,C,,T,,M,,N,,M*3C
20220704 120359+00:00 $HCHDT,124.6,T*28
20220704 120359+00:00 $GPRMC,120354,A,4855.5798,N,12555.6698,W,9.1,126,040722,12.2,E,A,V*5B
20220704 120359+00:00 $WIMWV,114.09,R,3.19,N,A*25
20220704 120401+00:00 $IIMDA,29.9,I,1.011,B,12.3,C,,C,92,,,C,,T,,M,,N,,M*3C
20220704 120401+00:00 $HCHDT,124.4,T*2A
20220704 120401+00:00 $GPRMC,120356,A,4855.5798,N,12555.6596,W,9.1,126,040722,12.2,E,A,V*54
20220704 120401+00:00 $WIMWV,134.19,R,2.59,N,A*23
20220704 120403+00:00 $IIMDA,29.9,I,1.011,B,12.3,C,,C,92.1,,,C,,T,,M,,N,,M*23
20220704 120403+00:00 $HCHDT,124.2,T*2C
20220704 120403+00:00 $GPRMC,120358,A,4855.5696,N,12555.6596,W,9.19,126,040722,12.2,E,A,V*6C
20220704 120403+00:00 $WIMWV,125.79,R,5.48,N,A*22
20220704 120405+00:00 $IIMDA,29.9,I,1.011,B,12.3,C,,C,92.1,,,C,,T,,M,,N,,M*23
20220704 120405+00:00 $HCHDT,124.6,T*28
20220704 120405+00:00 $GPRMC,120400,A,4855.5696,N,12555.6500,W,9.19,127,040722,12.2,E,A,V*68
20220704 120405+00:00 $WIMWV,124.6,R,6.08,N,A*1C
20220704 120407+00:00 $IIMDA,29.9,I,1.011,B,12.3,C,,C,92.2,,,C,,T,,M,,N,,M*20
20220704 120407+00:00 $HCHDT,125.6,T*29
20220704 120407+00:00 $GPRMC,120402,A,4855.5696,N,12555.6398,W,9.19,127,040722,12.2,E,A,V*6D
20220704 120407+00:00 $WIMWV,113.59,R,5.48,N,A*25
20220704 120409+00:00 $IIMDA,29.9,I,1.011,B,12.3,C,,C,92.2,,,C,,T,,M,,N,,M*20
20220704 120409+00:00 $HCHDT,126.1,T*2D
20220704 120409+00:00 $GPRMC,120404,A,4855.5696,N,12555.6398,W,9.1,127,040722,12.2,E,A,V*52
20220704 120409+00:00 $WIMWV,119,R,3.5,N,A*32
20220704 120411+00:00 $IIMDA,29.9,I,1.011,B,12.3,C,,C,92.2,,,C,,T,,M,,N,,M*20
20220704 120411+00:00 $HCHDT,126.1,T*2D
20220704 120411+00:00 $GPRMC,120406,A,4855.5600,N,12555.6296,W,9.1,127,040722,12.2,E,A,V*50
20220704 120411+00:00 $WIMWV,114.4,R,2.68,N,A*1F
20220704 120413+00:00 $IIMDA,29.9,I,1.011,B,12.3,C,,C,92.3,,,C,,T,,M,,N,,M*21
20220704 120413+00:00 $HCHDT,125.7,T*28
20220704 120413+00:00 $GPRMC,120408,A,4855.5600,N,12555.6200,W,9.1,128,040722,12.2,E,A,V*5E
20220704 120413+00:00 $WIMWV,111.3,R,3.5,N,A*27
20220704 120415+00:00 $IIMDA,29.9,I,1.011,B,12.3,C,,C,92.3,,,C,,T,,M,,N,,M*21
20220704 120415+00:00 $HCHDT,124.6,T*28
20220704 120415+00:00 $GPRMC,120410,A,4855.5600,N,12555.6200,W,9.1,128,040722,12.2,E,A,V*57
20220704 120415+00:00 $WIMWV,121.79,R,7.29,N,A*23
20220704 120417+00:00 $IIMDA,29.9,I,1.011,B,12.3,C,,C,92.3,,,C,,T,,M,,N,,M*21
20220704 120417+00:00 $HCHDT,124.5,T*2B
20220704 120417+00:00 $GPRMC,120412,A,4855.5498,N,12555.6098,W,9.19,128,040722,12.2,E,A,V*6C
20220704 120417+00:00 $WIMWV,249.09,R,0.99,N,A*25
20220704 120419+00:00 $IIMDA,29.9,I,1.011,B,12.3,C,,C,92.3,,,C,,T,,M,,N,,M*21
20220704 120419+00:00 $HCHDT,125.1,T*2E
20220704 120419+00:00 $GPRMC,120414,A,4855.5498,N,12555.6098,W,9.19,128,040722,12.2,E,A,V*6A
20220704 120419+00:00 $WIMWV,114.2,R,5.48,N,A*1C
20220704 120421+00:00 $IIMDA,29.9,I,1.011,B,12.3,C,,C,92.3,,,C,,T,,M,,N,,M*21
20220704 120421+00:00 $HCHDT,125.5,T*2A
20220704 120421+00:00 $GPRMC,120416,A,4855.5498,N,12555.5996,W,9.19,128,040722,12.2,E,A,V*6C
20220704 120421+00:00 $WIMWV,116.2,R,4.78,N,A*1C
20220704 120423+00:00 $IIMDA,29.9,I,1.011,B,12.3,C,,C,92.3,,,C,,T,,M,,N,,M*21
20220704 120423+00:00 $HCHDT,125,T*31
20220704 120423+00:00 $GPRMC,120418,A,4855.5396,N,12555.5900,W,9.19,128,040722,12.2,E,A,V*64
20220704 120423+00:00 $WIMWV,114.4,R,4.9,N,A*2E
20220704 120425+00:00 $IIMDA,29.9,I,1.011,B,12.3,C,,C,92.3,,,C,,T,,M,,N,,M*21
20220704 120425+00:00 $HCHDT,124.2,T*2C
20220704 120425+00:00 $GPRMC,120420,A,4855.5396,N,12555.5900,W,9.19,128,040722,12.2,E,A,V*6F
20220704 120425+00:00 $WIMWV,125.29,R,7,N,A*07
20220704 120427+00:00 $IIMDA,29.9,I,1.011,B,12.3,C,,C,92.3,,,C,,T,,M,,N,,M*21
20220704 120427+00:00 $HCHDT,123.8,T*21
20220704 120427+00:00 $GPRMC,120422,A,4855.5396,N,12555.5798,W,9.19,128,040722,12.2,E,A,V*62
20220704 120427+00:00 $WIMWV,122.49,R,5.38,N,A*21
20220704 120429+00:00 $IIMDA,29.9,I,1.011,B,12.3,C,,C,92.3,,,C,,T,,M,,N,,M*21
20220704 120429+00:00 $HCHDT,123.8,T*21
20220704 120429+00:00 $GPRMC,120424,A,4855.5300,N,12555.5798,W,9.19,128,040722,12.2,E,A,V*6B
20220704 120429+00:00 $WIMWV,82.09,R,2.99,N,A*12
20220704 120431+00:00 $IIMDA,29.9,I,1.011,B,12.3,C,,C,92.3,,,C,,T,,M,,N,,M*21
20220704 120431+00:00 $HCHDT,124.5,T*2B
20220704 120431+00:00 $GPRMC,120426,A,4855.5300,N,12555.5696,W,9.19,128,040722,12.2,E,A,V*66
20220704 120431+00:00 $WIMWV,130.79,R,4.3,N,A*18
20220704 120433+00:00 $IIMDA,29.9,I,1.011,B,12.3,C,,C,92.3,,,C,,T,,M,,N,,M*21
20220704 120433+00:00 $HCHDT,124.2,T*2C
20220704 120433+00:00 $GPRMC,120428,A,4855.5300,N,12555.5600,W,9.19,127,040722,12.2,E,A,V*68
20220704 120433+00:00 $WIMWV,121,R,7.1,N,A*39
20220704 120435+00:00 $IIMDA,29.9,I,1.011,B,12.3,C,,C,92.3,,,C,,T,,M,,N,,M*21
20220704 120435+00:00 $HCHDT,123.6,T*2F
20220704 120435+00:00 $GPRMC,120430,A,4855.5300,N,12555.5600,W,9.19,127,040722,12.2,E,A,V*61
20220704 120435+00:00 $WIMWV,121.99,R,6.4,N,A*13
20220704 120437+00:00 $IIMDA,29.9,I,1.011,B,12.3,C,,C,92.3,,,C,,T,,M,,N,,M*21
20220704 120437+00:00 $HCHDT,123.4,T*2D
20220704 120437+00:00 $GPRMC,120432,A,4855.5198,N,12555.5498,W,9.19,127,040722,12.2,E,A,V*63
20220704 120437+00:00 $WIMWV,122.49,R,4.78,N,A*24
20220704 120439+00:00 $IIMDA,29.9,I,1.011,B,12.3,C,,C,92.3,,,C,,T,,M,,N,,M*21
20220704 120439+00:00 $HCHDT,123.2,T*2B
20220704 120439+00:00 $GPRMC,120434,A,4855.5198,N,12555.5396,W,9.19,126,040722,12.2,E,A,V*6D
20220704 120439+00:00 $WIMWV,120.6,R,4.2,N,A*20
20220704 120441+00:00 $IIMDA,29.9,I,1.011,B,12.3,C,,C,92.3,,,C,,T,,M,,N,,M*21
20220704 120441+00:00 $HCHDT,123.6,T*2F
20220704 120441+00:00 $GPRMC,120436,A,4855.5198,N,12555.5396,W,9.19,126,040722,12.2,E,A,V*6F
20220704 120441+00:00 $WIMWV,133.09,R,4.49,N,A*22
20220704 120443+00:00 $IIMDA,29.9,I,1.011,B,12.3,C,,C,92.3,,,C,,T,,M,,N,,M*21
20220704 120443+00:00 $HCHDT,124.5,T*2B
20220704 120443+00:00 $GPRMC,120438,A,4855.5096,N,12555.5300,W,9.19,126,040722,12.2,E,A,V*61
20220704 120443+00:00 $WIMWV,118.29,R,5.6,N,A*13
20220704 120445+00:00 $IIMDA,29.9,I,1.011,B,12.3,C,,C,92.3,,,C,,T,,M,,N,,M*21
20220704 120445+00:00 $HCHDT,125.3,T*2C
20220704 120445+00:00 $GPRMC,120440,A,4855.5096,N,12555.5300,W,9.19,127,040722,12.2,E,A,V*6F
20220704 120445+00:00 $WIMWV,125.9,R,6.78,N,A*15
20220704 120447+00:00 $IIMDA,29.9,I,1.011,B,12.3,C,,C,92.3,,,C,,T,,M,,N,,M*21
20220704 120447+00:00 $HCHDT,125.4,T*2B
20220704 120447+00:00 $GPRMC,120442,A,4855.5096,N,12555.5198,W,9.19,127,040722,12.2,E,A,V*6E
20220704 120447+00:00 $WIMWV,109.89,R,4.3,N,A*1D
20220704 120449+00:00 $IIMDA,29.9,I,1.011,B,12.3,C,,C,92.2,,,C,,T,,M,,N,,M*20
20220704 120449+00:00 $HCHDT,125.1,T*2E
20220704 120449+00:00 $GPRMC,120444,A,4855.5000,N,12555.5096,W,9.19,127,040722,12.2,E,A,V*68
20220704 120449+00:00 $WIMWV,133.2,R,4.59,N,A*18
20220704 120451+00:00 $IIMDA,29.9,I,1.011,B,12.3,C,,C,92.2,,,C,,T,,M,,N,,M*20
20220704 120451+00:00 $HCHDT,125.2,T*2D
20220704 120451+00:00 $GPRMC,120446,A,4855.5000,N,12555.5096,W,9.19,127,040722,12.2,E,A,V*6A
20220704 120451+00:00 $WIMWV,129.6,R,4.2,N,A*29
20220704 120453+00:00 $IIMDA,29.9,I,1.011,B,12.3,C,,C,92.2,,,C,,T,,M,,N,,M*20
20220704 120453+00:00 $HCHDT,125.6,T*29
20220704 120453+00:00 $GPRMC,120448,A,4855.5000,N,12555.5000,W,9.19,127,040722,12.2,E,A,V*6B
20220704 120453+00:00 $WIMWV,125.49,R,6.78,N,A*21
20220704 120455+00:00 $IIMDA,29.9,I,1.011,B,12.3,C,,C,92.2,,,C,,T,,M,,N,,M*20
20220704 120455+00:00 $HCHDT,125.8,T*27
20220704 120455+00:00 $GPRMC,120450,A,4855.4898,N,12555.5000,W,9.19,128,040722,12.2,E,A,V*65
20220704 120455+00:00 $WIMWV,126.89,R,5.99,N,A*22
20220704 120457+00:00 $IIMDA,29.9,I,1.011,B,12.3,C,,C,92.2,,,C,,T,,M,,N,,M*20
20220704 120457+00:00 $HCHDT,125.6,T*29
20220704 120457+00:00 $GPRMC,120452,A,4855.4898,N,12555.4898,W,9.19,128,040722,12.2,E,A,V*6F
20220704 120457+00:00 $WIMWV,123.4,R,5.6,N,A*24
20220704 120459+00:00 $IIMDA,29.9,I,1.011,B,12.3,C,,C,92.2,,,C,,T,,M,,N,,M*20
20220704 120459+00:00 $HCHDT,125.3,T*2C
20220704 120459+00:00 $GPRMC,120454,A,4855.4898,N,12555.4796,W,9.19,128,040722,12.2,E,A,V*68
20220704 120459+00:00 $WIMWV,133.2,R,3.09,N,A*1A
20220704 120501+00:00 $IIMDA,29.9,I,1.011,B,12.3,C,,C,92.2,,,C,,T,,M,,N,,M*20
20220704 120501+00:00 $HCHDT,124.4,T*2A
20220704 120501+00:00 $GPRMC,120456,A,4855.4796,N,12555.4796,W,9.19,128,040722,12.2,E,A,V*6B
20220704 120501+00:00 $WIMWV,116.89,R,4.2,N,A*12
20220704 120503+00:00 $IIMDA,29.9,I,1.011,B,12.3,C,,C,92.2,,,C,,T,,M,,N,,M*20
20220704 120503+00:00 $HCHDT,123.8,T*21
20220704 120503+00:00 $GPRMC,120458,A,4855.4796,N,12555.4700,W,9.19,128,040722,12.2,E,A,V*6A
20220704 120503+00:00 $WIMWV,133.89,R,4.68,N,A*29
20220704 120505+00:00 $IIMDA,29.9,I,1.011,B,12.3,C,,C,92.3,,,C,,T,,M,,N,,M*21
20220704 120505+00:00 $HCHDT,123.7,T*2E
20220704 120505+00:00 $GPRMC,120500,A,4855.4796,N,12555.4598,W,9.19,128,040722,12.2,E,A,V*65
20220704 120505+00:00 $WIMWV,128.8,R,2.8,N,A*2A
20220704 120507+00:00 $IIMDA,29.9,I,1.011,B,12.3,C,,C,92.3,,,C,,T,,M,,N,,M*21
20220704 120507+00:00 $HCHDT,123.7,T*2E
20220704 120507+00:00 $GPRMC,120502,A,4855.4796,N,12555.4598,W,9.19,127,040722,12.2,E,A,V*68
20220704 120507+00:00 $WIMWV,304.39,R,1.89,N,A*2E
20220704 120509+00:00 $IIMDA,29.9,I,1.011,B,12.3,C,,C,92.3,,,C,,T,,M,,N,,M*21
20220704 120509+00:00 $HCHDT,123.6,T*2F
20220704 120509+00:00 $GPRMC,120504,A,4855.4700,N,12555.4496,W,9.19,127,040722,12.2,E,A,V*6E
20220704 120509+00:00 $WIMWV,123.09,R,3.09,N,A*20
20220704 120511+00:00 $IIMDA,29.9,I,1.011,B,12.3,C,,C,92.3,,,C,,T,,M,,N,,M*21
20220704 120511+00:00 $HCHDT,123.3,T*2A
20220704 120511+00:00 $GPRMC,120506,A,4855.4700,N,12555.4496,W,9.19,127,040722,12.2,E,A,V*6C
20220704 120511+00:00 $WIMWV,123.09,R,6.08,N,A*24
20220704 120513+00:00 $IIMDA,29.9,I,1.011,B,12.3,C,,C,92.3,,,C,,T,,M,,N,,M*21
20220704 120513+00:00 $HCHDT,123.2,T*2B
20220704 120513+00:00 $GPRMC,120508,A,4855.4700,N,12555.4400,W,9.19,126,040722,12.2,E,A,V*6C
20220704 120513+00:00 $WIMWV,121.3,R,5.38,N,A*1C
20220704 120515+00:00 $IIMDA,29.9,I,1.011,B,12.3,C,,C,92.3,,,C,,T,,M,,N,,M*21
20220704 120515+00:00 $HCHDT,124.1,T*2F
20220704 120515+00:00 $GPRMC,120510,A,4855.4598,N,12555.4298,W,9.19,126,040722,12.2,E,A,V*61
20220704 120515+00:00 $WIMWV,119.99,R,4.9,N,A*17
20220704 120517+00:00 $IIMDA,29.9,I,1.011,B,12.3,C,,C,92.4,,,C,,T,,M,,N,,M*26
20220704 120517+00:00 $HCHDT,124.3,T*2D
20220704 120517+00:00 $GPRMC,120512,A,4855.4598,N,12555.4298,W,9.19,126,040722,12.2,E,A,V*63
20220704 120517+00:00 $WIMWV,116.2,R,2.9,N,A*2C
20220704 120519+00:00 $IIMDA,29.9,I,1.011,B,12.3,C,,C,92.3,,,C,,T,,M,,N,,M*21
20220704 120519+00:00 $HCHDT,125,T*31
20220704 120519+00:00 $GPRMC,120514,A,4855.4598,N,12555.4196,W,9.19,126,040722,12.2,E,A,V*68
20220704 120519+00:00 $WIMWV,100.7,R,2.1,N,A*26
20220704 120521+00:00 $IIMDA,29.9,I,1.011,B,12.3,C,,C,92.4,,,C,,T,,M,,N,,M*26
20220704 120521+00:00 $HCHDT,125.2,T*2D
20220704 120521+00:00 $GPRMC,120516,A,4855.4496,N,12555.4100,W,9.19,127,040722,12.2,E,A,V*6B
20220704 120521+00:00 $WIMWV,122.8,R,5.09,N,A*16
20220704 120523+00:00 $IIMDA,29.9,I,1.011,B,12.3,C,,C,92.4,,,C,,T,,M,,N,,M*26
20220704 120523+00:00 $HCHDT,124.8,T*26
20220704 120523+00:00 $GPRMC,120518,A,4855.4496,N,12555.4100,W,9.19,127,040722,12.2,E,A,V*65
20220704 120523+00:00 $WIMWV,85.3,R,2.68,N,A*21
20220704 120525+00:00 $IIMDA,29.9,I,1.011,B,12.3,C,,C,92.4,,,C,,T,,M,,N,,M*26
20220704 120525+00:00 $HCHDT,124.6,T*28
20220704 120525+00:00 $GPRMC,120520,A,4855.4496,N,12555.3998,W,9.19,127,040722,12.2,E,A,V*60
20220704 120525+00:00 $WIMWV,95,R,2.29,N,A*38
20220704 120527+00:00 $IIMDA,29.9,I,1.011,B,12.3,C,,C,92.4,,,C,,T,,M,,N,,M*26
20220704 120527+00:00 $HCHDT,124.9,T*27
20220704 120527+00:00 $GPRMC,120522,A,4855.4400,N,12555.3998,W,9.19,127,040722,12.2,E,A,V*6D
20220704 120527+00:00 $WIMWV,75.8,R,0.58,N,A*24
20220704 120529+00:00 $IIMDA,29.9,I,1.011,B,12.3,C,,C,92.4,,,C,,T,,M,,N,,M*26
20220704 120529+00:00 $HCHDT,125.2,T*2D
20220704 120529+00:00 $GPRMC,120524,A,4855.4400,N,12555.3896,W,9.19,127,040722,12.2,E,A,V*64
20220704 120529+00:00 $WIMWV,126.1,R,6.3,N,A*22
20220704 120531+00:00 $IIMDA,29.9,I,1.011,B,12.3,C,,C,92.4,,,C,,T,,M,,N,,M*26
20220704 120531+00:00 $HCHDT,125.5,T*2A
20220704 120531+00:00 $GPRMC,120526,A,4855.4400,N,12555.3800,W,9.19,127,040722,12.2,E,A,V*69
20220704 120531+00:00 $WIMWV,117.3,R,4.3,N,A*20
20220704 120533+00:00 $IIMDA,29.9,I,1.011,B,12.3,C,,C,92.4,,,C,,T,,M,,N,,M*26
20220704 120533+00:00 $HCHDT,125.4,T*2B
20220704 120533+00:00 $GPRMC,120528,A,4855.4400,N,12555.3800,W,9.19,127,040722,12.2,E,A,V*67
20220704 120533+00:00 $WIMWV,124.49,R,5.7,N,A*1B
20220704 120535+00:00 $IIMDA,29.9,I,1.011,B,12.3,C,,C,92.4,,,C,,T,,M,,N,,M*26
20220704 120535+00:00 $HCHDT,124.5,T*2B
20220704 120535+00:00 $GPRMC,120530,A,4855.4298,N,12555.3698,W,9.19,127,040722,12.2,E,A,V*66
20220704 120535+00:00 $WIMWV,127.9,R,4.9,N,A*23
20220704 120537+00:00 $IIMDA,29.9,I,1.011,B,12.3,C,,C,92.4,,,C,,T,,M,,N,,M*26
20220704 120537+00:00 $HCHDT,124.7,T*29
20220704 120537+00:00 $GPRMC,120532,A,4855.4298,N,12555.3698,W,9.19,127,040722,12.2,E,A,V*64
20220704 120537+00:00 $WIMWV,123.99,R,3.98,N,A*21
20220704 120539+00:00 $IIMDA,29.9,I,1.011,B,12.3,C,,C,92.4,,,C,,T,,M,,N,,M*26
20220704 120539+00:00 $HCHDT,124.7,T*29
20220704 120539+00:00 $GPRMC,120534,A,4855.4298,N,12555.3596,W,9.19,127,040722,12.2,E,A,V*6F
20220704 120539+00:00 $WIMWV,116.6,R,3.09,N,A*19
20220704 120541+00:00 $IIMDA,29.9,I,1.011,B,12.3,C,,C,92.4,,,C,,T,,M,,N,,M*26
20220704 120541+00:00 $HCHDT,124.8,T*26
20220704 120541+00:00 $GPRMC,120536,A,4855.4196,N,12555.3500,W,9.19,127,040722,12.2,E,A,V*6F
20220704 120541+00:00 $WIMWV,123.59,R,5.19,N,A*22
20220704 120543+00:00 $IIMDA,29.9,I,1.011,B,12.3,C,,C,92.4,,,C,,T,,M,,N,,M*26
20220704 120543+00:00 $HCHDT,125.4,T*2B
20220704 120543+00:00 $GPRMC,120538,A,4855.4196,N,12555.3500,W,9.19,127,040722,12.2,E,A,V*61
20220704 120543+00:00 $WIMWV,125.49,R,6.59,N,A*22
20220704 120545+00:00 $IIMDA,29.9,I,1.011,B,12.3,C,,C,92.5,,,C,,T,,M,,N,,M*27
20220704 120545+00:00 $HCHDT,125.5,T*2A
20220704 120545+00:00 $GPRMC,120540,A,4855.4196,N,12555.3398,W,9.19,127,040722,12.2,E,A,V*69
20220704 120545+00:00 $WIMWV,119.9,R,4.3,N,A*24
20220704 120547+00:00 $IIMDA,29.9,I,1.011,B,12.3,C,,C,92.5,,,C,,T,,M,,N,,M*27
20220704 120547+00:00 $HCHDT,125,T*31
20220704 120547+00:00 $GPRMC,120542,A,4855.4100,N,12555.3296,W,9.19,127,040722,12.2,E,A,V*6B
20220704 120547+00:00 $WIMWV,118.8,R,6.59,N,A*19
20220704 120549+00:00 $IIMDA,29.9,I,1.011,B,12.3,C,,C,92.5,,,C,,T,,M,,N,,M*27
20220704 120549+00:00 $HCHDT,124.5,T*2B
20220704 120549+00:00 $GPRMC,120544,A,4855.4100,N,12555.3296,W,9.19,127,040722,12.2,E,A,V*6D
20220704 120549+00:00 $WIMWV,121.2,R,7.7,N,A*23
20220704 120551+00:00 $IIMDA,29.9,I,1.011,B,12.3,C,,C,92.5,,,C,,T,,M,,N,,M*27
20220704 120551+00:00 $HCHDT,124.7,T*29
20220704 120551+00:00 $GPRMC,120546,A,4855.4100,N,12555.3200,W,9.19,127,040722,12.2,E,A,V*60
20220704 120551+00:00 $WIMWV,122.19,R,6.49,N,A*21
20220704 120553+00:00 $IIMDA,29.9,I,1.011,B,12.3,C,,C,92.4,,,C,,T,,M,,N,,M*26
20220704 120553+00:00 $HCHDT,125.1,T*2E
20220704 120553+00:00 $GPRMC,120548,A,4855.3998,N,12555.3200,W,9.19,127,040722,12.2,E,A,V*60
20220704 120553+00:00 $WIMWV,122.49,R,6.59,N,A*25
20220704 120555+00:00 $IIMDA,29.9,I,1.011,B,12.3,C,,C,92.5,,,C,,T,,M,,N,,M*27
20220704 120555+00:00 $HCHDT,125.6,T*29
20220704 120555+00:00 $GPRMC,120550,A,4855.3998,N,12555.3098,W,9.19,127,040722,12.2,E,A,V*6A
20220704 120555+00:00 $WIMWV,121.99,R,3.98,N,A*23
20220704 120557+00:00 $IIMDA,29.9,I,1.011,B,12.3,C,,C,92.4,,,C,,T,,M,,N,,M*26
20220704 120557+00:00 $HCHDT,125.6,T*29
20220704 120557+00:00 $GPRMC,120552,A,4855.3998,N,12555.2996,W,9.19,127,040722,12.2,E,A,V*6E
20220704 120557+00:00 $WIMWV,115.9,R,3.98,N,A*1D
20220704 120559+00:00 $IIMDA,29.9,I,1.011,B,12.3,C,,C,92.4,,,C,,T,,M,,N,,M*26
20220704 120559+00:00 $HCHDT,125.1,T*2E
20220704 120559+00:00 $GPRMC,120554,A,4855.3998,N,12555.2996,W,9.19,127,040722,12.2,E,A,V*68
20220704 120559+00:00 $WIMWV,115.9,R,3.38,N,A*17
20220704 120601+00:00 $IIMDA,29.9,I,1.011,B,12.3,C,,C,92.4,,,C,,T,,M,,N,,M*26
20220704 120601+00:00 $HCHDT,124.2,T*2C
20220704 120601+00:00 $GPRMC,120556,A,4855.3896,N,12555.2900,W,9.19,127,040722,12.2,E,A,V*6A
20220704 120601+00:00 $WIMWV,116.8,R,3.89,N,A*1F
20220704 120603+00:00 $IIMDA,29.9,I,1.011,B,12.3,C,,C,92.4,,,C,,T,,M,,N,,M*26
20220704 120603+00:00 $HCHDT,123.9,T*20
20220704 120603+00:00 $GPRMC,120558,A,4855.3896,N,12555.2798,W,9.19,127,040722,12.2,E,A,V*6B
20220704 120603+00:00 $WIMWV,128.19,R,5.19,N,A*2D
20220704 120605+00:00 $IIMDA,29.9,I,1.011,B,12.3,C,,C,92.4,,,C,,T,,M,,N,,M*26
20220704 120605+00:00 $HCHDT,125,T*31
20220704 120605+00:00 $GPRMC,120600,A,4855.3896,N,12555.2798,W,9.19,127,040722,12.2,E,A,V*65
20220704 120605+00:00 $WIMWV,121.39,R,3.98,N,A*29
20220704 120607+00:00 $IIMDA,29.9,I,1.011,B,12.3,C,,C,92.4,,,C,,T,,M,,N,,M*26
20220704 120607+00:00 $HCHDT,125.4,T*2B
20220704 120607+00:00 $GPRMC,120602,A,4855.3800,N,12555.2696,W,9.19,127,040722,12.2,E,A,V*67
20220704 120607+00:00 $WIMWV,68.8,R,2.29,N,A*2C
20220704 120609+00:00 $IIMDA,29.9,I,1.011,B,12.3,C,,C,92.5,,,C,,T,,M,,N,,M*27
20220704 120609+00:00 $HCHDT,126.2,T*2E
20220704 120609+00:00 $GPRMC,120604,A,4855.3800,N,12555.2696,W,9.19,127,040722,12.2,E,A,V*61
20220704 120609+00:00 $WIMWV,125.9,R,5.29,N,A*12
20220704 120611+00:00 $IIMDA,29.9,I,1.011,B,12.3,C,,C,92.4,,,C,,T,,M,,N,,M*26
20220704 120611+00:00 $HCHDT,125.4,T*2B
20220704 120611+00:00 $GPRMC,120606,A,4855.3800,N,12555.2600,W,9.19,127,040722,12.2,E,A,V*6C
20220704 120611+00:00 $WIMWV,132.39,R,3.5,N,A*1F
20220704 120613+00:00 $IIMDA,29.9,I,1.011,B,12.3,C,,C,92.5,,,C,,T,,M,,N,,M*27
20220704 120613+00:00 $HCHDT,124.9,T*27
20220704 120613+00:00 $GPRMC,120608,A,4855.3698,N,12555.2498,W,9.19,128,040722,12.2,E,A,V*61
20220704 120613+00:00 $WIMWV,51.7,R,2.8,N,A*1A
20220704 120615+00:00 $IIMDA,29.9,I,1.011,B,12.3,C,,C,92.5,,,C,,T,,M,,N,,M*27
20220704 120615+00:00 $HCHDT,125.1,T*2E
20220704 120615+00:00 $GPRMC,120610,A,4855.3698,N,12555.2498,W,9.19,128,040722,12.2,E,A,V*68
20220704 120615+00:00 $WIMWV,122.4,R,4.59,N,A*1E
20220704 120617+00:00 $IIMDA,29.9,I,1.011,B,12.3,C,,C,92.5,,,C,,T,,M,,N,,M*27
20220704 120617+00:00 $HCHDT,125.9,T*26
20220704 120617+00:00 $GPRMC,120612,A,4855.3698,N,12555.2396,W,9.19,128,040722,12.2,E,A,V*63
20220704 120617+00:00 $WIMWV,118.6,R,5,N,A*36
20220704 120619+00:00 $IIMDA,29.9,I,1.011,B,12.3,C,,C,92.5,,,C,,T,,M,,N,,M*27
20220704 120619+00:00 $HCHDT,126.3,T*2F
20220704 120619+00:00 $GPRMC,120614,A,4855.3596,N,12555.2396,W,9.19,128,040722,12.2,E,A,V*68
20220704 120619+00:00 $WIMWV,124.6,R,6.4,N,A*20
20220704 120621+00:00 $IIMDA,29.9,I,1.011,B,12.3,C,,C,92.5,,,C,,T,,M,,N,,M*27
20220704 120621+00:00 $HCHDT,126.3,T*2F
20220704 120621+00:00 $GPRMC,120616,A,4855.3596,N,12555.2300,W,9.19,128,040722,12.2,E,A,V*65
20220704 120621+00:00 $WIMWV,183.99,R,2.49,N,A*26
20220704 120623+00:00 $IIMDA,29.9,I,1.011,B,12.3,C,,C,92.5,,,C,,T,,M,,N,,M*27
20220704 120623+00:00 $HCHDT,125.4,T*2B
20220704 120623+00:00 $GPRMC,120618,A,4855.3596,N,12555.2198,W,9.19,128,040722,12.2,E,A,V*68
20220704 120623+00:00 $WIMWV,44.2,R,1.09,N,A*29
20220704 120625+00:00 $IIMDA,29.9,I,1.011,B,12.3,C,,C,92.5,,,C,,T,,M,,N,,M*27
20220704 120625+00:00 $HCHDT,125,T*31
20220704 120625+00:00 $GPRMC,120620,A,4855.3500,N,12555.2198,W,9.19,128,040722,12.2,E,A,V*6C
20220704 120625+00:00 $WIMWV,247.7,R,0.49,N,A*18
20220704 120627+00:00 $IIMDA,29.9,I,1.011,B,12.3,C,,C,92.5,,,C,,T,,M,,N,,M*27
20220704 120627+00:00 $HCHDT,125.1,T*2E
20220704 120627+00:00 $GPRMC,120622,A,4855.3500,N,12555.2096,W,9.19,128,040722,12.2,E,A,V*61
20220704 120627+00:00 $WIMWV,126.5,R,5.99,N,A*16
20220704 120629+00:00 $IIMDA,29.9,I,1.011,B,12.3,C,,C,92.5,,,C,,T,,M,,N,,M*27
20220704 120629+00:00 $HCHDT,125.1,T*2E
20220704 120629+00:00 $GPRMC,120624,A,4855.3500,N,12555.2096,W,9.19,128,040722,12.2,E,A,V*67
20220704 120629+00:00 $WIMWV,115.9,R,5.29,N,A*11
20220704 120631+00:00 $IIMDA,29.9,I,1.011,B,12.3,C,,C,92.5,,,C,,T,,M,,N,,M*27
20220704 120631+00:00 $HCHDT,124.9,T*27
20220704 120631+00:00 $GPRMC,120626,A,4855.3500,N,12555.2000,W,9.19,128,040722,12.2,E,A,V*6A
20220704 120631+00:00 $WIMWV,94.1,R,4.2,N,A*19
20220704 120633+00:00 $IIMDA,29.9,I,1.011,B,12.3,C,,C,92.5,,,C,,T,,M,,N,,M*27
20220704 120633+00:00 $HCHDT,124.9,T*27
20220704 120633+00:00 $GPRMC,120628,A,4855.3398,N,12555.1898,W,9.19,128,040722,12.2,E,A,V*69
20220704 120633+00:00 $WIMWV,131,R,5.7,N,A*3C
20220704 120635+00:00 $IIMDA,29.9,I,1.011,B,12.3,C,,C,92.5,,,C,,T,,M,,N,,M*27
20220704 120635+00:00 $HCHDT,124.6,T*28
20220704 120635+00:00 $GPRMC,120630,A,4855.3398,N,12555.1898,W,9.19,128,040722,12.2,E,A,V*60
20220704 120635+00:00 $WIMWV,97.09,R,2.39,N,A*1C
20220704 120637+00:00 $IIMDA,29.9,I,1.011,B,12.3,C,,C,92.5,,,C,,T,,M,,N,,M*27
20220704 120637+00:00 $HCHDT,124.6,T*28
20220704 120637+00:00 $GPRMC,120632,A,4855.3398,N,12555.1796,W,9.19,128,040722,12.2,E,A,V*63
20220704 120637+00:00 $WIMWV,122.6,R,4.78,N,A*1F
20220704 120639+00:00 $IIMDA,29.9,I,1.011,B,12.3,C,,C,92.4,,,C,,T,,M,,N,,M*26
20220704 120639+00:00 $HCHDT,124.5,T*2B
20220704 120639+00:00 $GPRMC,120634,A,4855.3296,N,12555.1700,W,9.19,128,040722,12.2,E,A,V*65
20220704 120639+00:00 $WIMWV,124.49,R,6.4,N,A*1B
20220704 120641+00:00 $IIMDA,29.9,I,1.011,B,12.3,C,,C,92.5,,,C,,T,,M,,N,,M*27
20220704 120641+00:00 $HCHDT,124.5,T*2B
20220704 120641+00:00 $GPRMC,120636,A,4855.3296,N,12555.1700,W,9.29,127,040722,12.2,E,A,V*6B
20220704 120641+00:00 $WIMWV,110.2,R,5.48,N,A*18
20220704 120643+00:00 $IIMDA,29.9,I,1.011,B,12.3,C,,C,92.4,,,C,,T,,M,,N,,M*26
20220704 120643+00:00 $HCHDT,124.1,T*2F
20220704 120643+00:00 $GPRMC,120638,A,4855.3296,N,12555.1598,W,9.19,127,040722,12.2,E,A,V*65
20220704 120643+00:00 $WIMWV,115.79,R,5.99,N,A*2D
20220704 120645+00:00 $IIMDA,29.9,I,1.011,B,12.3,C,,C,92.4,,,C,,T,,M,,N,,M*26
20220704 120645+00:00 $HCHDT,124.1,T*2F
20220704 120645+00:00 $GPRMC,120640,A,4855.3200,N,12555.1598,W,9.19,127,040722,12.2,E,A,V*65
20220704 120645+00:00 $WIMWV,125.4,R,7.19,N,A*1E
20220704 120647+00:00 $IIMDA,29.9,I,1.011,B,12.3,C,,C,92.3,,,C,,T,,M,,N,,M*21
20220704 120647+00:00 $HCHDT,124.1,T*2F
20220704 120647+00:00 $GPRMC,120642,A,4855.3200,N,12555.1496,W,9.1,127,040722,12.2,E,A,V*51
20220704 120647+00:00 $WIMWV,147.79,R,3.38,N,A*27
20220704 120649+00:00 $IIMDA,29.9,I,1.011,B,12.3,C,,C,92.3,,,C,,T,,M,,N,,M*21
20220704 120649+00:00 $HCHDT,124.6,T*28
20220704 120649+00:00 $GPRMC,120644,A,4855.3200,N,12555.1400,W,9.1,127,040722,12.2,E,A,V*58
20220704 120649+00:00 $WIMWV,125.2,R,5.6,N,A*24
20220704 120651+00:00 $IIMDA,29.9,I,1.011,B,12.3,C,,C,92.3,,,C,,T,,M,,N,,M*21
20220704 120651+00:00 $HCHDT,124.9,T*27
20220704 120651+00:00 $GPRMC,120646,A,4855.3098,N,12555.1400,W,9.1,127,040722,12.2,E,A,V*59
20220704 120651+00:00 $WIMWV,122.6,R,5.48,N,A*1D
20220704 120653+00:00 $IIMDA,29.9,I,1.011,B,12.3,C,,C,92.3,,,C,,T,,M,,N,,M*21
20220704 120653+00:00 $HCHDT,125.3,T*2C
20220704 120653+00:00 $GPRMC,120648,A,4855.3098,N,12555.1298,W,9.19,127,040722,12.2,E,A,V*69
20220704 120653+00:00 $WIMWV,123,R,5.89,N,A*09
20220704 120655+00:00 $IIMDA,29.9,I,1.011,B,12.3,C,,C,92.2,,,C,,T,,M,,N,,M*20
20220704 120655+00:00 $HCHDT,125.9,T*26
20220704 120655+00:00 $GPRMC,120650,A,4855.3098,N,12555.1298,W,9.19,127,040722,12.2,E,A,V*60
20220704 120655+00:00 $WIMWV,133.69,R,5.38,N,A*23
20220704 120657+00:00 $IIMDA,29.9,I,1.011,B,12.3,C,,C,92.3,,,C,,T,,M,,N,,M*21
20220704 120657+00:00 $HCHDT,126.4,T*28
20220704 120657+00:00 $GPRMC,120652,A,4855.3098,N,12555.1196,W,9.19,127,040722,12.2,E,A,V*6F
20220704 120657+00:00 $WIMWV,122.19,R,5.29,N,A*24
20220704 120659+00:00 $IIMDA,29.9,I,1.011,B,12.3,C,,C,92.2,,,C,,T,,M,,N,,M*20
20220704 120659+00:00 $HCHDT,126.6,T*2A
20220704 120659+00:00 $GPRMC,120654,A,4855.2996,N,12555.1100,W,9.19,128,040722,12.2,E,A,V*6F
20220704 120659+00:00 $WIMWV,120.8,R,5,N,A*33
20220704 120701+00:00 $IIMDA,29.9,I,1.011,B,12.4,C,,C,92.2,,,C,,T,,M,,N,,M*27
20220704 120701+00:00 $HCHDT,126.4,T*28
20220704 120701+00:00 $GPRMC,120656,A,4855.2996,N,12555.1100,W,9.19,128,040722,12.2,E,A,V*6D
20220704 120701+00:00 $WIMWV,126.8,R,5.7,N,A*2C
20220704 120703+00:00 $IIMDA,29.9,I,1.011,B,12.4,C,,C,92.2,,,C,,T,,M,,N,,M*27
20220704 120703+00:00 $HCHDT,125.4,T*2B
20220704 120703+00:00 $GPRMC,120658,A,4855.2996,N,12555.0998,W,9.19,128,040722,12.2,E,A,V*6B
20220704 120703+00:00 $WIMWV,116.6,R,5.29,N,A*1D
20220704 120705+00:00 $IIMDA,29.9,I,1.011,B,12.4,C,,C,92.3,,,C,,T,,M,,N,,M*26
20220704 120705+00:00 $HCHDT,124.8,T*26
20220704 120705+00:00 $GPRMC,120700,A,4855.2900,N,12555.0896,W,9.19,128,040722,12.2,E,A,V*67
20220704 120705+00:00 $WIMWV,125.99,R,5.7,N,A*17
20220704 120707+00:00 $IIMDA,29.9,I,1.011,B,12.4,C,,C,92.2,,,C,,T,,M,,N,,M*27
20220704 120707+00:00 $HCHDT,124.2,T*2C
20220704 120707+00:00 $GPRMC,120702,A,4855.2900,N,12555.0896,W,9.19,128,040722,12.2,E,A,V*65
20220704 120707+00:00 $WIMWV,123.2,R,5.38,N,A*1F
20220704 120709+00:00 $IIMDA,29.9,I,1.011,B,12.4,C,,C,92.2,,,C,,T,,M,,N,,M*27
20220704 120709+00:00 $HCHDT,123.8,T*21
20220704 120709+00:00 $GPRMC,120704,A,4855.2900,N,12555.0800,W,9.19,128,040722,12.2,E,A,V*6C
20220704 120709+00:00 $WIMWV,130.59,R,2.1,N,A*1E
20220704 120711+00:00 $IIMDA,29.9,I,1.011,B,12.4,C,,C,92.2,,,C,,T,,M,,N,,M*27
20220704 120711+00:00 $HCHDT,123.8,T*21
20220704 120711+00:00 $GPRMC,120706,A,4855.2798,N,12555.0800,W,9.19,127,040722,12.2,E,A,V*6E
20220704 120711+00:00 $WIMWV,158.89,R,2.9,N,A*15
20220704 120713+00:00 $IIMDA,29.9,I,1.011,B,12.4,C,,C,92.1,,,C,,T,,M,,N,,M*24
20220704 120713+00:00 $HCHDT,123.4,T*2D
20220704 120713+00:00 $GPRMC,120708,A,4855.2798,N,12555.0698,W,9.19,127,040722,12.2,E,A,V*6F
20220704 120713+00:00 $WIMWV,126.8,R,3.6,N,A*2B
20220704 120715+00:00 $IIMDA,29.9,I,1.011,B,12.4,C,,C,92.1,,,C,,T,,M,,N,,M*24
20220704 120715+00:00 $HCHDT,123.1,T*28
20220704 120715+00:00 $GPRMC,120710,A,4855.2798,N,12555.0596,W,9.19,127,040722,12.2,E,A,V*6B
20220704 120715+00:00 $WIMWV,102.99,R,1.79,N,A*2F
20220704 120717+00:00 $IIMDA,29.9,I,1.011,B,12.4,C,,C,92.1,,,C,,T,,M,,N,,M*24
20220704 120717+00:00 $HCHDT,123.4,T*2D
20220704 120717+00:00 $GPRMC,120712,A,4855.2696,N,12555.0596,W,9.19,126,040722,12.2,E,A,V*67
20220704 120717+00:00 $WIMWV,120.2,R,3.69,N,A*1E
20220704 120719+00:00 $IIMDA,29.9,I,1.011,B,12.4,C,,C,92.1,,,C,,T,,M,,N,,M*24
20220704 120719+00:00 $HCHDT,123.7,T*2E
20220704 120719+00:00 $GPRMC,120714,A,4855.2696,N,12555.0500,W,9.19,126,040722,12.2,E,A,V*6E
20220704 120719+00:00 $WIMWV,122.69,R,4.08,N,A*21
20220704 120721+00:00 $IIMDA,29.9,I,1.011,B,12.4,C,,C,92.1,,,C,,T,,M,,N,,M*24
20220704 120721+00:00 $HCHDT,124.8,T*26
20220704 120721+00:00 $GPRMC,120716,A,4855.2696,N,12555.0398,W,9.19,126,040722,12.2,E,A,V*6B
20220704 120721+00:00 $WIMWV,104.79,R,1.69,N,A*26
20220704 120723+00:00 $IIMDA,29.9,I,1.011,B,12.4,C,,C,92.2,,,C,,T,,M,,N,,M*27
20220704 120723+00:00 $HCHDT,125.2,T*2D
20220704 120723+00:00 $GPRMC,120718,A,4855.2696,N,12555.0398,W,9.19,126,040722,12.2,E,A,V*65
20220704 120723+00:00 $WIMWV,58.8,R,1.79,N,A*29
20220704 120725+00:00 $IIMDA,29.9,I,1.011,B,12.4,C,,C,92.1,,,C,,T,,M,,N,,M*24
20220704 120725+00:00 $HCHDT,124.9,T*27
20220704 120725+00:00 $GPRMC,120720,A,4855.2600,N,12555.0296,W,9.19,126,040722,12.2,E,A,V*6E
20220704 120725+00:00 $WIMWV,112.49,R,1.79,N,A*23
20220704 120727+00:00 $IIMDA,29.9,I,1.011,B,12.4,C,,C,92.2,,,C,,T,,M,,N,,M*27
20220704 120727+00:00 $HCHDT,124.6,T*28
20220704 120727+00:00 $GPRMC,120722,A,4855.2600,N,12555.0296,W,9.19,127,040722,12.2,E,A,V*6D
20220704 120727+00:00 $WIMWV,134.59,R,1.59,N,A*24
20220704 120729+00:00 $IIMDA,29.9,I,1.011,B,12.4,C,,C,92.2,,,C,,T,,M,,N,,M*27
20220704 120729+00:00 $HCHDT,124.5,T*2B
20220704 120729+00:00 $GPRMC,120724,A,4855.2600,N,12555.0200,W,9.1,127,040722,12.2,E,A,V*5D
20220704 120729+00:00 $WIMWV,53.3,R,1.4,N,A*13
20220704 120731+00:00 $IIMDA,29.9,I,1.011,B,12.4,C,,C,92.2,,,C,,T,,M,,N,,M*27
20220704 120731+00:00 $HCHDT,125.9,T*26
20220704 120731+00:00 $GPRMC,120726,A,4855.2498,N,12555.0098,W,9.1,127,040722,12.2,E,A,V*5F
20220704 120731+00:00 $WIMWV,126.8,R,5.7,N,A*2C
20220704 120733+00:00 $IIMDA,29.9,I,1.011,B,12.4,C,,C,92.2,,,C,,T,,M,,N,,M*27
20220704 120733+00:00 $HCHDT,126,T*32
20220704 120733+00:00 $GPRMC,120728,A,4855.2498,N,12555.0098,W,9.1,127,040722,12.2,E,A,V*51
20220704 120733+00:00 $WIMWV,112.99,R,4.08,N,A*2D
20220704 120735+00:00 $IIMDA,29.9,I,1.011,B,12.4,C,,C,92.3,,,C,,T,,M,,N,,M*26
20220704 120735+00:00 $HCHDT,125.5,T*2A
20220704 120735+00:00 $GPRMC,120730,A,4855.2498,N,12554.9996,W,9.19,127,040722,12.2,E,A,V*6E
20220704 120735+00:00 $WIMWV,123.9,R,5.38,N,A*14
20220704 120737+00:00 $IIMDA,29.9,I,1.011,B,12.4,C,,C,92.3,,,C,,T,,M,,N,,M*26
20220704 120737+00:00 $HCHDT,125,T*31
20220704 120737+00:00 $GPRMC,120732,A,4855.2396,N,12554.9996,W,9.19,128,040722,12.2,E,A,V*6A
20220704 120737+00:00 $WIMWV,121.09,R,5.48,N,A*21
20220704 120739+00:00 $IIMDA,29.9,I,1.011,B,12.4,C,,C,92.3,,,C,,T,,M,,N,,M*26
20220704 120739+00:00 $HCHDT,124.6,T*28
20220704 120739+00:00 $GPRMC,120734,A,4855.2396,N,12554.9900,W,9.29,127,040722,12.2,E,A,V*6F
20220704 120739+00:00 $WIMWV,99.8,R,1.19,N,A*22
20220704 120741+00:00 $IIMDA,29.9,I,1.011,B,12.4,C,,C,92.3,,,C,,T,,M,,N,,M*26
20220704 120741+00:00 $HCHDT,124.6,T*28
20220704 120741+00:00 $GPRMC,120736,A,4855.2396,N,12554.9798,W,9.19,127,040722,12.2,E,A,V*61
20220704 120741+00:00 $WIMWV,127.4,R,5.89,N,A*17
20220704 120743+00:00 $IIMDA,29.9,I,1.011,B,12.4,C,,C,92.3,,,C,,T,,M,,N,,M*26
20220704 120743+00:00 $HCHDT,125.2,T*2D
20220704 120743+00:00 $GPRMC,120738,A,4855.2300,N,12554.9798,W,9.19,127,040722,12.2,E,A,V*60
20220704 120743+00:00 $WIMWV,121.5,R,4.2,N,A*22
