20220705 110001+00:00 $IIMDA,29.9,I,1.013,B,14.2,C,,C,86.7,,,C,,T,,M,,N,,M*25
20220705 110001+00:00 $GPRMC,105956,A,4917.5998,N,12326.5698,W,5.91,3,050722,11.8,E,A,V*67
20220705 110001+00:00 $HCHDT,358.1,T*26
20220705 110001+00:00 $WIMWV,359.59,R,8.69,N,A*27
20220705 110003+00:00 $IIMDA,29.9,I,1.013,B,14.2,C,,C,86.7,,,C,,T,,M,,N,,M*25
20220705 110003+00:00 $GPRMC,105958,A,4917.5998,N,12326.5698,W,5.91,3,050722,11.8,E,A,V*69
20220705 110003+00:00 $HCHDT,358,T*39
20220705 110003+00:00 $WIMWV,359.79,R,9.29,N,A*20
20220705 110005+00:00 $IIMDA,29.9,I,1.013,B,14.2,C,,C,86.8,,,C,,T,,M,,N,,M*2A
20220705 110005+00:00 $GPRMC,110000,A,4917.6100,N,12326.5698,W,5.91,3,050722,11.8,E,A,V*63
20220705 110005+00:00 $HCHDT,357.9,T*21
20220705 110005+00:00 $WIMWV,351.59,R,9.39,N,A*2B
20220705 110007+00:00 $IIMDA,29.9,I,1.013,B,14.2,C,,C,86.8,,,C,,T,,M,,N,,M*2A
20220705 110007+00:00 $GPRMC,110002,A,4917.6100,N,12326.5698,W,5.91,3,050722,11.8,E,A,V*61
20220705 110007+00:00 $HCHDT,357.9,T*21
20220705 110007+00:00 $WIMWV,357.49,R,9.89,N,A*27
20220705 110009+00:00 $IIMDA,29.9,I,1.013,B,14.2,C,,C,86.9,,,C,,T,,M,,N,,M*2B
20220705 110009+00:00 $GPRMC,110004,A,4917.6100,N,12326.5698,W,5.91,3,050722,11.8,E,A,V*67
20220705 110009+00:00 $HCHDT,357.9,T*21
20220705 110009+00:00 $WIMWV,354.59,R,10.59,N,A*10
20220705 110011+00:00 $IIMDA,29.9,I,1.013,B,14.2,C,,C,86.9,,,C,,T,,M,,N,,M*2B
20220705 110011+00:00 $GPRMC,110006,A,4917.6196,N,12326.5698,W,5.91,3,050722,11.8,E,A,V*6A
20220705 110011+00:00 $HCHDT,357.7,T*2F
20220705 110011+00:00 $WIMWV,353.39,R,6.88,N,A*2A
20220705 110013+00:00 $IIMDA,29.9,I,1.013,B,14.2,C,,C,86.9,,,C,,T,,M,,N,,M*2B
20220705 110013+00:00 $GPRMC,110008,A,4917.6196,N,12326.5698,W,5.79,3,050722,11.8,E,A,V*62
20220705 110013+00:00 $HCHDT,357.6,T*2E
20220705 110013+00:00 $WIMWV,358.69,R,7.1,N,A*14
20220705 110015+00:00 $IIMDA,29.9,I,1.013,B,14.2,C,,C,86.9,,,C,,T,,M,,N,,M*2B
20220705 110015+00:00 $GPRMC,110010,A,4917.6196,N,12326.5698,W,5.79,2,050722,11.8,E,A,V*6A
20220705 110015+00:00 $HCHDT,357.5,T*2D
20220705 110015+00:00 $WIMWV,358.19,R,4.3,N,A*12
20220705 110017+00:00 $IIMDA,29.9,I,1.013,B,14.2,C,,C,86.9,,,C,,T,,M,,N,,M*2B
20220705 110017+00:00 $GPRMC,110012,A,4917.6298,N,12326.5698,W,5.79,2,050722,11.8,E,A,V*65
20220705 110017+00:00 $HCHDT,357.5,T*2D
20220705 110017+00:00 $WIMWV,356.19,R,9.68,N,A*2C
20220705 110019+00:00 $IIMDA,29.9,I,1.013,B,14.2,C,,C,86.9,,,C,,T,,M,,N,,M*2B
20220705 110019+00:00 $GPRMC,110014,A,4917.6298,N,12326.5698,W,5.79,2,050722,11.8,E,A,V*63
20220705 110019+00:00 $HCHDT,357.4,T*2C
20220705 110019+00:00 $WIMWV,354.89,R,10.69,N,A*1E
20220705 110021+00:00 $IIMDA,29.9,I,1.013,B,14.2,C,,C,87,,,C,,T,,M,,N,,M*3D
20220705 110021+00:00 $GPRMC,110016,A,4917.6298,N,12326.5698,W,5.79,2,050722,11.8,E,A,V*61
20220705 110021+00:00 $HCHDT,357.4,T*2C
20220705 110021+00:00 $WIMWV,359.69,R,9.1,N,A*1B
20220705 110023+00:00 $IIMDA,29.9,I,1.013,B,14.2,C,,C,86.9,,,C,,T,,M,,N,,M*2B
20220705 110023+00:00 $GPRMC,110018,A,4917.6400,N,12326.5698,W,5.79,2,050722,11.8,E,A,V*68
20220705 110023+00:00 $HCHDT,357.4,T*2C
20220705 110023+00:00 $WIMWV,355.89,R,9.39,N,A*22
20220705 110025+00:00 $IIMDA,29.9,I,1.013,B,14.2,C,,C,87,,,C,,T,,M,,N,,M*3D
20220705 110025+00:00 $GPRMC,110020,A,4917.6400,N,12326.5698,W,5.79,2,050722,11.8,E,A,V*63
20220705 110025+00:00 $HCHDT,357.6,T*2E
20220705 110025+00:00 $WIMWV,355.49,R,10.5,N,A*29
20220705 110027+00:00 $IIMDA,29.9,I,1.013,B,14.2,C,,C,87,,,C,,T,,M,,N,,M*3D
20220705 110027+00:00 $GPRMC,110022,A,4917.6400,N,12326.5698,W,5.79,2,050722,11.8,E,A,V*61
20220705 110027+00:00 $HCHDT,357.8,T*20
20220705 110027+00:00 $WIMWV,354.19,R,9.1,N,A*11
20220705 110029+00:00 $IIMDA,29.9,I,1.013,B,14.2,C,,C,87,,,C,,T,,M,,N,,M*3D
20220705 110029+00:00 $GPRMC,110024,A,4917.6496,N,12326.5698,W,5.79,2,050722,11.8,E,A,V*68
20220705 110029+00:00 $HCHDT,358,T*39
20220705 110029+00:00 $WIMWV,356.69,R,10.69,N,A*12
20220705 110031+00:00 $IIMDA,29.9,I,1.013,B,14.2,C,,C,87,,,C,,T,,M,,N,,M*3D
20220705 110031+00:00 $GPRMC,110026,A,4917.6496,N,12326.5698,W,5.79,2,050722,11.8,E,A,V*6A
20220705 110031+00:00 $HCHDT,358,T*39
20220705 110031+00:00 $WIMWV,356.69,R,10.98,N,A*1C
20220705 110033+00:00 $IIMDA,29.9,I,1.013,B,14.2,C,,C,87,,,C,,T,,M,,N,,M*3D
20220705 110033+00:00 $GPRMC,110028,A,4917.6496,N,12326.5698,W,5.91,2,050722,11.8,E,A,V*62
20220705 110033+00:00 $HCHDT,358.1,T*26
20220705 110033+00:00 $WIMWV,355.89,R,10.38,N,A*1B
20220705 110035+00:00 $IIMDA,29.9,I,1.013,B,14.2,C,,C,87,,,C,,T,,M,,N,,M*3D
20220705 110035+00:00 $GPRMC,110030,A,4917.6496,N,12326.5698,W,5.91,2,050722,11.8,E,A,V*6B
20220705 110035+00:00 $HCHDT,358.2,T*25
20220705 110035+00:00 $WIMWV,353.29,R,11.08,N,A*15
20220705 110037+00:00 $IIMDA,29.9,I,1.013,B,14.2,C,,C,87,,,C,,T,,M,,N,,M*3D
20220705 110037+00:00 $GPRMC,110032,A,4917.6598,N,12326.5698,W,5.91,3,050722,11.8,E,A,V*67
20220705 110037+00:00 $HCHDT,358.2,T*25
20220705 110037+00:00 $WIMWV,355.39,R,11.99,N,A*1A
20220705 110039+00:00 $IIMDA,29.9,I,1.013,B,14.2,C,,C,87,,,C,,T,,M,,N,,M*3D
20220705 110039+00:00 $GPRMC,110034,A,4917.6598,N,12326.5698,W,5.91,3,050722,11.8,E,A,V*61
20220705 110039+00:00 $HCHDT,358.2,T*25
20220705 110039+00:00 $WIMWV,355.49,R,11.9,N,A*24
20220705 110041+00:00 $IIMDA,29.9,I,1.013,B,14.2,C,,C,86.9,,,C,,T,,M,,N,,M*2B
20220705 110041+00:00 $GPRMC,110036,A,4917.6598,N,12326.5698,W,5.91,3,050722,11.8,E,A,V*63
20220705 110041+00:00 $HCHDT,358.3,T*24
20220705 110041+00:00 $WIMWV,355.89,R,11.68,N,A*1F
20220705 110043+00:00 $IIMDA,29.9,I,1.013,B,14.2,C,,C,86.9,,,C,,T,,M,,N,,M*2B
20220705 110043+00:00 $GPRMC,110038,A,4917.6700,N,12326.5698,W,5.91,3,050722,11.8,E,A,V*6E
20220705 110043+00:00 $HCHDT,358.4,T*23
20220705 110043+00:00 $WIMWV,353.99,R,8.88,N,A*2E
20220705 110045+00:00 $IIMDA,29.9,I,1.013,B,14.2,C,,C,86.9,,,C,,T,,M,,N,,M*2B
20220705 110045+00:00 $GPRMC,110040,A,4917.6700,N,12326.5698,W,5.91,3,050722,11.8,E,A,V*61
20220705 110045+00:00 $HCHDT,358.3,T*24
20220705 110045+00:00 $WIMWV,353.19,R,9.39,N,A*2D
20220705 110047+00:00 $IIMDA,29.9,I,1.013,B,14.2,C,,C,86.8,,,C,,T,,M,,N,,M*2A
20220705 110047+00:00 $GPRMC,110042,A,4917.6700,N,12326.5698,W,5.91,3,050722,11.8,E,A,V*63
20220705 110047+00:00 $HCHDT,358.3,T*24
20220705 110047+00:00 $WIMWV,356.49,R,11.2,N,A*2C
20220705 110049+00:00 $IIMDA,29.9,I,1.013,B,14.2,C,,C,86.8,,,C,,T,,M,,N,,M*2A
20220705 110049+00:00 $GPRMC,110044,A,4917.6796,N,12326.5698,W,5.91,3,050722,11.8,E,A,V*6A
20220705 110049+00:00 $HCHDT,358.2,T*25
20220705 110049+00:00 $WIMWV,356.79,R,11.49,N,A*10
20220705 110051+00:00 $IIMDA,29.9,I,1.013,B,14.2,C,,C,86.7,,,C,,T,,M,,N,,M*25
20220705 110051+00:00 $GPRMC,110046,A,4917.6796,N,12326.5698,W,5.91,3,050722,11.8,E,A,V*68
20220705 110051+00:00 $HCHDT,358.1,T*26
20220705 110051+00:00 $WIMWV,356.19,R,10.59,N,A*16
20220705 110053+00:00 $IIMDA,29.9,I,1.013,B,14.2,C,,C,86.6,,,C,,T,,M,,N,,M*24
20220705 110053+00:00 $GPRMC,110048,A,4917.6796,N,12326.5698,W,5.91,3,050722,11.8,E,A,V*66
20220705 110053+00:00 $HCHDT,358.1,T*26
20220705 110053+00:00 $WIMWV,358.99,R,9.68,N,A*2A
20220705 110055+00:00 $IIMDA,29.9,I,1.013,B,14.2,C,,C,86.5,,,C,,T,,M,,N,,M*27
20220705 110055+00:00 $GPRMC,110050,A,4917.6898,N,12326.5698,W,5.91,3,050722,11.8,E,A,V*6E
20220705 110055+00:00 $HCHDT,357.9,T*21
20220705 110055+00:00 $WIMWV,354.09,R,10.28,N,A*13
20220705 110057+00:00 $IIMDA,29.9,I,1.013,B,14.2,C,,C,86.6,,,C,,T,,M,,N,,M*24
20220705 110057+00:00 $GPRMC,110052,A,4917.6898,N,12326.5698,W,5.79,3,050722,11.8,E,A,V*6A
20220705 110057+00:00 $HCHDT,357.7,T*2F
20220705 110057+00:00 $WIMWV,359.59,R,9.49,N,A*24
20220705 110059+00:00 $IIMDA,29.9,I,1.013,B,14.2,C,,C,86.5,,,C,,T,,M,,N,,M*27
20220705 110059+00:00 $GPRMC,110054,A,4917.6898,N,12326.5698,W,5.79,3,050722,11.8,E,A,V*6C
20220705 110059+00:00 $HCHDT,357.6,T*2E
20220705 110059+00:00 $WIMWV,355.19,R,10.79,N,A*17
20220705 110101+00:00 $IIMDA,29.9,I,1.013,B,14.2,C,,C,86.5,,,C,,T,,M,,N,,M*27
20220705 110101+00:00 $GPRMC,110056,A,4917.7000,N,12326.5698,W,5.79,3,050722,11.8,E,A,V*66
20220705 110101+00:00 $HCHDT,357.5,T*2D
20220705 110101+00:00 $WIMWV,355.19,R,10.79,N,A*17
20220705 110103+00:00 $IIMDA,29.9,I,1.013,B,14.2,C,,C,86.4,,,C,,T,,M,,N,,M*26
20220705 110103+00:00 $GPRMC,110058,A,4917.7000,N,12326.5698,W,5.79,3,050722,11.8,E,A,V*68
20220705 110103+00:00 $HCHDT,357.4,T*2C
20220705 110103+00:00 $WIMWV,357.99,R,8.49,N,A*27
20220705 110105+00:00 $IIMDA,29.9,I,1.013,B,14.2,C,,C,86.4,,,C,,T,,M,,N,,M*26
20220705 110105+00:00 $GPRMC,110100,A,4917.7000,N,12326.5698,W,5.79,3,050722,11.8,E,A,V*64
20220705 110105+00:00 $HCHDT,357.4,T*2C
20220705 110105+00:00 $WIMWV,0.1,R,9.1,N,A*2A
20220705 110107+00:00 $IIMDA,29.9,I,1.013,B,14.2,C,,C,86.4,,,C,,T,,M,,N,,M*26
20220705 110107+00:00 $GPRMC,110102,A,4917.7096,N,12326.5698,W,5.79,3,050722,11.8,E,A,V*69
20220705 110107+00:00 $HCHDT,357.3,T*2B
20220705 110107+00:00 $WIMWV,356.19,R,10.09,N,A*13
20220705 110109+00:00 $IIMDA,29.9,I,1.013,B,14.2,C,,C,86.3,,,C,,T,,M,,N,,M*21
20220705 110109+00:00 $GPRMC,110104,A,4917.7096,N,12326.5698,W,5.79,3,050722,11.8,E,A,V*6F
20220705 110109+00:00 $HCHDT,357.3,T*2B
20220705 110109+00:00 $WIMWV,357.09,R,10.19,N,A*12
20220705 110111+00:00 $IIMDA,29.9,I,1.013,B,14.2,C,,C,86.2,,,C,,T,,M,,N,,M*20
20220705 110111+00:00 $GPRMC,110106,A,4917.7096,N,12326.5596,W,5.79,3,050722,11.8,E,A,V*60
20220705 110111+00:00 $HCHDT,357.2,T*2A
20220705 110111+00:00 $WIMWV,352.69,R,8.59,N,A*2C
20220705 110113+00:00 $IIMDA,29.9,I,1.013,B,14.2,C,,C,86.2,,,C,,T,,M,,N,,M*20
20220705 110113+00:00 $GPRMC,110108,A,4917.7198,N,12326.5596,W,5.79,2,050722,11.8,E,A,V*60
20220705 110113+00:00 $HCHDT,357.1,T*29
20220705 110113+00:00 $WIMWV,4.8,R,5.09,N,A*13
20220705 110115+00:00 $IIMDA,29.9,I,1.013,B,14.2,C,,C,86.1,,,C,,T,,M,,N,,M*23
20220705 110115+00:00 $GPRMC,110110,A,4917.7198,N,12326.5596,W,5.79,2,050722,11.8,E,A,V*69
20220705 110115+00:00 $HCHDT,357.1,T*29
20220705 110115+00:00 $WIMWV,358.99,R,9.29,N,A*2F
20220705 110117+00:00 $IIMDA,29.9,I,1.013,B,14.2,C,,C,86.1,,,C,,T,,M,,N,,M*23
20220705 110117+00:00 $GPRMC,110112,A,4917.7198,N,12326.5596,W,5.79,2,050722,11.8,E,A,V*6B
20220705 110117+00:00 $HCHDT,357,T*36
20220705 110117+00:00 $WIMWV,353.69,R,6.18,N,A*26
20220705 110119+00:00 $IIMDA,29.9,I,1.013,B,14.2,C,,C,86,,,C,,T,,M,,N,,M*3C
20220705 110119+00:00 $GPRMC,110114,A,4917.7300,N,12326.5596,W,5.79,2,050722,11.8,E,A,V*6E
20220705 110119+00:00 $HCHDT,356.9,T*20
20220705 110119+00:00 $WIMWV,2.6,R,8.98,N,A*1E
20220705 110121+00:00 $IIMDA,29.9,I,1.013,B,14.2,C,,C,85.9,,,C,,T,,M,,N,,M*28
20220705 110121+00:00 $GPRMC,110116,A,4917.7300,N,12326.5596,W,5.79,2,050722,11.8,E,A,V*6C
20220705 110121+00:00 $HCHDT,356.9,T*20
20220705 110121+00:00 $WIMWV,358.79,R,9.1,N,A*1B
20220705 110123+00:00 $IIMDA,29.9,I,1.013,B,14.2,C,,C,85.9,,,C,,T,,M,,N,,M*28
20220705 110123+00:00 $GPRMC,110118,A,4917.7300,N,12326.5596,W,5.79,2,050722,11.8,E,A,V*62
20220705 110123+00:00 $HCHDT,356.7,T*2E
20220705 110123+00:00 $WIMWV,359.69,R,7.7,N,A*13
20220705 110125+00:00 $IIMDA,29.9,I,1.013,B,14.2,C,,C,85.8,,,C,,T,,M,,N,,M*29
20220705 110125+00:00 $GPRMC,110120,A,4917.7396,N,12326.5596,W,5.79,2,050722,11.8,E,A,V*66
20220705 110125+00:00 $HCHDT,356.7,T*2E
20220705 110125+00:00 $WIMWV,356.99,R,7.99,N,A*24
20220705 110127+00:00 $IIMDA,29.9,I,1.013,B,14.2,C,,C,85.8,,,C,,T,,M,,N,,M*29
20220705 110127+00:00 $GPRMC,110122,A,4917.7396,N,12326.5596,W,5.79,2,050722,11.8,E,A,V*64
20220705 110127+00:00 $HCHDT,356.6,T*2F
20220705 110127+00:00 $WIMWV,354.79,R,8.98,N,A*26
20220705 110129+00:00 $IIMDA,29.9,I,1.013,B,14.2,C,,C,85.8,,,C,,T,,M,,N,,M*29
20220705 110129+00:00 $GPRMC,110124,A,4917.7396,N,12326.5596,W,5.79,2,050722,11.8,E,A,V*62
20220705 110129+00:00 $HCHDT,356.6,T*2F
20220705 110129+00:00 $WIMWV,357.29,R,9.89,N,A*21
20220705 110131+00:00 $IIMDA,29.9,I,1.013,B,14.2,C,,C,85.7,,,C,,T,,M,,N,,M*26
20220705 110131+00:00 $GPRMC,110126,A,4917.7396,N,12326.5596,W,5.79,2,050722,11.8,E,A,V*60
20220705 110131+00:00 $HCHDT,356.7,T*2E
20220705 110131+00:00 $WIMWV,355.99,R,10.19,N,A*19
20220705 110133+00:00 $IIMDA,29.9,I,1.013,B,14.2,C,,C,85.7,,,C,,T,,M,,N,,M*26
20220705 110133+00:00 $GPRMC,110128,A,4917.7498,N,12326.5596,W,5.79,2,050722,11.8,E,A,V*67
20220705 110133+00:00 $HCHDT,356.9,T*20
20220705 110133+00:00 $WIMWV,358.49,R,9.99,N,A*29
20220705 110135+00:00 $IIMDA,29.9,I,1.013,B,14.2,C,,C,85.5,,,C,,T,,M,,N,,M*24
20220705 110135+00:00 $GPRMC,110130,A,4917.7498,N,12326.5596,W,5.79,2,050722,11.8,E,A,V*6E
20220705 110135+00:00 $HCHDT,357,T*36
20220705 110135+00:00 $WIMWV,357.59,R,9.39,N,A*2D
20220705 110137+00:00 $IIMDA,29.9,I,1.013,B,14.2,C,,C,85.5,,,C,,T,,M,,N,,M*24
20220705 110137+00:00 $GPRMC,110132,A,4917.7498,N,12326.5596,W,5.79,2,050722,11.8,E,A,V*6C
20220705 110137+00:00 $HCHDT,357.1,T*29
20220705 110137+00:00 $WIMWV,357.99,R,9.49,N,A*26
20220705 110139+00:00 $IIMDA,29.9,I,1.013,B,14.2,C,,C,85.5,,,C,,T,,M,,N,,M*24
20220705 110139+00:00 $GPRMC,110134,A,4917.7600,N,12326.5596,W,5.79,2,050722,11.8,E,A,V*69
20220705 110139+00:00 $HCHDT,357.2,T*2A
20220705 110139+00:00 $WIMWV,357.69,R,10.19,N,A*14
20220705 110141+00:00 $IIMDA,29.9,I,1.013,B,14.2,C,,C,85.5,,,C,,T,,M,,N,,M*24
20220705 110141+00:00 $GPRMC,110136,A,4917.7600,N,12326.5596,W,5.79,2,050722,11.8,E,A,V*6B
20220705 110141+00:00 $HCHDT,357.4,T*2C
20220705 110141+00:00 $WIMWV,357.29,R,10.5,N,A*2D
20220705 110143+00:00 $IIMDA,29.9,I,1.013,B,14.2,C,,C,85.3,,,C,,T,,M,,N,,M*22
20220705 110143+00:00 $GPRMC,110138,A,4917.7600,N,12326.5596,W,5.79,2,050722,11.8,E,A,V*65
20220705 110143+00:00 $HCHDT,357.6,T*2E
20220705 110143+00:00 $WIMWV,358.49,R,8.59,N,A*24
20220705 110145+00:00 $IIMDA,29.9,I,1.013,B,14.2,C,,C,85.3,,,C,,T,,M,,N,,M*22
20220705 110145+00:00 $GPRMC,110140,A,4917.7696,N,12326.5596,W,5.79,3,050722,11.8,E,A,V*64
20220705 110145+00:00 $HCHDT,357.9,T*21
20220705 110145+00:00 $WIMWV,358.79,R,6.49,N,A*28
20220705 110147+00:00 $IIMDA,29.9,I,1.013,B,14.2,C,,C,85.3,,,C,,T,,M,,N,,M*22
20220705 110147+00:00 $GPRMC,110142,A,4917.7696,N,12326.5596,W,5.79,3,050722,11.8,E,A,V*66
20220705 110147+00:00 $HCHDT,358.1,T*26
20220705 110147+00:00 $WIMWV,357.39,R,8.98,N,A*21
20220705 110149+00:00 $IIMDA,29.9,I,1.013,B,14.2,C,,C,85.3,,,C,,T,,M,,N,,M*22
20220705 110149+00:00 $GPRMC,110144,A,4917.7696,N,12326.5596,W,5.79,3,050722,11.8,E,A,V*60
20220705 110149+00:00 $HCHDT,358.2,T*25
20220705 110149+00:00 $WIMWV,355.19,R,8.88,N,A*20
20220705 110151+00:00 $IIMDA,29.9,I,1.013,B,14.2,C,,C,85.2,,,C,,T,,M,,N,,M*23
20220705 110151+00:00 $GPRMC,110146,A,4917.7798,N,12326.5596,W,5.79,3,050722,11.8,E,A,V*6D
20220705 110151+00:00 $HCHDT,358.5,T*22
20220705 110151+00:00 $WIMWV,349.79,R,7.58,N,A*29
20220705 110153+00:00 $IIMDA,29.9,I,1.013,B,14.2,C,,C,85.3,,,C,,T,,M,,N,,M*22
20220705 110153+00:00 $GPRMC,110148,A,4917.7798,N,12326.5596,W,5.79,3,050722,11.8,E,A,V*63
20220705 110153+00:00 $HCHDT,358.6,T*21
20220705 110153+00:00 $WIMWV,5.49,R,7.48,N,A*20
20220705 110155+00:00 $IIMDA,29.9,I,1.013,B,14.2,C,,C,85.3,,,C,,T,,M,,N,,M*22
20220705 110155+00:00 $GPRMC,110150,A,4917.7798,N,12326.5596,W,5.79,4,050722,11.8,E,A,V*6D
20220705 110155+00:00 $HCHDT,358.8,T*2F
20220705 110155+00:00 $WIMWV,353.59,R,10.38,N,A*10
20220705 110157+00:00 $IIMDA,29.9,I,1.013,B,14.2,C,,C,85.3,,,C,,T,,M,,N,,M*22
20220705 110157+00:00 $GPRMC,110152,A,4917.7900,N,12326.5596,W,5.79,4,050722,11.8,E,A,V*60
20220705 110157+00:00 $HCHDT,358.8,T*2F
20220705 110157+00:00 $WIMWV,354.69,R,11.2,N,A*2C
20220705 110159+00:00 $IIMDA,29.9,I,1.013,B,14.2,C,,C,85.3,,,C,,T,,M,,N,,M*22
20220705 110159+00:00 $GPRMC,110154,A,4917.7900,N,12326.5596,W,5.79,4,050722,11.8,E,A,V*66
20220705 110159+00:00 $HCHDT,358.8,T*2F
20220705 110159+00:00 $WIMWV,357.09,R,10.19,N,A*12
20220705 110201+00:00 $IIMDA,29.9,I,1.013,B,14.2,C,,C,85.3,,,C,,T,,M,,N,,M*22
20220705 110201+00:00 $GPRMC,110156,A,4917.7900,N,12326.5596,W,5.79,4,050722,11.8,E,A,V*64
20220705 110201+00:00 $HCHDT,358.7,T*20
20220705 110201+00:00 $WIMWV,356.69,R,9.68,N,A*2B
20220705 110203+00:00 $IIMDA,29.9,I,1.013,B,14.2,C,,C,85.3,,,C,,T,,M,,N,,M*22
20220705 110203+00:00 $GPRMC,110158,A,4917.7996,N,12326.5596,W,5.79,4,050722,11.8,E,A,V*65
20220705 110203+00:00 $HCHDT,358.6,T*21
20220705 110203+00:00 $WIMWV,19.3,R,5.89,N,A*2C
20220705 110205+00:00 $IIMDA,29.9,I,1.013,B,14.2,C,,C,85.4,,,C,,T,,M,,N,,M*25
20220705 110205+00:00 $GPRMC,110200,A,4917.7996,N,12326.5596,W,5.79,4,050722,11.8,E,A,V*6B
20220705 110205+00:00 $HCHDT,358.6,T*21
20220705 110205+00:00 $WIMWV,0.19,R,8.28,N,A*29
20220705 110207+00:00 $IIMDA,29.9,I,1.013,B,14.2,C,,C,85.5,,,C,,T,,M,,N,,M*24
20220705 110207+00:00 $GPRMC,110202,A,4917.7996,N,12326.5596,W,5.79,4,050722,11.8,E,A,V*69
20220705 110207+00:00 $HCHDT,358.4,T*23
20220705 110207+00:00 $WIMWV,357.69,R,8.49,N,A*28
20220705 110209+00:00 $IIMDA,29.9,I,1.013,B,14.2,C,,C,85.5,,,C,,T,,M,,N,,M*24
20220705 110209+00:00 $GPRMC,110204,A,4917.8098,N,12326.5596,W,5.79,4,050722,11.8,E,A,V*67
20220705 110209+00:00 $HCHDT,358.1,T*26
20220705 110209+00:00 $WIMWV,355.99,R,9.99,N,A*29
20220705 110211+00:00 $IIMDA,29.9,I,1.013,B,14.2,C,,C,85.5,,,C,,T,,M,,N,,M*24
20220705 110211+00:00 $GPRMC,110206,A,4917.8098,N,12326.5596,W,5.79,4,050722,11.8,E,A,V*65
20220705 110211+00:00 $HCHDT,357.9,T*21
20220705 110211+00:00 $WIMWV,354.29,R,7.7,N,A*1A
20220705 110213+00:00 $IIMDA,29.9,I,1.013,B,14.2,C,,C,85.5,,,C,,T,,M,,N,,M*24
20220705 110213+00:00 $GPRMC,110208,A,4917.8098,N,12326.5596,W,5.79,4,050722,11.8,E,A,V*6B
20220705 110213+00:00 $HCHDT,357.6,T*2E
20220705 110213+00:00 $WIMWV,359.49,R,5.6,N,A*12
20220705 110215+00:00 $IIMDA,29.9,I,1.013,B,14.2,C,,C,85.5,,,C,,T,,M,,N,,M*24
20220705 110215+00:00 $GPRMC,110210,A,4917.8200,N,12326.5596,W,5.7,4,050722,11.8,E,A,V*58
20220705 110215+00:00 $HCHDT,357.3,T*2B
20220705 110215+00:00 $WIMWV,356.89,R,7.89,N,A*24
20220705 110217+00:00 $IIMDA,29.9,I,1.013,B,14.2,C,,C,85.5,,,C,,T,,M,,N,,M*24
20220705 110217+00:00 $GPRMC,110212,A,4917.8200,N,12326.5596,W,5.7,4,050722,11.8,E,A,V*5A
20220705 110217+00:00 $HCHDT,356.9,T*20
20220705 110217+00:00 $WIMWV,2.8,R,7.19,N,A*16
20220705 110219+00:00 $IIMDA,29.9,I,1.013,B,14.2,C,,C,85.5,,,C,,T,,M,,N,,M*24
20220705 110219+00:00 $GPRMC,110214,A,4917.8200,N,12326.5596,W,5.7,3,050722,11.8,E,A,V*5B
20220705 110219+00:00 $HCHDT,356.7,T*2E
20220705 110219+00:00 $WIMWV,358.79,R,6.59,N,A*29
20220705 110221+00:00 $IIMDA,29.9,I,1.013,B,14.2,C,,C,85.5,,,C,,T,,M,,N,,M*24
20220705 110221+00:00 $GPRMC,110216,A,4917.8296,N,12326.5596,W,5.7,3,050722,11.8,E,A,V*56
20220705 110221+00:00 $HCHDT,356.6,T*2F
20220705 110221+00:00 $WIMWV,6.2,R,6.49,N,A*1C
20220705 110223+00:00 $IIMDA,29.9,I,1.013,B,14.2,C,,C,85.5,,,C,,T,,M,,N,,M*24
20220705 110223+00:00 $GPRMC,110218,A,4917.8296,N,12326.5596,W,5.7,3,050722,11.8,E,A,V*58
20220705 110223+00:00 $HCHDT,356.6,T*2F
20220705 110223+00:00 $WIMWV,3.6,R,6.3,N,A*23
20220705 110225+00:00 $IIMDA,29.9,I,1.013,B,14.2,C,,C,85.5,,,C,,T,,M,,N,,M*24
20220705 110225+00:00 $GPRMC,110220,A,4917.8296,N,12326.5596,W,5.7,3,050722,11.8,E,A,V*53
20220705 110225+00:00 $HCHDT,356.7,T*2E
20220705 110225+00:00 $WIMWV,355.29,R,5.79,N,A*20
20220705 110227+00:00 $IIMDA,29.9,I,1.013,B,14.2,C,,C,85.5,,,C,,T,,M,,N,,M*24
20220705 110227+00:00 $GPRMC,110222,A,4917.8296,N,12326.5596,W,5.7,3,050722,11.8,E,A,V*51
20220705 110227+00:00 $HCHDT,356.8,T*21
20220705 110227+00:00 $WIMWV,359.69,R,7.58,N,A*29
20220705 110229+00:00 $IIMDA,29.9,I,1.013,B,14.2,C,,C,85.5,,,C,,T,,M,,N,,M*24
20220705 110229+00:00 $GPRMC,110224,A,4917.8398,N,12326.5596,W,5.7,2,050722,11.8,E,A,V*59
20220705 110229+00:00 $HCHDT,356.9,T*20
20220705 110229+00:00 $WIMWV,1.5,R,7.79,N,A*1E
20220705 110231+00:00 $IIMDA,29.9,I,1.013,B,14.2,C,,C,85.5,,,C,,T,,M,,N,,M*24
20220705 110231+00:00 $GPRMC,110226,A,4917.8398,N,12326.5596,W,5.7,2,050722,11.8,E,A,V*5B
20220705 110231+00:00 $HCHDT,357,T*36
20220705 110231+00:00 $WIMWV,356.49,R,6.3,N,A*1B
20220705 110233+00:00 $IIMDA,29.9,I,1.013,B,14.2,C,,C,85.4,,,C,,T,,M,,N,,M*25
20220705 110233+00:00 $GPRMC,110228,A,4917.8398,N,12326.5596,W,5.7,2,050722,11.8,E,A,V*55
20220705 110233+00:00 $HCHDT,357.1,T*29
20220705 110233+00:00 $WIMWV,357.69,R,6.88,N,A*2B
20220705 110235+00:00 $IIMDA,29.9,I,1.013,B,14.2,C,,C,85.4,,,C,,T,,M,,N,,M*25
20220705 110235+00:00 $GPRMC,110230,A,4917.8500,N,12326.5596,W,5.7,2,050722,11.8,E,A,V*5B
20220705 110235+00:00 $HCHDT,357.2,T*2A
20220705 110235+00:00 $WIMWV,356.09,R,10.79,N,A*15
20220705 110237+00:00 $IIMDA,29.9,I,1.013,B,14.2,C,,C,85.4,,,C,,T,,M,,N,,M*25
20220705 110237+00:00 $GPRMC,110232,A,4917.8500,N,12326.5500,W,5.7,2,050722,11.8,E,A,V*56
20220705 110237+00:00 $HCHDT,357.2,T*2A
20220705 110237+00:00 $WIMWV,346.39,R,5.48,N,A*21
20220705 110239+00:00 $IIMDA,29.9,I,1.013,B,14.2,C,,C,85.4,,,C,,T,,M,,N,,M*25
20220705 110239+00:00 $GPRMC,110234,A,4917.8500,N,12326.5500,W,5.7,2,050722,11.8,E,A,V*50
20220705 110239+00:00 $HCHDT,357.3,T*2B
20220705 110239+00:00 $WIMWV,4,R,5.99,N,A*0C
20220705 110241+00:00 $IIMDA,29.9,I,1.013,B,14.2,C,,C,85.4,,,C,,T,,M,,N,,M*25
20220705 110241+00:00 $GPRMC,110236,A,4917.8596,N,12326.5500,W,5.7,2,050722,11.8,E,A,V*5D
20220705 110241+00:00 $HCHDT,357.5,T*2D
20220705 110241+00:00 $WIMWV,1.2,R,5.38,N,A*1E
20220705 110243+00:00 $IIMDA,29.9,I,1.013,B,14.2,C,,C,85.4,,,C,,T,,M,,N,,M*25
20220705 110243+00:00 $GPRMC,110238,A,4917.8596,N,12326.5500,W,5.79,2,050722,11.8,E,A,V*6A
20220705 110243+00:00 $HCHDT,357.6,T*2E
20220705 110243+00:00 $WIMWV,6,R,3.6,N,A*3E
20220705 110245+00:00 $IIMDA,29.9,I,1.013,B,14.2,C,,C,85.4,,,C,,T,,M,,N,,M*25
20220705 110245+00:00 $GPRMC,110240,A,4917.8596,N,12326.5500,W,5.79,2,050722,11.8,E,A,V*65
20220705 110245+00:00 $HCHDT,357.7,T*2F
20220705 110245+00:00 $WIMWV,33.09,R,6.3,N,A*2F
20220705 110247+00:00 $IIMDA,29.9,I,1.013,B,14.2,C,,C,85.4,,,C,,T,,M,,N,,M*25
20220705 110247+00:00 $GPRMC,110242,A,4917.8698,N,12326.5500,W,5.79,2,050722,11.8,E,A,V*6A
20220705 110247+00:00 $HCHDT,358,T*39
20220705 110247+00:00 $WIMWV,355.29,R,3.5,N,A*1D
20220705 110249+00:00 $IIMDA,29.9,I,1.013,B,14.2,C,,C,85.4,,,C,,T,,M,,N,,M*25
20220705 110249+00:00 $GPRMC,110244,A,4917.8698,N,12326.5500,W,5.79,3,050722,11.8,E,A,V*6D
20220705 110249+00:00 $HCHDT,358.3,T*24
20220705 110249+00:00 $WIMWV,10.79,R,7,N,A*35
20220705 110251+00:00 $IIMDA,29.9,I,1.013,B,14.2,C,,C,85.4,,,C,,T,,M,,N,,M*25
20220705 110251+00:00 $GPRMC,110246,A,4917.8698,N,12326.5500,W,5.79,3,050722,11.8,E,A,V*6F
20220705 110251+00:00 $HCHDT,358.7,T*20
20220705 110251+00:00 $WIMWV,357.79,R,8.09,N,A*2D
20220705 110253+00:00 $IIMDA,29.9,I,1.013,B,14.2,C,,C,85.4,,,C,,T,,M,,N,,M*25
20220705 110253+00:00 $GPRMC,110248,A,4917.8800,N,12326.5500,W,5.79,3,050722,11.8,E,A,V*6E
20220705 110253+00:00 $HCHDT,359,T*38
20220705 110253+00:00 $WIMWV,359.19,R,9.19,N,A*25
20220705 110255+00:00 $IIMDA,29.9,I,1.013,B,14.2,C,,C,85.4,,,C,,T,,M,,N,,M*25
20220705 110255+00:00 $GPRMC,110250,A,4917.8800,N,12326.5500,W,5.79,3,050722,11.8,E,A,V*67
20220705 110255+00:00 $HCHDT,359.1,T*27
20220705 110255+00:00 $WIMWV,18.4,R,6.3,N,A*1B
20220705 110257+00:00 $IIMDA,29.9,I,1.013,B,14.2,C,,C,85.4,,,C,,T,,M,,N,,M*25
20220705 110257+00:00 $GPRMC,110252,A,4917.8800,N,12326.5500,W,5.79,3,050722,11.8,E,A,V*65
20220705 110257+00:00 $HCHDT,359.2,T*24
20220705 110257+00:00 $WIMWV,0.19,R,5.29,N,A*25
20220705 110259+00:00 $IIMDA,29.9,I,1.013,B,14.2,C,,C,85.4,,,C,,T,,M,,N,,M*25
20220705 110259+00:00 $GPRMC,110254,A,4917.8896,N,12326.5500,W,5.79,4,050722,11.8,E,A,V*6B
20220705 110259+00:00 $HCHDT,359.2,T*24
20220705 110259+00:00 $WIMWV,359.09,R,6.88,N,A*23
20220705 110301+00:00 $IIMDA,29.9,I,1.013,B,14.2,C,,C,85.4,,,C,,T,,M,,N,,M*25
20220705 110301+00:00 $GPRMC,110256,A,4917.8896,N,12326.5500,W,5.79,4,050722,11.8,E,A,V*69
20220705 110301+00:00 $HCHDT,359.1,T*27
20220705 110301+00:00 $WIMWV,356.09,R,7.99,N,A*2D
20220705 110303+00:00 $IIMDA,29.9,I,1.013,B,14.2,C,,C,85.4,,,C,,T,,M,,N,,M*25
20220705 110303+00:00 $GPRMC,110258,A,4917.8896,N,12326.5500,W,5.79,4,050722,11.8,E,A,V*67
20220705 110303+00:00 $HCHDT,359,T*38
20220705 110303+00:00 $WIMWV,350.49,R,7.29,N,A*24
20220705 110305+00:00 $IIMDA,29.9,I,1.013,B,14.2,C,,C,85.4,,,C,,T,,M,,N,,M*25
20220705 110305+00:00 $GPRMC,110300,A,4917.8998,N,12326.5500,W,5.79,4,050722,11.8,E,A,V*64
20220705 110305+00:00 $HCHDT,358.8,T*2F
20220705 110305+00:00 $WIMWV,350.49,R,5,N,A*03
20220705 110307+00:00 $IIMDA,29.9,I,1.013,B,14.2,C,,C,85.4,,,C,,T,,M,,N,,M*25
20220705 110307+00:00 $GPRMC,110302,A,4917.8998,N,12326.5500,W,5.79,4,050722,11.8,E,A,V*66
20220705 110307+00:00 $HCHDT,358.5,T*22
20220705 110307+00:00 $WIMWV,7.2,R,5.38,N,A*18
20220705 110309+00:00 $IIMDA,29.9,I,1.013,B,14.2,C,,C,85.4,,,C,,T,,M,,N,,M*25
20220705 110309+00:00 $GPRMC,110304,A,4917.8998,N,12326.5500,W,5.79,4,050722,11.8,E,A,V*60
20220705 110309+00:00 $HCHDT,358.2,T*25
20220705 110309+00:00 $WIMWV,0.19,R,4.39,N,A*25
20220705 110311+00:00 $IIMDA,29.9,I,1.013,B,14.2,C,,C,85.5,,,C,,T,,M,,N,,M*24
20220705 110311+00:00 $GPRMC,110306,A,4917.8998,N,12326.5500,W,5.79,4,050722,11.8,E,A,V*62
20220705 110311+00:00 $HCHDT,357.8,T*20
20220705 110311+00:00 $WIMWV,0.19,R,7.99,N,A*2C
20220705 110313+00:00 $IIMDA,29.9,I,1.013,B,14.2,C,,C,85.5,,,C,,T,,M,,N,,M*24
20220705 110313+00:00 $GPRMC,110308,A,4917.9100,N,12326.5500,W,5.79,4,050722,11.8,E,A,V*64
20220705 110313+00:00 $HCHDT,357.5,T*2D
20220705 110313+00:00 $WIMWV,354.89,R,9.68,N,A*27
20220705 110315+00:00 $IIMDA,29.9,I,1.013,B,14.2,C,,C,85.6,,,C,,T,,M,,N,,M*27
20220705 110315+00:00 $GPRMC,110310,A,4917.9100,N,12326.5500,W,5.7,4,050722,11.8,E,A,V*54
20220705 110315+00:00 $HCHDT,357.2,T*2A
20220705 110315+00:00 $WIMWV,355.29,R,8.4,N,A*17
20220705 110317+00:00 $IIMDA,29.9,I,1.013,B,14.2,C,,C,85.6,,,C,,T,,M,,N,,M*27
20220705 110317+00:00 $GPRMC,110312,A,4917.9100,N,12326.5500,W,5.7,3,050722,11.8,E,A,V*51
20220705 110317+00:00 $HCHDT,356.9,T*20
20220705 110317+00:00 $WIMWV,348.79,R,6.78,N,A*2B
20220705 110319+00:00 $IIMDA,29.9,I,1.013,B,14.2,C,,C,85.7,,,C,,T,,M,,N,,M*26
20220705 110319+00:00 $GPRMC,110314,A,4917.9196,N,12326.5500,W,5.7,3,050722,11.8,E,A,V*58
20220705 110319+00:00 $HCHDT,356.7,T*2E
20220705 110319+00:00 $WIMWV,335.59,R,3.69,N,A*26
20220705 110321+00:00 $IIMDA,29.9,I,1.013,B,14.2,C,,C,85.7,,,C,,T,,M,,N,,M*26
20220705 110321+00:00 $GPRMC,110316,A,4917.9196,N,12326.5500,W,5.7,3,050722,11.8,E,A,V*5A
20220705 110321+00:00 $HCHDT,356.6,T*2F
20220705 110321+00:00 $WIMWV,358.79,R,9.58,N,A*27
20220705 110323+00:00 $IIMDA,29.9,I,1.013,B,14.2,C,,C,85.7,,,C,,T,,M,,N,,M*26
20220705 110323+00:00 $GPRMC,110318,A,4917.9196,N,12326.5500,W,5.7,3,050722,11.8,E,A,V*54
20220705 110323+00:00 $HCHDT,356.3,T*2A
20220705 110323+00:00 $WIMWV,343.39,R,6.88,N,A*2B
20220705 110325+00:00 $IIMDA,29.9,I,1.013,B,14.2,C,,C,85.8,,,C,,T,,M,,N,,M*29
20220705 110325+00:00 $GPRMC,110320,A,4917.9298,N,12326.5500,W,5.7,3,050722,11.8,E,A,V*52
20220705 110325+00:00 $HCHDT,356.1,T*28
20220705 110325+00:00 $WIMWV,33.6,R,2.59,N,A*2B
20220705 110327+00:00 $IIMDA,29.9,I,1.013,B,14.2,C,,C,85.8,,,C,,T,,M,,N,,M*29
20220705 110327+00:00 $GPRMC,110322,A,4917.9298,N,12326.5500,W,5.7,3,050722,11.8,E,A,V*50
20220705 110327+00:00 $HCHDT,355.8,T*22
20220705 110327+00:00 $WIMWV,9,R,3.69,N,A*08
20220705 110329+00:00 $IIMDA,29.9,I,1.013,B,14.2,C,,C,85.8,,,C,,T,,M,,N,,M*29
20220705 110329+00:00 $GPRMC,110324,A,4917.9298,N,12326.5500,W,5.7,2,050722,11.8,E,A,V*57
20220705 110329+00:00 $HCHDT,355.5,T*2F
20220705 110329+00:00 $WIMWV,359.79,R,9.39,N,A*21
20220705 110331+00:00 $IIMDA,29.9,I,1.013,B,14.2,C,,C,85.9,,,C,,T,,M,,N,,M*28
20220705 110331+00:00 $GPRMC,110326,A,4917.9400,N,12326.5500,W,5.7,2,050722,11.8,E,A,V*52
20220705 110331+00:00 $HCHDT,355.4,T*2E
20220705 110331+00:00 $WIMWV,357.09,R,7.39,N,A*26
20220705 110333+00:00 $IIMDA,29.9,I,1.013,B,14.2,C,,C,85.8,,,C,,T,,M,,N,,M*29
20220705 110333+00:00 $GPRMC,110328,A,4917.9400,N,12326.5500,W,5.7,1,050722,11.8,E,A,V*5F
20220705 110333+00:00 $HCHDT,355.4,T*2E
20220705 110333+00:00 $WIMWV,353.89,R,5.99,N,A*22
20220705 110335+00:00 $IIMDA,29.9,I,1.013,B,14.2,C,,C,85.8,,,C,,T,,M,,N,,M*29
20220705 110335+00:00 $GPRMC,110330,A,4917.9400,N,12326.5500,W,5.7,1,050722,11.8,E,A,V*56
20220705 110335+00:00 $HCHDT,355.5,T*2F
20220705 110335+00:00 $WIMWV,357.99,R,6.78,N,A*2B
20220705 110337+00:00 $IIMDA,29.9,I,1.013,B,14.2,C,,C,85.8,,,C,,T,,M,,N,,M*29
20220705 110337+00:00 $GPRMC,110332,A,4917.9496,N,12326.5500,W,5.7,1,050722,11.8,E,A,V*5B
20220705 110337+00:00 $HCHDT,355.4,T*2E
20220705 110337+00:00 $WIMWV,357.89,R,7.39,N,A*2E
20220705 110339+00:00 $IIMDA,29.9,I,1.013,B,14.2,C,,C,85.8,,,C,,T,,M,,N,,M*29
20220705 110339+00:00 $GPRMC,110334,A,4917.9496,N,12326.5500,W,5.7,0,050722,11.8,E,A,V*5C
20220705 110339+00:00 $HCHDT,355.3,T*29
20220705 110339+00:00 $WIMWV,1.5,R,7,N,A*3E
20220705 110341+00:00 $IIMDA,29.9,I,1.013,B,14.2,C,,C,85.7,,,C,,T,,M,,N,,M*26
20220705 110341+00:00 $GPRMC,110336,A,4917.9496,N,12326.5500,W,5.7,0,050722,11.8,E,A,V*5E
20220705 110341+00:00 $HCHDT,355.3,T*29
20220705 110341+00:00 $WIMWV,356.79,R,8.49,N,A*28
20220705 110343+00:00 $IIMDA,29.9,I,1.013,B,14.2,C,,C,85.7,,,C,,T,,M,,N,,M*26
20220705 110343+00:00 $GPRMC,110338,A,4917.9598,N,12326.5500,W,5.7,0,050722,11.8,E,A,V*5F
20220705 110343+00:00 $HCHDT,355.4,T*2E
20220705 110343+00:00 $WIMWV,0.19,R,9.8,N,A*1A
20220705 110345+00:00 $IIMDA,29.9,I,1.013,B,14.2,C,,C,85.7,,,C,,T,,M,,N,,M*26
20220705 110345+00:00 $GPRMC,110340,A,4917.9598,N,12326.5500,W,5.7,359,050722,11.8,E,A,V*5F
20220705 110345+00:00 $HCHDT,355.5,T*2F
20220705 110345+00:00 $WIMWV,8.1,R,4.3,N,A*2D
20220705 110347+00:00 $IIMDA,29.9,I,1.013,B,14.2,C,,C,85.7,,,C,,T,,M,,N,,M*26
20220705 110347+00:00 $GPRMC,110342,A,4917.9598,N,12326.5500,W,5.7,359,050722,11.8,E,A,V*5D
20220705 110347+00:00 $HCHDT,355.8,T*22
20220705 110347+00:00 $WIMWV,345.09,R,7.48,N,A*23
20220705 110349+00:00 $IIMDA,29.9,I,1.013,B,14.2,C,,C,85.7,,,C,,T,,M,,N,,M*26
20220705 110349+00:00 $GPRMC,110344,A,4917.9700,N,12326.5500,W,5.79,359,050722,11.8,E,A,V*61
20220705 110349+00:00 $HCHDT,356,T*37
20220705 110349+00:00 $WIMWV,350.69,R,5.29,N,A*24
20220705 110351+00:00 $IIMDA,29.9,I,1.013,B,14.2,C,,C,85.7,,,C,,T,,M,,N,,M*26
20220705 110351+00:00 $GPRMC,110346,A,4917.9700,N,12326.5500,W,5.79,359,050722,11.8,E,A,V*63
20220705 110351+00:00 $HCHDT,356.2,T*2B
20220705 110351+00:00 $WIMWV,353.49,R,7,N,A*02
20220705 110353+00:00 $IIMDA,29.9,I,1.013,B,14.2,C,,C,85.7,,,C,,T,,M,,N,,M*26
20220705 110353+00:00 $GPRMC,110348,A,4917.9700,N,12326.5500,W,5.79,359,050722,11.8,E,A,V*6D
20220705 110353+00:00 $HCHDT,356.4,T*2D
20220705 110353+00:00 $WIMWV,358.29,R,6.78,N,A*2F
20220705 110355+00:00 $IIMDA,29.9,I,1.013,B,14.2,C,,C,85.8,,,C,,T,,M,,N,,M*29
20220705 110355+00:00 $GPRMC,110350,A,4917.9700,N,12326.5500,W,5.79,0,050722,11.8,E,A,V*6B
20220705 110355+00:00 $HCHDT,356.4,T*2D
20220705 110355+00:00 $WIMWV,353.59,R,9.19,N,A*2B
20220705 110357+00:00 $IIMDA,29.9,I,1.013,B,14.2,C,,C,85.8,,,C,,T,,M,,N,,M*29
20220705 110357+00:00 $GPRMC,110352,A,4917.9796,N,12326.5500,W,5.79,0,050722,11.8,E,A,V*66
20220705 110357+00:00 $HCHDT,356.4,T*2D
20220705 110357+00:00 $WIMWV,4.3,R,8.69,N,A*13
20220705 110359+00:00 $IIMDA,29.9,I,1.013,B,14.2,C,,C,85.8,,,C,,T,,M,,N,,M*29
20220705 110359+00:00 $GPRMC,110354,A,4917.9796,N,12326.5500,W,5.79,0,050722,11.8,E,A,V*60
20220705 110359+00:00 $HCHDT,356.4,T*2D
20220705 110359+00:00 $WIMWV,0.19,R,7.29,N,A*27
20220705 110401+00:00 $IIMDA,29.9,I,1.013,B,14.2,C,,C,85.8,,,C,,T,,M,,N,,M*29
20220705 110401+00:00 $GPRMC,110356,A,4917.9796,N,12326.5500,W,5.91,0,050722,11.8,E,A,V*64
20220705 110401+00:00 $HCHDT,356.3,T*2A
20220705 110401+00:00 $WIMWV,355.09,R,8.18,N,A*28
20220705 110403+00:00 $IIMDA,29.9,I,1.013,B,14.2,C,,C,85.8,,,C,,T,,M,,N,,M*29
20220705 110403+00:00 $GPRMC,110358,A,4917.9898,N,12326.5500,W,5.91,0,050722,11.8,E,A,V*6B
20220705 110403+00:00 $HCHDT,356.2,T*2B
20220705 110403+00:00 $WIMWV,357.29,R,7.19,N,A*26
20220705 110405+00:00 $IIMDA,29.9,I,1.013,B,14.2,C,,C,85.7,,,C,,T,,M,,N,,M*26
20220705 110405+00:00 $GPRMC,110400,A,4917.9898,N,12326.5500,W,5.91,0,050722,11.8,E,A,V*61
20220705 110405+00:00 $HCHDT,356.2,T*2B
20220705 110405+00:00 $WIMWV,3.1,R,8.28,N,A*13
20220705 110407+00:00 $IIMDA,29.9,I,1.013,B,14.2,C,,C,85.6,,,C,,T,,M,,N,,M*27
20220705 110407+00:00 $GPRMC,110402,A,4917.9898,N,12326.5500,W,5.91,0,050722,11.8,E,A,V*63
20220705 110407+00:00 $HCHDT,356.1,T*28
20220705 110407+00:00 $WIMWV,359.09,R,7.58,N,A*2F
20220705 110409+00:00 $IIMDA,29.9,I,1.013,B,14.2,C,,C,85.6,,,C,,T,,M,,N,,M*27
20220705 110409+00:00 $GPRMC,110404,A,4918.0000,N,12326.5500,W,5.91,0,050722,11.8,E,A,V*6A
20220705 110409+00:00 $HCHDT,356,T*37
20220705 110409+00:00 $WIMWV,342.89,R,5.89,N,A*23
20220705 110411+00:00 $IIMDA,29.9,I,1.013,B,14.2,C,,C,85.5,,,C,,T,,M,,N,,M*24
20220705 110411+00:00 $GPRMC,110406,A,4918.0000,N,12326.5500,W,5.79,0,050722,11.8,E,A,V*6E
20220705 110411+00:00 $HCHDT,355.9,T*23
20220705 110411+00:00 $WIMWV,353.99,R,4.9,N,A*1B
20220705 110413+00:00 $IIMDA,29.9,I,1.013,B,14.2,C,,C,85.4,,,C,,T,,M,,N,,M*25
20220705 110413+00:00 $GPRMC,110408,A,4918.0000,N,12326.5500,W,5.79,0,050722,11.8,E,A,V*60
20220705 110413+00:00 $HCHDT,355.8,T*22
20220705 110413+00:00 $WIMWV,359.09,R,5.89,N,A*21
20220705 110415+00:00 $IIMDA,29.9,I,1.013,B,14.2,C,,C,85.4,,,C,,T,,M,,N,,M*25
20220705 110415+00:00 $GPRMC,110410,A,4918.0096,N,12326.5500,W,5.79,0,050722,11.8,E,A,V*66
20220705 110415+00:00 $HCHDT,355.7,T*2D
20220705 110415+00:00 $WIMWV,0.19,R,4.68,N,A*21
20220705 110417+00:00 $IIMDA,29.9,I,1.013,B,14.1,C,,C,85.3,,,C,,T,,M,,N,,M*21
20220705 110417+00:00 $GPRMC,110412,A,4918.0096,N,12326.5500,W,5.79,0,050722,11.8,E,A,V*64
20220705 110417+00:00 $HCHDT,355.6,T*2C
20220705 110417+00:00 $WIMWV,1.8,R,5.19,N,A*17
20220705 110419+00:00 $IIMDA,29.9,I,1.013,B,14.1,C,,C,85.4,,,C,,T,,M,,N,,M*26
20220705 110419+00:00 $GPRMC,110414,A,4918.0096,N,12326.5500,W,5.79,0,050722,11.8,E,A,V*62
20220705 110419+00:00 $HCHDT,355.5,T*2F
20220705 110419+00:00 $WIMWV,356.89,R,4.3,N,A*15
20220705 110421+00:00 $IIMDA,29.9,I,1.013,B,14.1,C,,C,85.3,,,C,,T,,M,,N,,M*21
20220705 110421+00:00 $GPRMC,110416,A,4918.0198,N,12326.5500,W,5.79,0,050722,11.8,E,A,V*6F
20220705 110421+00:00 $HCHDT,355.4,T*2E
20220705 110421+00:00 $WIMWV,355.59,R,5.6,N,A*1F
20220705 110423+00:00 $IIMDA,29.9,I,1.013,B,14.1,C,,C,85.3,,,C,,T,,M,,N,,M*21
20220705 110423+00:00 $GPRMC,110418,A,4918.0198,N,12326.5500,W,5.79,359,050722,11.8,E,A,V*6E
20220705 110423+00:00 $HCHDT,355.2,T*28
20220705 110423+00:00 $WIMWV,358.29,R,4.68,N,A*2C
20220705 110425+00:00 $IIMDA,29.9,I,1.013,B,14.1,C,,C,85.3,,,C,,T,,M,,N,,M*21
20220705 110425+00:00 $GPRMC,110420,A,4918.0198,N,12326.5500,W,5.79,359,050722,11.8,E,A,V*65
20220705 110425+00:00 $HCHDT,355.1,T*2B
20220705 110425+00:00 $WIMWV,344.09,R,4.2,N,A*1F
20220705 110427+00:00 $IIMDA,29.9,I,1.013,B,14.1,C,,C,85.2,,,C,,T,,M,,N,,M*20
20220705 110427+00:00 $GPRMC,110422,A,4918.0300,N,12326.5500,W,5.7,359,050722,11.8,E,A,V*5D
20220705 110427+00:00 $HCHDT,354.9,T*22
20220705 110427+00:00 $WIMWV,4.3,R,4.59,N,A*1C
20220705 110429+00:00 $IIMDA,29.9,I,1.013,B,14.1,C,,C,85.2,,,C,,T,,M,,N,,M*20
20220705 110429+00:00 $GPRMC,110424,A,4918.0300,N,12326.5500,W,5.7,359,050722,11.8,E,A,V*5B
20220705 110429+00:00 $HCHDT,354.8,T*23
20220705 110429+00:00 $WIMWV,2.9,R,3.19,N,A*13
20220705 110431+00:00 $IIMDA,29.9,I,1.013,B,14.1,C,,C,85.3,,,C,,T,,M,,N,,M*21
20220705 110431+00:00 $GPRMC,110426,A,4918.0300,N,12326.5500,W,5.7,359,050722,11.8,E,A,V*59
20220705 110431+00:00 $HCHDT,354.7,T*2C
20220705 110431+00:00 $WIMWV,330.09,R,4.08,N,A*26
20220705 110433+00:00 $IIMDA,29.9,I,1.013,B,14.1,C,,C,85.3,,,C,,T,,M,,N,,M*21
20220705 110433+00:00 $GPRMC,110428,A,4918.0396,N,12326.5500,W,5.7,359,050722,11.8,E,A,V*58
20220705 110433+00:00 $HCHDT,354.6,T*2D
20220705 110433+00:00 $WIMWV,343.79,R,4.59,N,A*21
20220705 110435+00:00 $IIMDA,29.9,I,1.013,B,14.1,C,,C,85.3,,,C,,T,,M,,N,,M*21
20220705 110435+00:00 $GPRMC,110430,A,4918.0396,N,12326.5500,W,5.7,359,050722,11.8,E,A,V*51
20220705 110435+00:00 $HCHDT,354.4,T*2F
20220705 110435+00:00 $WIMWV,4.39,R,4.68,N,A*27
20220705 110437+00:00 $IIMDA,29.9,I,1.013,B,14.1,C,,C,85.3,,,C,,T,,M,,N,,M*21
20220705 110437+00:00 $GPRMC,110432,A,4918.0396,N,12326.5500,W,5.7,359,050722,11.8,E,A,V*53
20220705 110437+00:00 $HCHDT,354.2,T*29
20220705 110437+00:00 $WIMWV,356.79,R,4.2,N,A*1B
20220705 110439+00:00 $IIMDA,29.9,I,1.013,B,14.1,C,,C,85.3,,,C,,T,,M,,N,,M*21
20220705 110439+00:00 $GPRMC,110434,A,4918.0498,N,12326.5500,W,5.7,359,050722,11.8,E,A,V*5C
20220705 110439+00:00 $HCHDT,354.1,T*2A
20220705 110439+00:00 $WIMWV,351.09,R,7.79,N,A*24
20220705 110441+00:00 $IIMDA,29.9,I,1.013,B,14.1,C,,C,85.3,,,C,,T,,M,,N,,M*21
20220705 110441+00:00 $GPRMC,110436,A,4918.0498,N,12326.5500,W,5.7,359,050722,11.8,E,A,V*5E
20220705 110441+00:00 $HCHDT,354,T*35
20220705 110441+00:00 $WIMWV,356.39,R,10.28,N,A*12
20220705 110443+00:00 $IIMDA,29.9,I,1.013,B,14.1,C,,C,85.3,,,C,,T,,M,,N,,M*21
20220705 110443+00:00 $GPRMC,110438,A,4918.0498,N,12326.5500,W,5.7,359,050722,11.8,E,A,V*50
20220705 110443+00:00 $HCHDT,353.9,T*25
20220705 110443+00:00 $WIMWV,2.9,R,6.78,N,A*11
20220705 110445+00:00 $IIMDA,29.9,I,1.013,B,14.1,C,,C,85.2,,,C,,T,,M,,N,,M*20
20220705 110445+00:00 $GPRMC,110440,A,4918.0498,N,12326.5500,W,5.7,359,050722,11.8,E,A,V*5F
20220705 110445+00:00 $HCHDT,353.9,T*25
20220705 110445+00:00 $WIMWV,9,R,2.1,N,A*37
20220705 110447+00:00 $IIMDA,29.9,I,1.013,B,14.1,C,,C,85.2,,,C,,T,,M,,N,,M*20
20220705 110447+00:00 $GPRMC,110442,A,4918.0600,N,12326.5500,W,5.7,359,050722,11.8,E,A,V*5E
20220705 110447+00:00 $HCHDT,353.9,T*25
20220705 110447+00:00 $WIMWV,340.39,R,1.69,N,A*20
20220705 110449+00:00 $IIMDA,29.9,I,1.013,B,14.1,C,,C,85.2,,,C,,T,,M,,N,,M*20
20220705 110449+00:00 $GPRMC,110444,A,4918.0600,N,12326.5500,W,5.7,359,050722,11.8,E,A,V*58
20220705 110449+00:00 $HCHDT,354,T*35
20220705 110449+00:00 $WIMWV,237.19,R,0.99,N,A*2D
20220705 110451+00:00 $IIMDA,29.9,I,1.013,B,14.1,C,,C,85.1,,,C,,T,,M,,N,,M*23
20220705 110451+00:00 $GPRMC,110446,A,4918.0600,N,12326.5500,W,5.7,359,050722,11.8,E,A,V*5A
20220705 110451+00:00 $HCHDT,354.1,T*2A
20220705 110451+00:00 $WIMWV,356.49,R,6.49,N,A*25
20220705 110453+00:00 $IIMDA,29.9,I,1.013,B,14.1,C,,C,85.2,,,C,,T,,M,,N,,M*20
20220705 110453+00:00 $GPRMC,110448,A,4918.0696,N,12326.5500,W,5.7,359,050722,11.8,E,A,V*5B
20220705 110453+00:00 $HCHDT,354.1,T*2A
20220705 110453+00:00 $WIMWV,336.19,R,5.89,N,A*29
20220705 110455+00:00 $IIMDA,29.9,I,1.013,B,14.1,C,,C,85.1,,,C,,T,,M,,N,,M*23
20220705 110455+00:00 $GPRMC,110450,A,4918.0696,N,12326.5500,W,5.7,359,050722,11.8,E,A,V*52
20220705 110455+00:00 $HCHDT,354.1,T*2A
20220705 110455+00:00 $WIMWV,6.3,R,2.2,N,A*26
20220705 110457+00:00 $IIMDA,29.9,I,1.013,B,14.1,C,,C,85.1,,,C,,T,,M,,N,,M*23
20220705 110457+00:00 $GPRMC,110452,A,4918.0696,N,12326.5500,W,5.7,359,050722,11.8,E,A,V*50
20220705 110457+00:00 $HCHDT,354,T*35
20220705 110457+00:00 $WIMWV,333.39,R,3.79,N,A*27
20220705 110459+00:00 $IIMDA,29.9,I,1.013,B,14.1,C,,C,85.1,,,C,,T,,M,,N,,M*23
20220705 110459+00:00 $GPRMC,110454,A,4918.0798,N,12326.5500,W,5.7,359,050722,11.8,E,A,V*59
20220705 110459+00:00 $HCHDT,354.1,T*2A
20220705 110459+00:00 $WIMWV,5.9,R,6.3,N,A*2A
20220705 110501+00:00 $IIMDA,29.9,I,1.013,B,14.1,C,,C,85.1,,,C,,T,,M,,N,,M*23
20220705 110501+00:00 $GPRMC,110456,A,4918.0798,N,12326.5500,W,5.7,359,050722,11.8,E,A,V*5B
20220705 110501+00:00 $HCHDT,354,T*35
20220705 110501+00:00 $WIMWV,354.39,R,8.18,N,A*2A
20220705 110503+00:00 $IIMDA,29.9,I,1.013,B,14.1,C,,C,85,,,C,,T,,M,,N,,M*3C
20220705 110503+00:00 $GPRMC,110458,A,4918.0798,N,12326.5500,W,5.7,359,050722,11.8,E,A,V*55
20220705 110503+00:00 $HCHDT,354,T*35
20220705 110503+00:00 $WIMWV,350.49,R,4.59,N,A*20
20220705 110505+00:00 $IIMDA,29.9,I,1.013,B,14.1,C,,C,84.9,,,C,,T,,M,,N,,M*2A
20220705 110505+00:00 $GPRMC,110500,A,4918.0900,N,12326.5500,W,5.7,359,050722,11.8,E,A,V*56
20220705 110505+00:00 $HCHDT,353.9,T*25
20220705 110505+00:00 $WIMWV,6.9,R,3.38,N,A*14
20220705 110507+00:00 $IIMDA,29.9,I,1.013,B,14.1,C,,C,84.8,,,C,,T,,M,,N,,M*2B
20220705 110507+00:00 $GPRMC,110502,A,4918.0900,N,12326.5500,W,5.79,359,050722,11.8,E,A,V*6D
20220705 110507+00:00 $HCHDT,353.9,T*25
20220705 110507+00:00 $WIMWV,343.29,R,3.29,N,A*24
20220705 110509+00:00 $IIMDA,29.9,I,1.013,B,14.1,C,,C,84.8,,,C,,T,,M,,N,,M*2B
20220705 110509+00:00 $GPRMC,110504,A,4918.0900,N,12326.5500,W,5.79,358,050722,11.8,E,A,V*6A
20220705 110509+00:00 $HCHDT,354,T*35
20220705 110509+00:00 $WIMWV,7.2,R,7.1,N,A*20
20220705 110511+00:00 $IIMDA,29.9,I,1.013,B,14.1,C,,C,84.7,,,C,,T,,M,,N,,M*24
20220705 110511+00:00 $GPRMC,110506,A,4918.0996,N,12326.5500,W,5.79,358,050722,11.8,E,A,V*67
20220705 110511+00:00 $HCHDT,354,T*35
20220705 110511+00:00 $WIMWV,355.29,R,5.38,N,A*25
20220705 110513+00:00 $IIMDA,29.9,I,1.013,B,14.1,C,,C,84.6,,,C,,T,,M,,N,,M*25
20220705 110513+00:00 $GPRMC,110508,A,4918.0996,N,12326.5500,W,5.79,358,050722,11.8,E,A,V*69
20220705 110513+00:00 $HCHDT,354.1,T*2A
20220705 110513+00:00 $WIMWV,99.2,R,1.59,N,A*2C
20220705 110515+00:00 $IIMDA,29.9,I,1.013,B,14.1,C,,C,84.6,,,C,,T,,M,,N,,M*25
20220705 110515+00:00 $GPRMC,110510,A,4918.0996,N,12326.5500,W,5.79,358,050722,11.8,E,A,V*60
20220705 110515+00:00 $HCHDT,354.2,T*29
20220705 110515+00:00 $WIMWV,334.89,R,8.09,N,A*27
20220705 110517+00:00 $IIMDA,29.9,I,1.013,B,14.1,C,,C,84.6,,,C,,T,,M,,N,,M*25
20220705 110517+00:00 $GPRMC,110512,A,4918.1098,N,12326.5500,W,5.79,358,050722,11.8,E,A,V*64
20220705 110517+00:00 $HCHDT,354.5,T*2E
20220705 110517+00:00 $WIMWV,358.29,R,7.7,N,A*16
20220705 110519+00:00 $IIMDA,29.9,I,1.013,B,14.1,C,,C,84.6,,,C,,T,,M,,N,,M*25
20220705 110519+00:00 $GPRMC,110514,A,4918.1098,N,12326.5500,W,5.79,358,050722,11.8,E,A,V*62
20220705 110519+00:00 $HCHDT,354.6,T*2D
20220705 110519+00:00 $WIMWV,7.6,R,3.6,N,A*27
20220705 110521+00:00 $IIMDA,29.9,I,1.013,B,14.1,C,,C,84.6,,,C,,T,,M,,N,,M*25
20220705 110521+00:00 $GPRMC,110516,A,4918.1098,N,12326.5500,W,5.79,358,050722,11.8,E,A,V*60
20220705 110521+00:00 $HCHDT,354.6,T*2D
20220705 110521+00:00 $WIMWV,1.8,R,7.1,N,A*2C
20220705 110523+00:00 $IIMDA,29.9,I,1.013,B,14.1,C,,C,84.6,,,C,,T,,M,,N,,M*25
20220705 110523+00:00 $GPRMC,110518,A,4918.1200,N,12326.5500,W,5.79,358,050722,11.8,E,A,V*6D
20220705 110523+00:00 $HCHDT,354.6,T*2D
20220705 110523+00:00 $WIMWV,13.4,R,4.68,N,A*2F
20220705 110525+00:00 $IIMDA,29.9,I,1.013,B,14.1,C,,C,84.7,,,C,,T,,M,,N,,M*24
20220705 110525+00:00 $GPRMC,110520,A,4918.1200,N,12326.5500,W,5.79,358,050722,11.8,E,A,V*66
20220705 110525+00:00 $HCHDT,354.6,T*2D
20220705 110525+00:00 $WIMWV,356.09,R,6.3,N,A*1F
20220705 110527+00:00 $IIMDA,29.9,I,1.013,B,14.1,C,,C,84.7,,,C,,T,,M,,N,,M*24
20220705 110527+00:00 $GPRMC,110522,A,4918.1200,N,12326.5500,W,5.79,358,050722,11.8,E,A,V*64
20220705 110527+00:00 $HCHDT,354.6,T*2D
20220705 110527+00:00 $WIMWV,26.5,R,6.08,N,A*2C
20220705 110529+00:00 $IIMDA,29.9,I,1.013,B,14.1,C,,C,84.8,,,C,,T,,M,,N,,M*2B
20220705 110529+00:00 $GPRMC,110524,A,4918.1296,N,12326.5500,W,5.79,358,050722,11.8,E,A,V*6D
20220705 110529+00:00 $HCHDT,354.6,T*2D
20220705 110529+00:00 $WIMWV,354.89,R,5.89,N,A*24
20220705 110531+00:00 $IIMDA,29.9,I,1.013,B,14.1,C,,C,84.7,,,C,,T,,M,,N,,M*24
20220705 110531+00:00 $GPRMC,110526,A,4918.1296,N,12326.5500,W,5.79,358,050722,11.8,E,A,V*6F
20220705 110531+00:00 $HCHDT,354.4,T*2F
20220705 110531+00:00 $WIMWV,7.2,R,4.78,N,A*1D
20220705 110533+00:00 $IIMDA,29.9,I,1.013,B,14.1,C,,C,84.7,,,C,,T,,M,,N,,M*24
20220705 110533+00:00 $GPRMC,110528,A,4918.1296,N,12326.5500,W,5.79,358,050722,11.8,E,A,V*61
20220705 110533+00:00 $HCHDT,354.2,T*29
20220705 110533+00:00 $WIMWV,4.3,R,6.69,N,A*1D
20220705 110535+00:00 $IIMDA,29.9,I,1.013,B,14.1,C,,C,84.7,,,C,,T,,M,,N,,M*24
20220705 110535+00:00 $GPRMC,110530,A,4918.1296,N,12326.5500,W,5.79,358,050722,11.8,E,A,V*68
20220705 110535+00:00 $HCHDT,354,T*35
20220705 110535+00:00 $WIMWV,37.6,R,3.98,N,A*23
20220705 110537+00:00 $IIMDA,29.9,I,1.013,B,14.1,C,,C,84.7,,,C,,T,,M,,N,,M*24
20220705 110537+00:00 $GPRMC,110532,A,4918.1398,N,12326.5500,W,5.79,358,050722,11.8,E,A,V*65
20220705 110537+00:00 $HCHDT,353.8,T*24
20220705 110537+00:00 $WIMWV,350.79,R,4.68,N,A*21
20220705 110539+00:00 $IIMDA,29.9,I,1.013,B,14.1,C,,C,84.7,,,C,,T,,M,,N,,M*24
20220705 110539+00:00 $GPRMC,110534,A,4918.1398,N,12326.5500,W,5.7,358,050722,11.8,E,A,V*5A
20220705 110539+00:00 $HCHDT,353.7,T*2B
20220705 110539+00:00 $WIMWV,28.5,R,4.49,N,A*25
20220705 110541+00:00 $IIMDA,29.9,I,1.013,B,14.1,C,,C,84.6,,,C,,T,,M,,N,,M*25
20220705 110541+00:00 $GPRMC,110536,A,4918.1398,N,12326.5500,W,5.7,358,050722,11.8,E,A,V*58
20220705 110541+00:00 $HCHDT,353.5,T*29
20220705 110541+00:00 $WIMWV,355.09,R,5.79,N,A*22
20220705 110543+00:00 $IIMDA,29.9,I,1.013,B,14.1,C,,C,84.6,,,C,,T,,M,,N,,M*25
20220705 110543+00:00 $GPRMC,110538,A,4918.1500,N,12326.5500,W,5.7,358,050722,11.8,E,A,V*51
20220705 110543+00:00 $HCHDT,353.4,T*28
20220705 110543+00:00 $WIMWV,78.5,R,3.19,N,A*22
20220705 110545+00:00 $IIMDA,29.9,I,1.013,B,14.1,C,,C,84.6,,,C,,T,,M,,N,,M*25
20220705 110545+00:00 $GPRMC,110540,A,4918.1500,N,12326.5500,W,5.7,358,050722,11.8,E,A,V*5E
20220705 110545+00:00 $HCHDT,353.2,T*2E
20220705 110545+00:00 $WIMWV,302.99,R,2.8,N,A*18
20220705 110547+00:00 $IIMDA,29.9,I,1.013,B,14.1,C,,C,84.6,,,C,,T,,M,,N,,M*25
20220705 110547+00:00 $GPRMC,110542,A,4918.1500,N,12326.5500,W,5.7,358,050722,11.8,E,A,V*5C
20220705 110547+00:00 $HCHDT,353.1,T*2D
20220705 110547+00:00 $WIMWV,335.89,R,5.29,N,A*29
20220705 110549+00:00 $IIMDA,29.9,I,1.013,B,14.1,C,,C,84.6,,,C,,T,,M,,N,,M*25
20220705 110549+00:00 $GPRMC,110544,A,4918.1596,N,12326.5500,W,5.7,358,050722,11.8,E,A,V*55
20220705 110549+00:00 $HCHDT,353,T*32
20220705 110549+00:00 $WIMWV,324.89,R,5.29,N,A*29
20220705 110551+00:00 $IIMDA,29.9,I,1.013,B,14.1,C,,C,84.5,,,C,,T,,M,,N,,M*26
20220705 110551+00:00 $GPRMC,110546,A,4918.1596,N,12326.5500,W,5.7,358,050722,11.8,E,A,V*57
20220705 110551+00:00 $HCHDT,352.9,T*24
20220705 110551+00:00 $WIMWV,9.4,R,5.6,N,A*2D
20220705 110553+00:00 $IIMDA,29.9,I,1.013,B,14.1,C,,C,84.5,,,C,,T,,M,,N,,M*26
20220705 110553+00:00 $GPRMC,110548,A,4918.1596,N,12326.5596,W,5.7,358,050722,11.8,E,A,V*56
20220705 110553+00:00 $HCHDT,352.9,T*24
20220705 110553+00:00 $WIMWV,6.39,R,5,N,A*04
20220705 110555+00:00 $IIMDA,29.9,I,1.013,B,14.1,C,,C,84.5,,,C,,T,,M,,N,,M*26
20220705 110555+00:00 $GPRMC,110550,A,4918.1698,N,12326.5596,W,5.7,358,050722,11.8,E,A,V*52
20220705 110555+00:00 $HCHDT,352.8,T*25
20220705 110555+00:00 $WIMWV,355.49,R,7,N,A*04
20220705 110557+00:00 $IIMDA,29.9,I,1.013,B,14.1,C,,C,84.4,,,C,,T,,M,,N,,M*27
20220705 110557+00:00 $GPRMC,110552,A,4918.1698,N,12326.5596,W,5.7,358,050722,11.8,E,A,V*50
20220705 110557+00:00 $HCHDT,352.6,T*2B
20220705 110557+00:00 $WIMWV,335.39,R,6.18,N,A*23
20220705 110559+00:00 $IIMDA,29.9,I,1.013,B,14.1,C,,C,84.4,,,C,,T,,M,,N,,M*27
20220705 110559+00:00 $GPRMC,110554,A,4918.1698,N,12326.5596,W,5.7,358,050722,11.8,E,A,V*56
20220705 110559+00:00 $HCHDT,352.5,T*28
20220705 110559+00:00 $WIMWV,21.59,R,6.49,N,A*17
20220705 110601+00:00 $IIMDA,29.9,I,1.013,B,14.1,C,,C,84.4,,,C,,T,,M,,N,,M*27
20220705 110601+00:00 $GPRMC,110556,A,4918.1800,N,12326.5596,W,5.7,358,050722,11.8,E,A,V*5B
20220705 110601+00:00 $HCHDT,352.4,T*29
20220705 110601+00:00 $WIMWV,25.79,R,4.68,N,A*10
20220705 110603+00:00 $IIMDA,29.9,I,1.013,B,14.1,C,,C,84.4,,,C,,T,,M,,N,,M*27
20220705 110603+00:00 $GPRMC,110558,A,4918.1800,N,12326.5596,W,5.7,358,050722,11.8,E,A,V*55
20220705 110603+00:00 $HCHDT,352.3,T*2E
20220705 110603+00:00 $WIMWV,4.3,R,6.08,N,A*1A
20220705 110605+00:00 $IIMDA,29.9,I,1.013,B,14.1,C,,C,84.4,,,C,,T,,M,,N,,M*27
20220705 110605+00:00 $GPRMC,110600,A,4918.1800,N,12326.5596,W,5.7,358,050722,11.8,E,A,V*5B
20220705 110605+00:00 $HCHDT,352.2,T*2F
20220705 110605+00:00 $WIMWV,345.09,R,4.59,N,A*20
20220705 110607+00:00 $IIMDA,29.9,I,1.013,B,14.1,C,,C,84.4,,,C,,T,,M,,N,,M*27
20220705 110607+00:00 $GPRMC,110602,A,4918.1896,N,12326.5596,W,5.7,358,050722,11.8,E,A,V*56
20220705 110607+00:00 $HCHDT,352.2,T*2F
20220705 110607+00:00 $WIMWV,11.8,R,2.59,N,A*25
20220705 110609+00:00 $IIMDA,29.9,I,1.013,B,14.1,C,,C,84.4,,,C,,T,,M,,N,,M*27
20220705 110609+00:00 $GPRMC,110604,A,4918.1896,N,12326.5596,W,5.7,358,050722,11.8,E,A,V*50
20220705 110609+00:00 $HCHDT,352.1,T*2C
20220705 110609+00:00 $WIMWV,131.09,R,0.7,N,A*1E
20220705 110611+00:00 $IIMDA,29.9,I,1.013,B,14.2,C,,C,84.4,,,C,,T,,M,,N,,M*24
20220705 110611+00:00 $GPRMC,110606,A,4918.1896,N,12326.5596,W,5.7,358,050722,11.8,E,A,V*52
20220705 110611+00:00 $HCHDT,352.1,T*2C
20220705 110611+00:00 $WIMWV,310.09,R,5.7,N,A*1A
20220705 110613+00:00 $IIMDA,29.9,I,1.013,B,14.2,C,,C,84.4,,,C,,T,,M,,N,,M*24
20220705 110613+00:00 $GPRMC,110608,A,4918.1896,N,12326.5596,W,5.7,358,050722,11.8,E,A,V*5C
20220705 110613+00:00 $HCHDT,352,T*33
20220705 110613+00:00 $WIMWV,10,R,4.2,N,A*0A
20220705 110615+00:00 $IIMDA,29.9,I,1.013,B,14.2,C,,C,84.4,,,C,,T,,M,,N,,M*24
20220705 110615+00:00 $GPRMC,110610,A,4918.1998,N,12326.5596,W,5.7,357,050722,11.8,E,A,V*55
20220705 110615+00:00 $HCHDT,351.9,T*27
20220705 110615+00:00 $WIMWV,0.19,R,7,N,A*02
20220705 110617+00:00 $IIMDA,29.9,I,1.013,B,14.2,C,,C,84.5,,,C,,T,,M,,N,,M*25
20220705 110617+00:00 $GPRMC,110612,A,4918.1998,N,12326.5596,W,5.7,357,050722,11.8,E,A,V*57
20220705 110617+00:00 $HCHDT,351.8,T*26
20220705 110617+00:00 $WIMWV,3.1,R,5.99,N,A*14
20220705 110619+00:00 $IIMDA,29.9,I,1.013,B,14.2,C,,C,84.5,,,C,,T,,M,,N,,M*25
20220705 110619+00:00 $GPRMC,110614,A,4918.1998,N,12326.5596,W,5.7,357,050722,11.8,E,A,V*51
20220705 110619+00:00 $HCHDT,351.7,T*29
20220705 110619+00:00 $WIMWV,346.39,R,2.99,N,A*2A
20220705 110621+00:00 $IIMDA,29.9,I,1.013,B,14.2,C,,C,84.4,,,C,,T,,M,,N,,M*24
20220705 110621+00:00 $GPRMC,110616,A,4918.2100,N,12326.5596,W,5.7,357,050722,11.8,E,A,V*59
20220705 110621+00:00 $HCHDT,351.5,T*2B
20220705 110621+00:00 $WIMWV,1.7,R,9.68,N,A*12
20220705 110623+00:00 $IIMDA,29.9,I,1.013,B,14.2,C,,C,84.5,,,C,,T,,M,,N,,M*25
20220705 110623+00:00 $GPRMC,110618,A,4918.2100,N,12326.5596,W,5.7,357,050722,11.8,E,A,V*57
20220705 110623+00:00 $HCHDT,351.4,T*2A
20220705 110623+00:00 $WIMWV,337.19,R,2.99,N,A*2E
20220705 110625+00:00 $IIMDA,29.9,I,1.013,B,14.2,C,,C,84.5,,,C,,T,,M,,N,,M*25
20220705 110625+00:00 $GPRMC,110620,A,4918.2100,N,12326.5596,W,5.7,357,050722,11.8,E,A,V*5C
20220705 110625+00:00 $HCHDT,351.2,T*2C
20220705 110625+00:00 $WIMWV,17.1,R,4.59,N,A*2C
20220705 110627+00:00 $IIMDA,29.9,I,1.013,B,14.2,C,,C,84.5,,,C,,T,,M,,N,,M*25
20220705 110627+00:00 $GPRMC,110622,A,4918.2196,N,12326.5596,W,5.7,357,050722,11.8,E,A,V*51
20220705 110627+00:00 $HCHDT,351.1,T*2F
20220705 110627+00:00 $WIMWV,0.19,R,8.98,N,A*22
20220705 110629+00:00 $IIMDA,29.9,I,1.013,B,14.2,C,,C,84.5,,,C,,T,,M,,N,,M*25
20220705 110629+00:00 $GPRMC,110624,A,4918.2196,N,12326.5596,W,5.7,357,050722,11.8,E,A,V*57
20220705 110629+00:00 $HCHDT,350.9,T*26
20220705 110629+00:00 $WIMWV,1.8,R,7,N,A*33
20220705 110631+00:00 $IIMDA,29.9,I,1.013,B,14.2,C,,C,84.6,,,C,,T,,M,,N,,M*26
20220705 110631+00:00 $GPRMC,110626,A,4918.2196,N,12326.5596,W,5.7,357,050722,11.8,E,A,V*55
20220705 110631+00:00 $HCHDT,350.8,T*27
20220705 110631+00:00 $WIMWV,6.5,R,8.4,N,A*2C
20220705 110633+00:00 $IIMDA,29.9,I,1.013,B,14.2,C,,C,84.6,,,C,,T,,M,,N,,M*26
20220705 110633+00:00 $GPRMC,110628,A,4918.2298,N,12326.5596,W,5.7,356,050722,11.8,E,A,V*57
20220705 110633+00:00 $HCHDT,350.8,T*27
20220705 110633+00:00 $WIMWV,331.59,R,3.89,N,A*2C
20220705 110635+00:00 $IIMDA,29.9,I,1.013,B,14.2,C,,C,84.6,,,C,,T,,M,,N,,M*26
20220705 110635+00:00 $GPRMC,110630,A,4918.2298,N,12326.5596,W,5.7,356,050722,11.8,E,A,V*5E
20220705 110635+00:00 $HCHDT,350.7,T*28
20220705 110635+00:00 $WIMWV,356.79,R,7.19,N,A*22
20220705 110637+00:00 $IIMDA,29.9,I,1.013,B,14.2,C,,C,84.7,,,C,,T,,M,,N,,M*27
20220705 110637+00:00 $GPRMC,110632,A,4918.2298,N,12326.5596,W,5.7,356,050722,11.8,E,A,V*5C
20220705 110637+00:00 $HCHDT,350.7,T*28
20220705 110637+00:00 $WIMWV,2.6,R,4.2,N,A*21
20220705 110639+00:00 $IIMDA,29.9,I,1.013,B,14.2,C,,C,84.7,,,C,,T,,M,,N,,M*27
20220705 110639+00:00 $GPRMC,110634,A,4918.2400,N,12326.5596,W,5.7,356,050722,11.8,E,A,V*5D
20220705 110639+00:00 $HCHDT,350.8,T*27
20220705 110639+00:00 $WIMWV,292.49,R,3.6,N,A*12
20220705 110641+00:00 $IIMDA,29.9,I,1.013,B,14.2,C,,C,84.7,,,C,,T,,M,,N,,M*27
20220705 110641+00:00 $GPRMC,110636,A,4918.2400,N,12326.5596,W,5.7,356,050722,11.8,E,A,V*5F
20220705 110641+00:00 $HCHDT,350.8,T*27
20220705 110641+00:00 $WIMWV,27.4,R,4.08,N,A*2E
20220705 110643+00:00 $IIMDA,29.9,I,1.013,B,14.2,C,,C,84.8,,,C,,T,,M,,N,,M*28
20220705 110643+00:00 $GPRMC,110638,A,4918.2400,N,12326.5596,W,5.7,356,050722,11.8,E,A,V*51
20220705 110643+00:00 $HCHDT,350.8,T*27
20220705 110643+00:00 $WIMWV,60.1,R,3.98,N,A*26
20220705 110645+00:00 $IIMDA,29.9,I,1.013,B,14.2,C,,C,84.8,,,C,,T,,M,,N,,M*28
20220705 110645+00:00 $GPRMC,110640,A,4918.2496,N,12326.5596,W,5.7,356,050722,11.8,E,A,V*51
20220705 110645+00:00 $HCHDT,350.9,T*26
20220705 110645+00:00 $WIMWV,49.8,R,5.79,N,A*2D
20220705 110647+00:00 $IIMDA,29.9,I,1.013,B,14.2,C,,C,84.8,,,C,,T,,M,,N,,M*28
20220705 110647+00:00 $GPRMC,110642,A,4918.2496,N,12326.5596,W,5.7,356,050722,11.8,E,A,V*53
20220705 110647+00:00 $HCHDT,350.9,T*26
20220705 110647+00:00 $WIMWV,15.4,R,4.49,N,A*2A
20220705 110649+00:00 $IIMDA,29.9,I,1.013,B,14.2,C,,C,84.8,,,C,,T,,M,,N,,M*28
20220705 110649+00:00 $GPRMC,110644,A,4918.2496,N,12326.5596,W,5.7,356,050722,11.8,E,A,V*55
20220705 110649+00:00 $HCHDT,350.9,T*26
20220705 110649+00:00 $WIMWV,8.1,R,5.79,N,A*11
20220705 110651+00:00 $IIMDA,29.9,I,1.013,B,14.2,C,,C,84.8,,,C,,T,,M,,N,,M*28
20220705 110651+00:00 $GPRMC,110646,A,4918.2496,N,12326.5596,W,5.7,356,050722,11.8,E,A,V*57
20220705 110651+00:00 $HCHDT,350.9,T*26
20220705 110651+00:00 $WIMWV,319.19,R,2.49,N,A*2F
20220705 110653+00:00 $IIMDA,29.9,I,1.013,B,14.2,C,,C,84.7,,,C,,T,,M,,N,,M*27
20220705 110653+00:00 $GPRMC,110648,A,4918.2598,N,12326.5596,W,5.7,356,050722,11.8,E,A,V*56
20220705 110653+00:00 $HCHDT,351.1,T*2F
20220705 110653+00:00 $WIMWV,4.2,R,4.3,N,A*22
20220705 110655+00:00 $IIMDA,29.9,I,1.013,B,14.2,C,,C,84.8,,,C,,T,,M,,N,,M*28
20220705 110655+00:00 $GPRMC,110650,A,4918.2598,N,12326.5596,W,5.7,356,050722,11.8,E,A,V*5F
20220705 110655+00:00 $HCHDT,351.3,T*2D
20220705 110655+00:00 $WIMWV,9.6,R,5.48,N,A*15
20220705 110657+00:00 $IIMDA,29.9,I,1.013,B,14.2,C,,C,84.8,,,C,,T,,M,,N,,M*28
20220705 110657+00:00 $GPRMC,110652,A,4918.2598,N,12326.5596,W,5.7,356,050722,11.8,E,A,V*5D
20220705 110657+00:00 $HCHDT,351.6,T*28
20220705 110657+00:00 $WIMWV,12.3,R,2.2,N,A*13
20220705 110659+00:00 $IIMDA,29.9,I,1.013,B,14.2,C,,C,84.7,,,C,,T,,M,,N,,M*27
20220705 110659+00:00 $GPRMC,110654,A,4918.2700,N,12326.5596,W,5.7,356,050722,11.8,E,A,V*58
20220705 110659+00:00 $HCHDT,351.8,T*26
20220705 110659+00:00 $WIMWV,353.69,R,4.59,N,A*21
20220705 110701+00:00 $IIMDA,29.9,I,1.013,B,14.2,C,,C,84.7,,,C,,T,,M,,N,,M*27
20220705 110701+00:00 $GPRMC,110656,A,4918.2700,N,12326.5596,W,5.7,356,050722,11.8,E,A,V*5A
20220705 110701+00:00 $HCHDT,352.1,T*2C
20220705 110701+00:00 $WIMWV,337.29,R,6.3,N,A*1A
20220705 110703+00:00 $IIMDA,29.9,I,1.013,B,14.2,C,,C,84.7,,,C,,T,,M,,N,,M*27
20220705 110703+00:00 $GPRMC,110658,A,4918.2700,N,12326.5596,W,5.7,357,050722,11.8,E,A,V*55
20220705 110703+00:00 $HCHDT,352.2,T*2F
20220705 110703+00:00 $WIMWV,336.89,R,6.4,N,A*16
20220705 110705+00:00 $IIMDA,29.9,I,1.013,B,14.2,C,,C,84.8,,,C,,T,,M,,N,,M*28
20220705 110705+00:00 $GPRMC,110700,A,4918.2796,N,12326.5596,W,5.7,357,050722,11.8,E,A,V*56
20220705 110705+00:00 $HCHDT,352.4,T*29
20220705 110705+00:00 $WIMWV,12.9,R,2.68,N,A*25
20220705 110707+00:00 $IIMDA,29.9,I,1.013,B,14.2,C,,C,84.7,,,C,,T,,M,,N,,M*27
20220705 110707+00:00 $GPRMC,110702,A,4918.2796,N,12326.5698,W,5.7,357,050722,11.8,E,A,V*59
20220705 110707+00:00 $HCHDT,352.4,T*29
20220705 110707+00:00 $WIMWV,359.39,R,6.4,N,A*14
20220705 110709+00:00 $IIMDA,29.9,I,1.013,B,14.2,C,,C,84.7,,,C,,T,,M,,N,,M*27
20220705 110709+00:00 $GPRMC,110704,A,4918.2796,N,12326.5698,W,5.7,357,050722,11.8,E,A,V*5F
20220705 110709+00:00 $HCHDT,352.6,T*2B
20220705 110709+00:00 $WIMWV,358.99,R,7.19,N,A*22
20220705 110711+00:00 $IIMDA,29.9,I,1.013,B,14.2,C,,C,84.7,,,C,,T,,M,,N,,M*27
20220705 110711+00:00 $GPRMC,110706,A,4918.2898,N,12326.5698,W,5.7,357,050722,11.8,E,A,V*5C
20220705 110711+00:00 $HCHDT,352.6,T*2B
20220705 110711+00:00 $WIMWV,315.39,R,5,N,A*05
20220705 110713+00:00 $IIMDA,29.9,I,1.013,B,14.2,C,,C,84.6,,,C,,T,,M,,N,,M*26
20220705 110713+00:00 $GPRMC,110708,A,4918.2898,N,12326.5698,W,5.7,358,050722,11.8,E,A,V*5D
20220705 110713+00:00 $HCHDT,352.6,T*2B
20220705 110713+00:00 $WIMWV,358.99,R,6.78,N,A*24
20220705 110715+00:00 $IIMDA,29.9,I,1.013,B,14.2,C,,C,84.6,,,C,,T,,M,,N,,M*26
20220705 110715+00:00 $GPRMC,110710,A,4918.2898,N,12326.5698,W,5.7,358,050722,11.8,E,A,V*54
20220705 110715+00:00 $HCHDT,352.6,T*2B
20220705 110715+00:00 $WIMWV,349.59,R,6.59,N,A*2B
20220705 110717+00:00 $IIMDA,29.9,I,1.013,B,14.2,C,,C,84.6,,,C,,T,,M,,N,,M*26
20220705 110717+00:00 $GPRMC,110712,A,4918.3000,N,12326.5698,W,5.7,358,050722,11.8,E,A,V*5E
20220705 110717+00:00 $HCHDT,352.6,T*2B
20220705 110717+00:00 $WIMWV,8.1,R,8.59,N,A*1E
20220705 110719+00:00 $IIMDA,29.9,I,1.013,B,14.2,C,,C,84.5,,,C,,T,,M,,N,,M*25
20220705 110719+00:00 $GPRMC,110714,A,4918.3000,N,12326.5698,W,5.6,358,050722,11.8,E,A,V*59
20220705 110719+00:00 $HCHDT,352.5,T*28
20220705 110719+00:00 $WIMWV,316.29,R,6.69,N,A*25
20220705 110721+00:00 $IIMDA,29.9,I,1.013,B,14.2,C,,C,84.5,,,C,,T,,M,,N,,M*25
20220705 110721+00:00 $GPRMC,110716,A,4918.3000,N,12326.5698,W,5.6,358,050722,11.8,E,A,V*5B
20220705 110721+00:00 $HCHDT,352.4,T*29
20220705 110721+00:00 $WIMWV,346.19,R,6.88,N,A*2C
20220705 110723+00:00 $IIMDA,29.9,I,1.013,B,14.2,C,,C,84.5,,,C,,T,,M,,N,,M*25
20220705 110723+00:00 $GPRMC,110718,A,4918.3096,N,12326.5698,W,5.6,358,050722,11.8,E,A,V*5A
20220705 110723+00:00 $HCHDT,352.3,T*2E
20220705 110723+00:00 $WIMWV,1.7,R,7.19,N,A*1A
20220705 110725+00:00 $IIMDA,29.9,I,1.013,B,14.2,C,,C,84.5,,,C,,T,,M,,N,,M*25
20220705 110725+00:00 $GPRMC,110720,A,4918.3096,N,12326.5698,W,5.6,358,050722,11.8,E,A,V*51
20220705 110725+00:00 $HCHDT,352.1,T*2C
20220705 110725+00:00 $WIMWV,30.1,R,5.6,N,A*12
20220705 110727+00:00 $IIMDA,29.9,I,1.013,B,14.2,C,,C,84.5,,,C,,T,,M,,N,,M*25
20220705 110727+00:00 $GPRMC,110722,A,4918.3096,N,12326.5698,W,5.6,358,050722,11.8,E,A,V*53
20220705 110727+00:00 $HCHDT,352.1,T*2C
20220705 110727+00:00 $WIMWV,348.79,R,4.68,N,A*28
20220705 110729+00:00 $IIMDA,29.9,I,1.013,B,14.2,C,,C,84.5,,,C,,T,,M,,N,,M*25
20220705 110729+00:00 $GPRMC,110724,A,4918.3096,N,12326.5698,W,5.6,358,050722,11.8,E,A,V*55
20220705 110729+00:00 $HCHDT,352,T*33
20220705 110729+00:00 $WIMWV,112.2,R,1.59,N,A*1E
20220705 110731+00:00 $IIMDA,29.9,I,1.013,B,14.2,C,,C,84.5,,,C,,T,,M,,N,,M*25
20220705 110731+00:00 $GPRMC,110726,A,4918.3198,N,12326.5698,W,5.6,358,050722,11.8,E,A,V*58
20220705 110731+00:00 $HCHDT,351.9,T*27
20220705 110731+00:00 $WIMWV,31.8,R,5.99,N,A*2C
20220705 110733+00:00 $IIMDA,29.9,I,1.013,B,14.2,C,,C,84.5,,,C,,T,,M,,N,,M*25
20220705 110733+00:00 $GPRMC,110728,A,4918.3198,N,12326.5698,W,5.6,358,050722,11.8,E,A,V*56
20220705 110733+00:00 $HCHDT,351.9,T*27
20220705 110733+00:00 $WIMWV,16.4,R,6.4,N,A*12
20220705 110735+00:00 $IIMDA,29.9,I,1.013,B,14.2,C,,C,84.5,,,C,,T,,M,,N,,M*25
20220705 110735+00:00 $GPRMC,110730,A,4918.3198,N,12326.5698,W,5.6,358,050722,11.8,E,A,V*5F
20220705 110735+00:00 $HCHDT,351.8,T*26
20220705 110735+00:00 $WIMWV,242.69,R,2.68,N,A*24
20220705 110737+00:00 $IIMDA,29.9,I,1.013,B,14.2,C,,C,84.6,,,C,,T,,M,,N,,M*26
20220705 110737+00:00 $GPRMC,110732,A,4918.3300,N,12326.5698,W,5.6,358,050722,11.8,E,A,V*5E
20220705 110737+00:00 $HCHDT,351.7,T*29
20220705 110737+00:00 $WIMWV,337.39,R,3.6,N,A*1B
20220705 110739+00:00 $IIMDA,29.9,I,1.013,B,14.2,C,,C,84.5,,,C,,T,,M,,N,,M*25
20220705 110739+00:00 $GPRMC,110734,A,4918.3300,N,12326.5698,W,5.6,358,050722,11.8,E,A,V*58
20220705 110739+00:00 $HCHDT,351.6,T*28
20220705 110739+00:00 $WIMWV,344.79,R,1.28,N,A*25
20220705 110741+00:00 $IIMDA,29.9,I,1.013,B,14.2,C,,C,84.5,,,C,,T,,M,,N,,M*25
20220705 110741+00:00 $GPRMC,110736,A,4918.3300,N,12326.5698,W,5.6,358,050722,11.8,E,A,V*5A
20220705 110741+00:00 $HCHDT,351.5,T*2B
20220705 110741+00:00 $WIMWV,65.4,R,4.2,N,A*12
20220705 110743+00:00 $IIMDA,29.9,I,1.013,B,14.2,C,,C,84.5,,,C,,T,,M,,N,,M*25
20220705 110743+00:00 $GPRMC,110738,A,4918.3396,N,12326.5698,W,5.6,358,050722,11.8,E,A,V*5B
20220705 110743+00:00 $HCHDT,351.4,T*2A
20220705 110743+00:00 $WIMWV,316.99,R,0.29,N,A*2C
20220705 110745+00:00 $IIMDA,29.9,I,1.013,B,14.2,C,,C,84.5,,,C,,T,,M,,N,,M*25
