20220704 050001+00:00 $IIMDA,29.9,I,1.011,B,11.8,C,,C,94.2,,,C,,T,,M,,N,,M*2E
20220704 050001+00:00 $HCHDT,252,T*32
20220704 050001+00:00 $GPRMC,045956,A,4938.9400,N,12628.3896,W,7.5,254,040722,12.3,E,A,V*54
20220704 050001+00:00 $WIMWV,341.19,R,21.29,N,A*15
20220704 050003+00:00 $IIMDA,29.9,I,1.011,B,11.8,C,,C,94.2,,,C,,T,,M,,N,,M*2E
20220704 050003+00:00 $HCHDT,251.9,T*26
20220704 050003+00:00 $GPRMC,045958,A,4938.9400,N,12628.3998,W,7.5,254,040722,12.3,E,A,V*55
20220704 050003+00:00 $WIMWV,334.09,R,21.79,N,A*13
20220704 050005+00:00 $IIMDA,29.9,I,1.011,B,11.8,C,,C,94.2,,,C,,T,,M,,N,,M*2E
20220704 050005+00:00 $HCHDT,251.8,T*27
20220704 050005+00:00 $GPRMC,050000,A,4938.9400,N,12628.3998,W,7.5,254,040722,12.3,E,A,V*55
20220704 050005+00:00 $WIMWV,331.29,R,19.98,N,A*10
20220704 050007+00:00 $IIMDA,29.9,I,1.011,B,11.8,C,,C,94.2,,,C,,T,,M,,N,,M*2E
20220704 050007+00:00 $HCHDT,251.7,T*28
20220704 050007+00:00 $GPRMC,050002,A,4938.9400,N,12628.4100,W,7.5,254,040722,12.3,E,A,V*59
20220704 050007+00:00 $WIMWV,331.19,R,24.08,N,A*14
20220704 050009+00:00 $IIMDA,29.9,I,1.011,B,11.8,C,,C,94.2,,,C,,T,,M,,N,,M*2E
20220704 050009+00:00 $HCHDT,251.8,T*27
20220704 050009+00:00 $GPRMC,050004,A,4938.9400,N,12628.4196,W,7.5,254,040722,12.3,E,A,V*50
20220704 050009+00:00 $WIMWV,342.49,R,17.59,N,A*11
20220704 050011+00:00 $IIMDA,29.9,I,1.011,B,11.8,C,,C,94.2,,,C,,T,,M,,N,,M*2E
20220704 050011+00:00 $HCHDT,251.7,T*28
20220704 050011+00:00 $GPRMC,050006,A,4938.9400,N,12628.4196,W,7.5,254,040722,12.3,E,A,V*52
20220704 050011+00:00 $WIMWV,334.59,R,15.69,N,A*10
20220704 050013+00:00 $IIMDA,29.9,I,1.011,B,11.8,C,,C,94.1,,,C,,T,,M,,N,,M*2D
20220704 050013+00:00 $HCHDT,251.7,T*28
20220704 050013+00:00 $GPRMC,050008,A,4938.9400,N,12628.4298,W,7.5,254,040722,12.3,E,A,V*51
20220704 050013+00:00 $WIMWV,330.29,R,20.68,N,A*14
20220704 050015+00:00 $IIMDA,29.9,I,1.011,B,11.8,C,,C,94.2,,,C,,T,,M,,N,,M*2E
20220704 050015+00:00 $HCHDT,251.6,T*29
20220704 050015+00:00 $GPRMC,050010,A,4938.9400,N,12628.4298,W,7.41,254,040722,12.3,E,A,V*68
20220704 050015+00:00 $WIMWV,334.69,R,21.79,N,A*15
20220704 050017+00:00 $IIMDA,29.9,I,1.011,B,11.8,C,,C,94.2,,,C,,T,,M,,N,,M*2E
20220704 050017+00:00 $HCHDT,251.5,T*2A
20220704 050017+00:00 $GPRMC,050012,A,4938.9298,N,12628.4400,W,7.41,254,040722,12.3,E,A,V*6A
20220704 050017+00:00 $WIMWV,323.89,R,22.49,N,A*1D
20220704 050019+00:00 $IIMDA,29.9,I,1.011,B,11.8,C,,C,94.1,,,C,,T,,M,,N,,M*2D
20220704 050019+00:00 $HCHDT,251.4,T*2B
20220704 050019+00:00 $GPRMC,050014,A,4938.9298,N,12628.4496,W,7.41,254,040722,12.3,E,A,V*63
20220704 050019+00:00 $WIMWV,328.79,R,20.59,N,A*1A
20220704 050021+00:00 $IIMDA,29.9,I,1.011,B,11.8,C,,C,94.1,,,C,,T,,M,,N,,M*2D
20220704 050021+00:00 $HCHDT,251.3,T*2C
20220704 050021+00:00 $GPRMC,050016,A,4938.9298,N,12628.4496,W,7.41,254,040722,12.3,E,A,V*61
20220704 050021+00:00 $WIMWV,334.89,R,17.69,N,A*1F
20220704 050023+00:00 $IIMDA,29.9,I,1.011,B,11.8,C,,C,94.1,,,C,,T,,M,,N,,M*2D
20220704 050023+00:00 $HCHDT,251.1,T*2E
20220704 050023+00:00 $GPRMC,050018,A,4938.9298,N,12628.4598,W,7.41,254,040722,12.3,E,A,V*60
20220704 050023+00:00 $WIMWV,336.09,R,19.19,N,A*1C
20220704 050025+00:00 $IIMDA,29.9,I,1.011,B,11.8,C,,C,94.1,,,C,,T,,M,,N,,M*2D
20220704 050025+00:00 $HCHDT,250.7,T*29
20220704 050025+00:00 $GPRMC,050020,A,4938.9298,N,12628.4700,W,7.41,253,040722,12.3,E,A,V*6F
20220704 050025+00:00 $WIMWV,334.39,R,20.68,N,A*11
20220704 050027+00:00 $IIMDA,29.9,I,1.011,B,11.8,C,,C,94.1,,,C,,T,,M,,N,,M*2D
20220704 050027+00:00 $HCHDT,250.1,T*2F
20220704 050027+00:00 $GPRMC,050022,A,4938.9298,N,12628.4700,W,7.41,253,040722,12.3,E,A,V*6D
20220704 050027+00:00 $WIMWV,338.19,R,20.29,N,A*1A
20220704 050029+00:00 $IIMDA,29.9,I,1.011,B,11.8,C,,C,94.1,,,C,,T,,M,,N,,M*2D
20220704 050029+00:00 $HCHDT,249.2,T*24
20220704 050029+00:00 $GPRMC,050024,A,4938.9298,N,12628.4796,W,7.41,253,040722,12.3,E,A,V*64
20220704 050029+00:00 $WIMWV,338.19,R,19.79,N,A*15
20220704 050031+00:00 $IIMDA,29.9,I,1.011,B,11.8,C,,C,94.1,,,C,,T,,M,,N,,M*2D
20220704 050031+00:00 $HCHDT,248.3,T*24
20220704 050031+00:00 $GPRMC,050026,A,4938.9298,N,12628.4796,W,7.41,253,040722,12.3,E,A,V*66
20220704 050031+00:00 $WIMWV,334.89,R,20.78,N,A*1B
20220704 050033+00:00 $IIMDA,29.9,I,1.011,B,11.8,C,,C,94.1,,,C,,T,,M,,N,,M*2D
20220704 050033+00:00 $HCHDT,247.3,T*2B
20220704 050033+00:00 $GPRMC,050028,A,4938.9196,N,12628.4898,W,7.41,252,040722,12.3,E,A,V*65
20220704 050033+00:00 $WIMWV,340.19,R,18.89,N,A*14
20220704 050035+00:00 $IIMDA,29.9,I,1.011,B,11.8,C,,C,94.1,,,C,,T,,M,,N,,M*2D
20220704 050035+00:00 $HCHDT,246.5,T*2C
20220704 050035+00:00 $GPRMC,050030,A,4938.9196,N,12628.4898,W,7.41,252,040722,12.3,E,A,V*6C
20220704 050035+00:00 $WIMWV,341.59,R,19.59,N,A*1D
20220704 050037+00:00 $IIMDA,29.9,I,1.011,B,11.8,C,,C,94.2,,,C,,T,,M,,N,,M*2E
20220704 050037+00:00 $HCHDT,245.9,T*23
20220704 050037+00:00 $GPRMC,050032,A,4938.9196,N,12628.5000,W,7.31,251,040722,12.3,E,A,V*62
20220704 050037+00:00 $WIMWV,341.19,R,18.8,N,A*2C
20220704 050039+00:00 $IIMDA,29.9,I,1.011,B,11.8,C,,C,94.1,,,C,,T,,M,,N,,M*2D
20220704 050039+00:00 $HCHDT,245.6,T*2C
20220704 050039+00:00 $GPRMC,050034,A,4938.9196,N,12628.5096,W,7.31,250,040722,12.3,E,A,V*6A
20220704 050039+00:00 $WIMWV,338.39,R,19.79,N,A*17
20220704 050041+00:00 $IIMDA,29.9,I,1.011,B,11.8,C,,C,94.2,,,C,,T,,M,,N,,M*2E
20220704 050041+00:00 $HCHDT,245.7,T*2D
20220704 050041+00:00 $GPRMC,050036,A,4938.9196,N,12628.5096,W,7.31,250,040722,12.3,E,A,V*68
20220704 050041+00:00 $WIMWV,335.89,R,21.69,N,A*1B
20220704 050043+00:00 $IIMDA,29.9,I,1.011,B,11.8,C,,C,94.2,,,C,,T,,M,,N,,M*2E
20220704 050043+00:00 $HCHDT,245.8,T*22
20220704 050043+00:00 $GPRMC,050038,A,4938.9196,N,12628.5198,W,7.31,249,040722,12.3,E,A,V*61
20220704 050043+00:00 $WIMWV,330.49,R,23.29,N,A*14
20220704 050045+00:00 $IIMDA,29.9,I,1.011,B,11.8,C,,C,94.2,,,C,,T,,M,,N,,M*2E
20220704 050045+00:00 $HCHDT,245.9,T*23
20220704 050045+00:00 $GPRMC,050040,A,4938.9196,N,12628.5198,W,7.31,249,040722,12.3,E,A,V*6E
20220704 050045+00:00 $WIMWV,330.59,R,22.08,N,A*17
20220704 050047+00:00 $IIMDA,29.9,I,1.011,B,11.8,C,,C,94.2,,,C,,T,,M,,N,,M*2E
20220704 050047+00:00 $HCHDT,246.2,T*2B
20220704 050047+00:00 $GPRMC,050042,A,4938.9100,N,12628.5300,W,7.31,248,040722,12.3,E,A,V*61
20220704 050047+00:00 $WIMWV,335.29,R,20.9,N,A*26
20220704 050049+00:00 $IIMDA,29.9,I,1.011,B,11.8,C,,C,94.2,,,C,,T,,M,,N,,M*2E
20220704 050049+00:00 $HCHDT,246.5,T*2C
20220704 050049+00:00 $GPRMC,050044,A,4938.9100,N,12628.5396,W,7.31,248,040722,12.3,E,A,V*68
20220704 050049+00:00 $WIMWV,332.79,R,22.68,N,A*11
20220704 050051+00:00 $IIMDA,29.9,I,1.011,B,11.8,C,,C,94.3,,,C,,T,,M,,N,,M*2F
20220704 050051+00:00 $HCHDT,246.8,T*21
20220704 050051+00:00 $GPRMC,050046,A,4938.9100,N,12628.5396,W,7.31,248,040722,12.3,E,A,V*6A
20220704 050051+00:00 $WIMWV,331.59,R,21.89,N,A*1C
20220704 050053+00:00 $IIMDA,29.9,I,1.011,B,11.8,C,,C,94.3,,,C,,T,,M,,N,,M*2F
20220704 050053+00:00 $HCHDT,247.1,T*29
20220704 050053+00:00 $GPRMC,050048,A,4938.9100,N,12628.5498,W,7.31,248,040722,12.3,E,A,V*6D
20220704 050053+00:00 $WIMWV,331.19,R,21.6,N,A*2F
20220704 050055+00:00 $IIMDA,29.9,I,1.011,B,11.8,C,,C,94.3,,,C,,T,,M,,N,,M*2F
20220704 050055+00:00 $HCHDT,247.4,T*2C
20220704 050055+00:00 $GPRMC,050050,A,4938.9100,N,12628.5498,W,7.31,248,040722,12.3,E,A,V*64
20220704 050055+00:00 $WIMWV,329.59,R,26.79,N,A*1D
20220704 050057+00:00 $IIMDA,29.9,I,1.011,B,11.8,C,,C,94.4,,,C,,T,,M,,N,,M*28
20220704 050057+00:00 $HCHDT,247.6,T*2E
20220704 050057+00:00 $GPRMC,050052,A,4938.9100,N,12628.5600,W,7.31,249,040722,12.3,E,A,V*64
20220704 050057+00:00 $WIMWV,330.79,R,24.28,N,A*11
20220704 050059+00:00 $IIMDA,29.9,I,1.011,B,11.8,C,,C,94.4,,,C,,T,,M,,N,,M*28
20220704 050059+00:00 $HCHDT,247.7,T*2F
20220704 050059+00:00 $GPRMC,050054,A,4938.9100,N,12628.5600,W,7.31,249,040722,12.3,E,A,V*62
20220704 050059+00:00 $WIMWV,331.49,R,23.7,N,A*29
20220704 050101+00:00 $IIMDA,29.9,I,1.011,B,11.8,C,,C,94.4,,,C,,T,,M,,N,,M*28
20220704 050101+00:00 $HCHDT,247.7,T*2F
20220704 050101+00:00 $GPRMC,050056,A,4938.8998,N,12628.5696,W,7.31,249,040722,12.3,E,A,V*67
20220704 050101+00:00 $WIMWV,331.49,R,23.79,N,A*10
20220704 050103+00:00 $IIMDA,29.9,I,1.011,B,11.8,C,,C,94.4,,,C,,T,,M,,N,,M*28
20220704 050103+00:00 $HCHDT,247.7,T*2F
20220704 050103+00:00 $GPRMC,050058,A,4938.8998,N,12628.5798,W,7.19,249,040722,12.3,E,A,V*6C
20220704 050103+00:00 $WIMWV,331.49,R,23,N,A*30
20220704 050105+00:00 $IIMDA,29.9,I,1.011,B,11.8,C,,C,94.4,,,C,,T,,M,,N,,M*28
20220704 050105+00:00 $HCHDT,247.5,T*2D
20220704 050105+00:00 $GPRMC,050100,A,4938.8998,N,12628.5798,W,7.19,250,040722,12.3,E,A,V*68
20220704 050105+00:00 $WIMWV,330.19,R,22.68,N,A*15
20220704 050107+00:00 $IIMDA,29.9,I,1.011,B,11.8,C,,C,94.4,,,C,,T,,M,,N,,M*28
20220704 050107+00:00 $HCHDT,247.2,T*2A
20220704 050107+00:00 $GPRMC,050102,A,4938.8998,N,12628.5900,W,7.19,250,040722,12.3,E,A,V*65
20220704 050107+00:00 $WIMWV,331.39,R,22.18,N,A*11
20220704 050109+00:00 $IIMDA,29.9,I,1.011,B,11.8,C,,C,94.4,,,C,,T,,M,,N,,M*28
20220704 050109+00:00 $HCHDT,246.7,T*2E
20220704 050109+00:00 $GPRMC,050104,A,4938.8998,N,12628.5900,W,7.19,250,040722,12.3,E,A,V*63
20220704 050109+00:00 $WIMWV,329.49,R,21.29,N,A*1E
20220704 050111+00:00 $IIMDA,29.9,I,1.011,B,11.8,C,,C,94.4,,,C,,T,,M,,N,,M*28
20220704 050111+00:00 $HCHDT,246.1,T*28
20220704 050111+00:00 $GPRMC,050106,A,4938.8998,N,12628.5996,W,7.19,249,040722,12.3,E,A,V*66
20220704 050111+00:00 $WIMWV,333.39,R,20.59,N,A*14
20220704 050113+00:00 $IIMDA,29.9,I,1.011,B,11.8,C,,C,94.4,,,C,,T,,M,,N,,M*28
20220704 050113+00:00 $HCHDT,245.6,T*2C
20220704 050113+00:00 $GPRMC,050108,A,4938.8998,N,12628.6098,W,7.19,249,040722,12.3,E,A,V*6C
20220704 050113+00:00 $WIMWV,332.59,R,20.9,N,A*26
20220704 050115+00:00 $IIMDA,29.9,I,1.011,B,11.8,C,,C,94.4,,,C,,T,,M,,N,,M*28
20220704 050115+00:00 $HCHDT,245.3,T*29
20220704 050115+00:00 $GPRMC,050110,A,4938.8896,N,12628.6098,W,7.31,249,040722,12.3,E,A,V*60
20220704 050115+00:00 $WIMWV,333.99,R,20.39,N,A*18
20220704 050117+00:00 $IIMDA,29.9,I,1.011,B,11.8,C,,C,94.4,,,C,,T,,M,,N,,M*28
20220704 050117+00:00 $HCHDT,244.8,T*23
20220704 050117+00:00 $GPRMC,050112,A,4938.8896,N,12628.6200,W,7.31,249,040722,12.3,E,A,V*61
20220704 050117+00:00 $WIMWV,333.09,R,20.99,N,A*1B
20220704 050119+00:00 $IIMDA,29.9,I,1.011,B,11.8,C,,C,94.4,,,C,,T,,M,,N,,M*28
20220704 050119+00:00 $HCHDT,243.9,T*25
20220704 050119+00:00 $GPRMC,050114,A,4938.8896,N,12628.6200,W,7.31,248,040722,12.3,E,A,V*66
20220704 050119+00:00 $WIMWV,332.69,R,20.9,N,A*25
20220704 050121+00:00 $IIMDA,29.9,I,1.011,B,11.8,C,,C,94.3,,,C,,T,,M,,N,,M*2F
20220704 050121+00:00 $HCHDT,243,T*32
20220704 050121+00:00 $GPRMC,050116,A,4938.8896,N,12628.6296,W,7.31,248,040722,12.3,E,A,V*6B
20220704 050121+00:00 $WIMWV,334.49,R,21.09,N,A*10
20220704 050123+00:00 $IIMDA,29.9,I,1.011,B,11.8,C,,C,94.3,,,C,,T,,M,,N,,M*2F
20220704 050123+00:00 $HCHDT,242,T*33
20220704 050123+00:00 $GPRMC,050118,A,4938.8896,N,12628.6296,W,7.19,247,040722,12.3,E,A,V*60
20220704 050123+00:00 $WIMWV,333.39,R,20.59,N,A*14
20220704 050125+00:00 $IIMDA,29.9,I,1.011,B,11.8,C,,C,94.3,,,C,,T,,M,,N,,M*2F
20220704 050125+00:00 $HCHDT,241,T*30
20220704 050125+00:00 $GPRMC,050120,A,4938.8896,N,12628.6398,W,7.19,246,040722,12.3,E,A,V*65
20220704 050125+00:00 $WIMWV,336.89,R,20.9,N,A*2F
20220704 050127+00:00 $IIMDA,29.9,I,1.011,B,11.8,C,,C,94.3,,,C,,T,,M,,N,,M*2F
20220704 050127+00:00 $HCHDT,240.4,T*2B
20220704 050127+00:00 $GPRMC,050122,A,4938.8800,N,12628.6398,W,7.19,246,040722,12.3,E,A,V*68
20220704 050127+00:00 $WIMWV,337.99,R,20.68,N,A*18
20220704 050129+00:00 $IIMDA,29.9,I,1.011,B,11.8,C,,C,94.3,,,C,,T,,M,,N,,M*2F
20220704 050129+00:00 $HCHDT,240,T*31
20220704 050129+00:00 $GPRMC,050124,A,4938.8800,N,12628.6500,W,7.19,245,040722,12.3,E,A,V*6A
20220704 050129+00:00 $WIMWV,339.89,R,20.2,N,A*2B
20220704 050131+00:00 $IIMDA,29.9,I,1.011,B,11.8,C,,C,94.4,,,C,,T,,M,,N,,M*28
20220704 050131+00:00 $HCHDT,239.8,T*29
20220704 050131+00:00 $GPRMC,050126,A,4938.8800,N,12628.6596,W,7.19,244,040722,12.3,E,A,V*66
20220704 050131+00:00 $WIMWV,336.99,R,20.68,N,A*19
20220704 050133+00:00 $IIMDA,29.9,I,1.011,B,11.8,C,,C,94.3,,,C,,T,,M,,N,,M*2F
20220704 050133+00:00 $HCHDT,239.6,T*27
20220704 050133+00:00 $GPRMC,050128,A,4938.8800,N,12628.6596,W,7.19,243,040722,12.3,E,A,V*6F
20220704 050133+00:00 $WIMWV,337.19,R,20.29,N,A*15
20220704 050135+00:00 $IIMDA,29.9,I,1.011,B,11.8,C,,C,94.4,,,C,,T,,M,,N,,M*28
20220704 050135+00:00 $HCHDT,239.3,T*22
20220704 050135+00:00 $GPRMC,050130,A,4938.8800,N,12628.6698,W,7.19,243,040722,12.3,E,A,V*6B
20220704 050135+00:00 $WIMWV,335.39,R,20.78,N,A*11
20220704 050137+00:00 $IIMDA,29.9,I,1.011,B,11.8,C,,C,94.4,,,C,,T,,M,,N,,M*28
20220704 050137+00:00 $HCHDT,238.6,T*26
20220704 050137+00:00 $GPRMC,050132,A,4938.8698,N,12628.6698,W,7.19,242,040722,12.3,E,A,V*67
20220704 050137+00:00 $WIMWV,335.29,R,20.2,N,A*2D
20220704 050139+00:00 $IIMDA,29.9,I,1.011,B,11.8,C,,C,94.3,,,C,,T,,M,,N,,M*2F
20220704 050139+00:00 $HCHDT,238,T*3E
20220704 050139+00:00 $GPRMC,050134,A,4938.8698,N,12628.6800,W,7.19,242,040722,12.3,E,A,V*6E
20220704 050139+00:00 $WIMWV,334.09,R,19.98,N,A*17
20220704 050141+00:00 $IIMDA,29.9,I,1.011,B,11.8,C,,C,94.3,,,C,,T,,M,,N,,M*2F
20220704 050141+00:00 $HCHDT,237.3,T*2C
20220704 050141+00:00 $GPRMC,050136,A,4938.8698,N,12628.6800,W,7.19,241,040722,12.3,E,A,V*6F
20220704 050141+00:00 $WIMWV,337.49,R,19.79,N,A*1F
20220704 050143+00:00 $IIMDA,29.9,I,1.011,B,11.8,C,,C,94.3,,,C,,T,,M,,N,,M*2F
20220704 050143+00:00 $HCHDT,236.5,T*2B
20220704 050143+00:00 $GPRMC,050138,A,4938.8698,N,12628.6896,W,7.19,241,040722,12.3,E,A,V*6E
20220704 050143+00:00 $WIMWV,337.59,R,20.39,N,A*10
20220704 050145+00:00 $IIMDA,29.9,I,1.011,B,11.8,C,,C,94.4,,,C,,T,,M,,N,,M*28
20220704 050145+00:00 $HCHDT,235.9,T*24
20220704 050145+00:00 $GPRMC,050140,A,4938.8698,N,12628.6896,W,7.19,240,040722,12.3,E,A,V*60
20220704 050145+00:00 $WIMWV,341.39,R,20.39,N,A*17
20220704 050147+00:00 $IIMDA,29.9,I,1.011,B,11.8,C,,C,94.4,,,C,,T,,M,,N,,M*28
20220704 050147+00:00 $HCHDT,235.7,T*2A
20220704 050147+00:00 $GPRMC,050142,A,4938.8596,N,12628.6998,W,7.19,240,040722,12.3,E,A,V*60
20220704 050147+00:00 $WIMWV,339.49,R,19.89,N,A*1E
20220704 050149+00:00 $IIMDA,29.9,I,1.011,B,11.8,C,,C,94.4,,,C,,T,,M,,N,,M*28
20220704 050149+00:00 $HCHDT,235.7,T*2A
20220704 050149+00:00 $GPRMC,050144,A,4938.8596,N,12628.6998,W,7.19,239,040722,12.3,E,A,V*68
20220704 050149+00:00 $WIMWV,339.49,R,20.2,N,A*27
20220704 050151+00:00 $IIMDA,29.9,I,1.011,B,11.8,C,,C,94.4,,,C,,T,,M,,N,,M*28
20220704 050151+00:00 $HCHDT,235.7,T*2A
20220704 050151+00:00 $GPRMC,050146,A,4938.8596,N,12628.7100,W,7.19,239,040722,12.3,E,A,V*62
20220704 050151+00:00 $WIMWV,338.09,R,20.68,N,A*1E
20220704 050153+00:00 $IIMDA,29.9,I,1.011,B,11.8,C,,C,94.4,,,C,,T,,M,,N,,M*28
20220704 050153+00:00 $HCHDT,235.8,T*25
20220704 050153+00:00 $GPRMC,050148,A,4938.8596,N,12628.7100,W,7.19,238,040722,12.3,E,A,V*6D
20220704 050153+00:00 $WIMWV,338.79,R,20.08,N,A*1F
20220704 050155+00:00 $IIMDA,29.9,I,1.011,B,11.8,C,,C,94.4,,,C,,T,,M,,N,,M*28
20220704 050155+00:00 $HCHDT,235.4,T*29
20220704 050155+00:00 $GPRMC,050150,A,4938.8596,N,12628.7196,W,7.19,238,040722,12.3,E,A,V*6B
20220704 050155+00:00 $WIMWV,337.89,R,20.9,N,A*2E
20220704 050157+00:00 $IIMDA,29.9,I,1.011,B,11.8,C,,C,94.4,,,C,,T,,M,,N,,M*28
20220704 050157+00:00 $HCHDT,235,T*33
20220704 050157+00:00 $GPRMC,050152,A,4938.8500,N,12628.7196,W,7.19,238,040722,12.3,E,A,V*66
20220704 050157+00:00 $WIMWV,341.39,R,18.68,N,A*18
20220704 050159+00:00 $IIMDA,29.9,I,1.011,B,11.8,C,,C,94.4,,,C,,T,,M,,N,,M*28
20220704 050159+00:00 $HCHDT,234.3,T*2F
20220704 050159+00:00 $GPRMC,050154,A,4938.8500,N,12628.7298,W,7.19,237,040722,12.3,E,A,V*62
20220704 050159+00:00 $WIMWV,338.39,R,19.09,N,A*10
20220704 050201+00:00 $IIMDA,29.9,I,1.011,B,11.8,C,,C,94.4,,,C,,T,,M,,N,,M*28
20220704 050201+00:00 $HCHDT,233.6,T*2D
20220704 050201+00:00 $GPRMC,050156,A,4938.8500,N,12628.7298,W,7.19,237,040722,12.3,E,A,V*60
20220704 050201+00:00 $WIMWV,340.59,R,17.88,N,A*1E
20220704 050203+00:00 $IIMDA,29.9,I,1.011,B,11.8,C,,C,94.4,,,C,,T,,M,,N,,M*28
20220704 050203+00:00 $HCHDT,232.9,T*23
20220704 050203+00:00 $GPRMC,050158,A,4938.8500,N,12628.7400,W,7.19,237,040722,12.3,E,A,V*69
20220704 050203+00:00 $WIMWV,338.19,R,19.89,N,A*1A
20220704 050205+00:00 $IIMDA,29.9,I,1.011,B,11.8,C,,C,94.4,,,C,,T,,M,,N,,M*28
20220704 050205+00:00 $HCHDT,232.2,T*28
20220704 050205+00:00 $GPRMC,050200,A,4938.8398,N,12628.7400,W,7.19,236,040722,12.3,E,A,V*61
20220704 050205+00:00 $WIMWV,337.79,R,20.29,N,A*13
20220704 050207+00:00 $IIMDA,29.9,I,1.011,B,11.8,C,,C,94.5,,,C,,T,,M,,N,,M*29
20220704 050207+00:00 $HCHDT,231.4,T*2D
20220704 050207+00:00 $GPRMC,050202,A,4938.8398,N,12628.7496,W,7.1,235,040722,12.3,E,A,V*56
20220704 050207+00:00 $WIMWV,337.79,R,20.2,N,A*2A
20220704 050209+00:00 $IIMDA,29.9,I,1.011,B,11.8,C,,C,94.5,,,C,,T,,M,,N,,M*29
20220704 050209+00:00 $HCHDT,230.8,T*20
20220704 050209+00:00 $GPRMC,050204,A,4938.8398,N,12628.7496,W,7.1,235,040722,12.3,E,A,V*50
20220704 050209+00:00 $WIMWV,337.89,R,18.99,N,A*1C
20220704 050211+00:00 $IIMDA,29.9,I,1.011,B,11.8,C,,C,94.4,,,C,,T,,M,,N,,M*28
20220704 050211+00:00 $HCHDT,230.4,T*2C
20220704 050211+00:00 $GPRMC,050206,A,4938.8398,N,12628.7598,W,7.1,234,040722,12.3,E,A,V*5C
20220704 050211+00:00 $WIMWV,338.59,R,19.19,N,A*17
20220704 050213+00:00 $IIMDA,29.9,I,1.011,B,11.8,C,,C,94.5,,,C,,T,,M,,N,,M*29
20220704 050213+00:00 $HCHDT,230.1,T*29
20220704 050213+00:00 $GPRMC,050208,A,4938.8398,N,12628.7598,W,7.1,234,040722,12.3,E,A,V*52
20220704 050213+00:00 $WIMWV,338.49,R,19.89,N,A*1F
20220704 050215+00:00 $IIMDA,29.9,I,1.011,B,11.8,C,,C,94.5,,,C,,T,,M,,N,,M*29
20220704 050215+00:00 $HCHDT,229.9,T*29
20220704 050215+00:00 $GPRMC,050210,A,4938.8296,N,12628.7700,W,7.1,233,040722,12.3,E,A,V*50
20220704 050215+00:00 $WIMWV,337.89,R,19.98,N,A*1C
20220704 050217+00:00 $IIMDA,29.9,I,1.011,B,11.8,C,,C,94.5,,,C,,T,,M,,N,,M*29
20220704 050217+00:00 $HCHDT,229.9,T*29
20220704 050217+00:00 $GPRMC,050212,A,4938.8296,N,12628.7700,W,7.1,233,040722,12.3,E,A,V*52
20220704 050217+00:00 $WIMWV,338.59,R,19.89,N,A*1E
20220704 050219+00:00 $IIMDA,29.9,I,1.011,B,11.8,C,,C,94.5,,,C,,T,,M,,N,,M*29
20220704 050219+00:00 $HCHDT,230,T*36
20220704 050219+00:00 $GPRMC,050214,A,4938.8296,N,12628.7796,W,7.1,233,040722,12.3,E,A,V*5B
20220704 050219+00:00 $WIMWV,337.99,R,19.59,N,A*10
20220704 050221+00:00 $IIMDA,29.9,I,1.011,B,11.8,C,,C,94.5,,,C,,T,,M,,N,,M*29
20220704 050221+00:00 $HCHDT,230.2,T*2A
20220704 050221+00:00 $GPRMC,050216,A,4938.8296,N,12628.7796,W,7.1,232,040722,12.3,E,A,V*58
20220704 050221+00:00 $WIMWV,338.19,R,19.69,N,A*14
20220704 050223+00:00 $IIMDA,29.9,I,1.011,B,11.8,C,,C,94.5,,,C,,T,,M,,N,,M*29
20220704 050223+00:00 $HCHDT,230.2,T*2A
20220704 050223+00:00 $GPRMC,050218,A,4938.8200,N,12628.7898,W,7.1,232,040722,12.3,E,A,V*58
20220704 050223+00:00 $WIMWV,341.39,R,18.8,N,A*2E
20220704 050225+00:00 $IIMDA,29.9,I,1.011,B,11.8,C,,C,94.5,,,C,,T,,M,,N,,M*29
20220704 050225+00:00 $HCHDT,230,T*36
20220704 050225+00:00 $GPRMC,050220,A,4938.8200,N,12628.7898,W,7.1,232,040722,12.3,E,A,V*53
20220704 050225+00:00 $WIMWV,342.89,R,17.98,N,A*10
20220704 050227+00:00 $IIMDA,29.9,I,1.011,B,11.8,C,,C,94.5,,,C,,T,,M,,N,,M*29
20220704 050227+00:00 $HCHDT,229.3,T*23
20220704 050227+00:00 $GPRMC,050222,A,4938.8200,N,12628.8000,W,7.1,232,040722,12.3,E,A,V*57
20220704 050227+00:00 $WIMWV,342.39,R,18.68,N,A*1B
20220704 050229+00:00 $IIMDA,29.9,I,1.011,B,11.8,C,,C,94.5,,,C,,T,,M,,N,,M*29
20220704 050229+00:00 $HCHDT,228.6,T*27
20220704 050229+00:00 $GPRMC,050224,A,4938.8200,N,12628.8000,W,7.1,232,040722,12.3,E,A,V*51
20220704 050229+00:00 $WIMWV,342.39,R,17.69,N,A*15
20220704 050231+00:00 $IIMDA,29.9,I,1.011,B,11.8,C,,C,94.5,,,C,,T,,M,,N,,M*29
20220704 050231+00:00 $HCHDT,228,T*3F
20220704 050231+00:00 $GPRMC,050226,A,4938.8098,N,12628.8096,W,7.1,232,040722,12.3,E,A,V*5F
20220704 050231+00:00 $WIMWV,343.49,R,18.19,N,A*1B
20220704 050233+00:00 $IIMDA,29.9,I,1.011,B,11.8,C,,C,94.5,,,C,,T,,M,,N,,M*29
20220704 050233+00:00 $HCHDT,227.6,T*28
20220704 050233+00:00 $GPRMC,050228,A,4938.8098,N,12628.8096,W,7.1,232,040722,12.3,E,A,V*51
20220704 050233+00:00 $WIMWV,341.09,R,17.69,N,A*15
20220704 050235+00:00 $IIMDA,29.9,I,1.011,B,11.8,C,,C,94.5,,,C,,T,,M,,N,,M*29
20220704 050235+00:00 $HCHDT,227.3,T*2D
20220704 050235+00:00 $GPRMC,050230,A,4938.8098,N,12628.8198,W,7.1,231,040722,12.3,E,A,V*54
20220704 050235+00:00 $WIMWV,343.49,R,17.4,N,A*28
20220704 050237+00:00 $IIMDA,29.9,I,1.011,B,11.8,C,,C,94.5,,,C,,T,,M,,N,,M*29
20220704 050237+00:00 $HCHDT,227.2,T*2C
20220704 050237+00:00 $GPRMC,050232,A,4938.8098,N,12628.8198,W,7.1,231,040722,12.3,E,A,V*56
20220704 050237+00:00 $WIMWV,341.89,R,17.49,N,A*1F
20220704 050239+00:00 $IIMDA,29.9,I,1.011,B,11.8,C,,C,94.5,,,C,,T,,M,,N,,M*29
20220704 050239+00:00 $HCHDT,227,T*30
20220704 050239+00:00 $GPRMC,050234,A,4938.7996,N,12628.8198,W,7.1,230,040722,12.3,E,A,V*59
20220704 050239+00:00 $WIMWV,347.09,R,16.79,N,A*13
20220704 050241+00:00 $IIMDA,29.9,I,1.011,B,11.8,C,,C,94.5,,,C,,T,,M,,N,,M*29
20220704 050241+00:00 $HCHDT,227,T*30
20220704 050241+00:00 $GPRMC,050236,A,4938.7996,N,12628.8300,W,7.1,230,040722,12.3,E,A,V*58
20220704 050241+00:00 $WIMWV,343.79,R,17.28,N,A*15
20220704 050243+00:00 $IIMDA,29.9,I,1.011,B,11.8,C,,C,94.5,,,C,,T,,M,,N,,M*29
20220704 050243+00:00 $HCHDT,227,T*30
20220704 050243+00:00 $GPRMC,050238,A,4938.7996,N,12628.8300,W,7.1,229,040722,12.3,E,A,V*5E
20220704 050243+00:00 $WIMWV,345.49,R,17.59,N,A*16
20220704 050245+00:00 $IIMDA,29.9,I,1.011,B,11.8,C,,C,94.5,,,C,,T,,M,,N,,M*29
20220704 050245+00:00 $HCHDT,227.1,T*2F
20220704 050245+00:00 $GPRMC,050240,A,4938.7996,N,12628.8396,W,7.1,229,040722,12.3,E,A,V*5E
20220704 050245+00:00 $WIMWV,347.29,R,16.7,N,A*28
20220704 050247+00:00 $IIMDA,29.9,I,1.011,B,11.8,C,,C,94.5,,,C,,T,,M,,N,,M*29
20220704 050247+00:00 $HCHDT,227.3,T*2D
20220704 050247+00:00 $GPRMC,050242,A,4938.7900,N,12628.8396,W,7.1,229,040722,12.3,E,A,V*53
20220704 050247+00:00 $WIMWV,343.29,R,17.88,N,A*1A
20220704 050249+00:00 $IIMDA,29.9,I,1.011,B,11.8,C,,C,94.6,,,C,,T,,M,,N,,M*2A
20220704 050249+00:00 $HCHDT,227.5,T*2B
20220704 050249+00:00 $GPRMC,050244,A,4938.7900,N,12628.8498,W,7.1,229,040722,12.3,E,A,V*5C
20220704 050249+00:00 $WIMWV,345.29,R,17.18,N,A*15
20220704 050251+00:00 $IIMDA,29.9,I,1.011,B,11.8,C,,C,94.6,,,C,,T,,M,,N,,M*2A
20220704 050251+00:00 $HCHDT,227.7,T*29
20220704 050251+00:00 $GPRMC,050246,A,4938.7900,N,12628.8498,W,7.1,229,040722,12.3,E,A,V*5E
20220704 050251+00:00 $WIMWV,346.99,R,16.39,N,A*1F
20220704 050253+00:00 $IIMDA,29.9,I,1.011,B,11.8,C,,C,94.6,,,C,,T,,M,,N,,M*2A
20220704 050253+00:00 $HCHDT,228,T*3F
20220704 050253+00:00 $GPRMC,050248,A,4938.7900,N,12628.8600,W,7.1,229,040722,12.3,E,A,V*53
20220704 050253+00:00 $WIMWV,346.29,R,16.79,N,A*10
20220704 050255+00:00 $IIMDA,29.9,I,1.011,B,11.8,C,,C,94.6,,,C,,T,,M,,N,,M*2A
20220704 050255+00:00 $HCHDT,228.2,T*23
20220704 050255+00:00 $GPRMC,050250,A,4938.7798,N,12628.8600,W,7.1,229,040722,12.3,E,A,V*55
20220704 050255+00:00 $WIMWV,346.19,R,16.48,N,A*11
20220704 050257+00:00 $IIMDA,29.9,I,1.011,B,11.8,C,,C,94.6,,,C,,T,,M,,N,,M*2A
20220704 050257+00:00 $HCHDT,228.3,T*22
20220704 050257+00:00 $GPRMC,050252,A,4938.7798,N,12628.8696,W,7.1,229,040722,12.3,E,A,V*58
20220704 050257+00:00 $WIMWV,347.09,R,16.7,N,A*2A
20220704 050259+00:00 $IIMDA,29.9,I,1.011,B,11.8,C,,C,94.6,,,C,,T,,M,,N,,M*2A
20220704 050259+00:00 $HCHDT,228.4,T*25
20220704 050259+00:00 $GPRMC,050254,A,4938.7798,N,12628.8696,W,7.1,229,040722,12.3,E,A,V*5E
20220704 050259+00:00 $WIMWV,345.69,R,16.89,N,A*18
20220704 050301+00:00 $IIMDA,29.9,I,1.011,B,11.8,C,,C,94.6,,,C,,T,,M,,N,,M*2A
20220704 050301+00:00 $HCHDT,228.4,T*25
20220704 050301+00:00 $GPRMC,050256,A,4938.7798,N,12628.8798,W,7.1,229,040722,12.3,E,A,V*53
20220704 050301+00:00 $WIMWV,346.29,R,16.58,N,A*13
20220704 050303+00:00 $IIMDA,29.9,I,1.011,B,11.8,C,,C,94.5,,,C,,T,,M,,N,,M*29
20220704 050303+00:00 $HCHDT,228.3,T*22
20220704 050303+00:00 $GPRMC,050258,A,4938.7696,N,12628.8798,W,7.1,230,040722,12.3,E,A,V*5A
20220704 050303+00:00 $WIMWV,344.89,R,17.59,N,A*1B
20220704 050305+00:00 $IIMDA,29.9,I,1.011,B,11.8,C,,C,94.6,,,C,,T,,M,,N,,M*2A
20220704 050305+00:00 $HCHDT,228.2,T*23
20220704 050305+00:00 $GPRMC,050300,A,4938.7696,N,12628.8798,W,7.1,230,040722,12.3,E,A,V*56
20220704 050305+00:00 $WIMWV,344.89,R,17.18,N,A*1E
20220704 050307+00:00 $IIMDA,29.9,I,1.011,B,11.8,C,,C,94.6,,,C,,T,,M,,N,,M*2A
20220704 050307+00:00 $HCHDT,228,T*3F
20220704 050307+00:00 $GPRMC,050302,A,4938.7696,N,12628.8900,W,7.1,230,040722,12.3,E,A,V*5B
20220704 050307+00:00 $WIMWV,343.29,R,17.98,N,A*1B
20220704 050309+00:00 $IIMDA,29.9,I,1.011,B,11.8,C,,C,94.6,,,C,,T,,M,,N,,M*2A
20220704 050309+00:00 $HCHDT,227.3,T*2D
20220704 050309+00:00 $GPRMC,050304,A,4938.7600,N,12628.8900,W,7.1,230,040722,12.3,E,A,V*52
20220704 050309+00:00 $WIMWV,344.59,R,18.49,N,A*18
20220704 050311+00:00 $IIMDA,29.9,I,1.011,B,11.8,C,,C,94.6,,,C,,T,,M,,N,,M*2A
20220704 050311+00:00 $HCHDT,226.2,T*2D
20220704 050311+00:00 $GPRMC,050306,A,4938.7600,N,12628.8996,W,7.1,229,040722,12.3,E,A,V*57
20220704 050311+00:00 $WIMWV,343.39,R,18.29,N,A*1F
20220704 050313+00:00 $IIMDA,29.9,I,1.011,B,11.8,C,,C,94.6,,,C,,T,,M,,N,,M*2A
20220704 050313+00:00 $HCHDT,224.8,T*25
20220704 050313+00:00 $GPRMC,050308,A,4938.7600,N,12628.8996,W,7.1,229,040722,12.3,E,A,V*59
20220704 050313+00:00 $WIMWV,344.49,R,17.28,N,A*11
20220704 050315+00:00 $IIMDA,29.9,I,1.011,B,11.8,C,,C,94.6,,,C,,T,,M,,N,,M*2A
20220704 050315+00:00 $HCHDT,223.4,T*2E
20220704 050315+00:00 $GPRMC,050310,A,4938.7600,N,12628.9098,W,7.1,229,040722,12.3,E,A,V*56
20220704 050315+00:00 $WIMWV,345.09,R,17.09,N,A*17
20220704 050317+00:00 $IIMDA,29.9,I,1.011,B,11.8,C,,C,94.6,,,C,,T,,M,,N,,M*2A
20220704 050317+00:00 $HCHDT,222.1,T*2A
20220704 050317+00:00 $GPRMC,050312,A,4938.7498,N,12628.9098,W,7.1,228,040722,12.3,E,A,V*56
20220704 050317+00:00 $WIMWV,345.49,R,17.09,N,A*13
20220704 050319+00:00 $IIMDA,29.9,I,1.011,B,11.8,C,,C,94.6,,,C,,T,,M,,N,,M*2A
20220704 050319+00:00 $HCHDT,221.4,T*2C
20220704 050319+00:00 $GPRMC,050314,A,4938.7498,N,12628.9200,W,7.1,227,040722,12.3,E,A,V*5C
20220704 050319+00:00 $WIMWV,348.79,R,16.89,N,A*14
20220704 050321+00:00 $IIMDA,29.9,I,1.011,B,11.8,C,,C,94.6,,,C,,T,,M,,N,,M*2A
20220704 050321+00:00 $HCHDT,220.7,T*2E
20220704 050321+00:00 $GPRMC,050316,A,4938.7498,N,12628.9200,W,7.1,226,040722,12.3,E,A,V*5F
20220704 050321+00:00 $WIMWV,349.49,R,16.29,N,A*1C
20220704 050323+00:00 $IIMDA,29.9,I,1.011,B,11.8,C,,C,94.5,,,C,,T,,M,,N,,M*29
20220704 050323+00:00 $HCHDT,220.1,T*28
20220704 050323+00:00 $GPRMC,050318,A,4938.7498,N,12628.9200,W,7.1,225,040722,12.3,E,A,V*52
20220704 050323+00:00 $WIMWV,345.99,R,16.58,N,A*1B
20220704 050325+00:00 $IIMDA,29.9,I,1.011,B,11.8,C,,C,94.6,,,C,,T,,M,,N,,M*2A
20220704 050325+00:00 $HCHDT,219.8,T*2B
20220704 050325+00:00 $GPRMC,050320,A,4938.7396,N,12628.9296,W,7.1,224,040722,12.3,E,A,V*5E
20220704 050325+00:00 $WIMWV,348.19,R,16.7,N,A*24
20220704 050327+00:00 $IIMDA,29.9,I,1.011,B,11.8,C,,C,94.6,,,C,,T,,M,,N,,M*2A
20220704 050327+00:00 $HCHDT,219.6,T*25
20220704 050327+00:00 $GPRMC,050322,A,4938.7396,N,12628.9296,W,7.1,224,040722,12.3,E,A,V*5C
20220704 050327+00:00 $WIMWV,346.99,R,17.49,N,A*19
20220704 050329+00:00 $IIMDA,29.9,I,1.011,B,11.8,C,,C,94.5,,,C,,T,,M,,N,,M*29
20220704 050329+00:00 $HCHDT,219.6,T*25
20220704 050329+00:00 $GPRMC,050324,A,4938.7396,N,12628.9398,W,7.1,223,040722,12.3,E,A,V*52
20220704 050329+00:00 $WIMWV,347.59,R,16.58,N,A*15
20220704 050331+00:00 $IIMDA,29.9,I,1.011,B,11.8,C,,C,94.6,,,C,,T,,M,,N,,M*2A
20220704 050331+00:00 $HCHDT,219.8,T*2B
20220704 050331+00:00 $GPRMC,050326,A,4938.7300,N,12628.9398,W,7.1,223,040722,12.3,E,A,V*5F
20220704 050331+00:00 $WIMWV,348.49,R,17.4,N,A*23
20220704 050333+00:00 $IIMDA,29.9,I,1.011,B,11.8,C,,C,94.5,,,C,,T,,M,,N,,M*29
20220704 050333+00:00 $HCHDT,220.2,T*2B
20220704 050333+00:00 $GPRMC,050328,A,4938.7300,N,12628.9398,W,7.1,223,040722,12.3,E,A,V*51
20220704 050333+00:00 $WIMWV,344.09,R,18.19,N,A*18
20220704 050335+00:00 $IIMDA,29.9,I,1.011,B,11.8,C,,C,94.5,,,C,,T,,M,,N,,M*29
20220704 050335+00:00 $HCHDT,220.7,T*2E
20220704 050335+00:00 $GPRMC,050330,A,4938.7300,N,12628.9500,W,7.1,223,040722,12.3,E,A,V*5F
20220704 050335+00:00 $WIMWV,347.09,R,17.4,N,A*28
20220704 050337+00:00 $IIMDA,29.9,I,1.011,B,11.8,C,,C,94.5,,,C,,T,,M,,N,,M*29
20220704 050337+00:00 $HCHDT,221.2,T*2A
20220704 050337+00:00 $GPRMC,050332,A,4938.7300,N,12628.9500,W,7.1,223,040722,12.3,E,A,V*5D
20220704 050337+00:00 $WIMWV,344.79,R,18.19,N,A*1F
20220704 050339+00:00 $IIMDA,29.9,I,1.011,B,11.8,C,,C,94.5,,,C,,T,,M,,N,,M*29
20220704 050339+00:00 $HCHDT,221.8,T*20
20220704 050339+00:00 $GPRMC,050334,A,4938.7198,N,12628.9596,W,7.1,223,040722,12.3,E,A,V*57
20220704 050339+00:00 $WIMWV,346.79,R,17.18,N,A*13
20220704 050341+00:00 $IIMDA,29.9,I,1.011,B,11.8,C,,C,94.5,,,C,,T,,M,,N,,M*29
20220704 050341+00:00 $HCHDT,222.3,T*28
20220704 050341+00:00 $GPRMC,050336,A,4938.7198,N,12628.9596,W,7.1,223,040722,12.3,E,A,V*55
20220704 050341+00:00 $WIMWV,343.59,R,18.19,N,A*1A
20220704 050343+00:00 $IIMDA,29.9,I,1.011,B,11.8,C,,C,94.5,,,C,,T,,M,,N,,M*29
20220704 050343+00:00 $HCHDT,222.5,T*2E
20220704 050343+00:00 $GPRMC,050338,A,4938.7198,N,12628.9698,W,7.1,223,040722,12.3,E,A,V*56
20220704 050343+00:00 $WIMWV,344.09,R,18.29,N,A*1B
20220704 050345+00:00 $IIMDA,29.9,I,1.011,B,11.8,C,,C,94.5,,,C,,T,,M,,N,,M*29
20220704 050345+00:00 $HCHDT,222.7,T*2C
20220704 050345+00:00 $GPRMC,050340,A,4938.7096,N,12628.9698,W,7.1,224,040722,12.3,E,A,V*51
20220704 050345+00:00 $WIMWV,344.19,R,18.29,N,A*1A
20220704 050347+00:00 $IIMDA,29.9,I,1.011,B,11.8,C,,C,94.5,,,C,,T,,M,,N,,M*29
20220704 050347+00:00 $HCHDT,222.8,T*23
20220704 050347+00:00 $GPRMC,050342,A,4938.7096,N,12628.9698,W,7.1,224,040722,12.3,E,A,V*53
20220704 050347+00:00 $WIMWV,343.39,R,18.1,N,A*25
20220704 050349+00:00 $IIMDA,29.9,I,1.011,B,11.8,C,,C,94.4,,,C,,T,,M,,N,,M*28
20220704 050349+00:00 $HCHDT,222.8,T*23
20220704 050349+00:00 $GPRMC,050344,A,4938.7096,N,12628.9800,W,7.1,224,040722,12.3,E,A,V*5A
20220704 050349+00:00 $WIMWV,342.59,R,17.98,N,A*1D
20220704 050351+00:00 $IIMDA,29.9,I,1.011,B,11.8,C,,C,94.5,,,C,,T,,M,,N,,M*29
20220704 050351+00:00 $HCHDT,222.7,T*2C
20220704 050351+00:00 $GPRMC,050346,A,4938.7096,N,12628.9800,W,7.1,224,040722,12.3,E,A,V*58
20220704 050351+00:00 $WIMWV,343.19,R,18.29,N,A*1D
20220704 050353+00:00 $IIMDA,29.9,I,1.011,B,11.8,C,,C,94.5,,,C,,T,,M,,N,,M*29
20220704 050353+00:00 $HCHDT,222.6,T*2D
20220704 050353+00:00 $GPRMC,050348,A,4938.7000,N,12628.9896,W,7.1,224,040722,12.3,E,A,V*56
20220704 050353+00:00 $WIMWV,345.29,R,17.88,N,A*1C
20220704 050355+00:00 $IIMDA,29.9,I,1.011,B,11.8,C,,C,94.4,,,C,,T,,M,,N,,M*28
20220704 050355+00:00 $HCHDT,222.4,T*2F
20220704 050355+00:00 $GPRMC,050350,A,4938.7000,N,12628.9896,W,7.1,224,040722,12.3,E,A,V*5F
20220704 050355+00:00 $WIMWV,347.19,R,17.59,N,A*11
20220704 050357+00:00 $IIMDA,29.9,I,1.011,B,11.8,C,,C,94.4,,,C,,T,,M,,N,,M*28
20220704 050357+00:00 $HCHDT,222.2,T*29
20220704 050357+00:00 $GPRMC,050352,A,4938.7000,N,12628.9998,W,7.1,224,040722,12.3,E,A,V*52
20220704 050357+00:00 $WIMWV,345.79,R,17.18,N,A*10
20220704 050359+00:00 $IIMDA,29.9,I,1.011,B,11.8,C,,C,94.5,,,C,,T,,M,,N,,M*29
20220704 050359+00:00 $HCHDT,222.1,T*2A
20220704 050359+00:00 $GPRMC,050354,A,4938.6898,N,12628.9998,W,7.1,224,040722,12.3,E,A,V*5C
20220704 050359+00:00 $WIMWV,347.99,R,16.89,N,A*15
20220704 050401+00:00 $IIMDA,29.9,I,1.011,B,11.8,C,,C,94.4,,,C,,T,,M,,N,,M*28
20220704 050401+00:00 $HCHDT,222,T*35
20220704 050401+00:00 $GPRMC,050356,A,4938.6898,N,12628.9998,W,7.1,224,040722,12.3,E,A,V*5E
20220704 050401+00:00 $WIMWV,344.59,R,17.4,N,A*2E
20220704 050403+00:00 $IIMDA,29.9,I,1.011,B,11.8,C,,C,94.4,,,C,,T,,M,,N,,M*28
20220704 050403+00:00 $HCHDT,221.9,T*21
20220704 050403+00:00 $GPRMC,050358,A,4938.6898,N,12629.0100,W,7.19,224,040722,12.3,E,A,V*68
20220704 050403+00:00 $WIMWV,345.49,R,16.79,N,A*15
20220704 050405+00:00 $IIMDA,29.9,I,1.011,B,11.8,C,,C,94.4,,,C,,T,,M,,N,,M*28
20220704 050405+00:00 $HCHDT,221.8,T*20
20220704 050405+00:00 $GPRMC,050400,A,4938.6898,N,12629.0100,W,7.19,224,040722,12.3,E,A,V*62
20220704 050405+00:00 $WIMWV,343.69,R,18.1,N,A*20
20220704 050407+00:00 $IIMDA,29.9,I,1.011,B,11.8,C,,C,94.4,,,C,,T,,M,,N,,M*28
20220704 050407+00:00 $HCHDT,221.7,T*2F
20220704 050407+00:00 $GPRMC,050402,A,4938.6796,N,12629.0196,W,7.19,224,040722,12.3,E,A,V*6E
20220704 050407+00:00 $WIMWV,345.79,R,17.18,N,A*10
20220704 050409+00:00 $IIMDA,29.9,I,1.011,B,11.8,C,,C,94.3,,,C,,T,,M,,N,,M*2F
20220704 050409+00:00 $HCHDT,221.7,T*2F
20220704 050409+00:00 $GPRMC,050404,A,4938.6796,N,12629.0196,W,7.19,224,040722,12.3,E,A,V*68
20220704 050409+00:00 $WIMWV,347.69,R,17.28,N,A*10
20220704 050411+00:00 $IIMDA,29.9,I,1.011,B,11.8,C,,C,94.4,,,C,,T,,M,,N,,M*28
20220704 050411+00:00 $HCHDT,221.6,T*2E
20220704 050411+00:00 $GPRMC,050406,A,4938.6796,N,12629.0298,W,7.19,223,040722,12.3,E,A,V*60
20220704 050411+00:00 $WIMWV,346.39,R,17.49,N,A*13
20220704 050413+00:00 $IIMDA,29.9,I,1.011,B,11.8,C,,C,94.4,,,C,,T,,M,,N,,M*28
20220704 050413+00:00 $HCHDT,221.6,T*2E
20220704 050413+00:00 $GPRMC,050408,A,4938.6700,N,12629.0298,W,7.19,223,040722,12.3,E,A,V*61
20220704 050413+00:00 $WIMWV,344.39,R,17.49,N,A*11
20220704 050415+00:00 $IIMDA,29.9,I,1.011,B,11.8,C,,C,94.3,,,C,,T,,M,,N,,M*2F
20220704 050415+00:00 $HCHDT,221.6,T*2E
20220704 050415+00:00 $GPRMC,050410,A,4938.6700,N,12629.0298,W,7.19,223,040722,12.3,E,A,V*68
20220704 050415+00:00 $WIMWV,344.39,R,17.59,N,A*10
20220704 050417+00:00 $IIMDA,29.9,I,1.011,B,11.8,C,,C,94.4,,,C,,T,,M,,N,,M*28
20220704 050417+00:00 $HCHDT,221.6,T*2E
20220704 050417+00:00 $GPRMC,050412,A,4938.6700,N,12629.0400,W,7.19,223,040722,12.3,E,A,V*6D
20220704 050417+00:00 $WIMWV,346.79,R,17.28,N,A*10
20220704 050419+00:00 $IIMDA,29.9,I,1.011,B,11.8,C,,C,94.4,,,C,,T,,M,,N,,M*28
20220704 050419+00:00 $HCHDT,221.7,T*2F
20220704 050419+00:00 $GPRMC,050414,A,4938.6700,N,12629.0400,W,7.19,223,040722,12.3,E,A,V*6B
20220704 050419+00:00 $WIMWV,346.79,R,17.09,N,A*13
20220704 050421+00:00 $IIMDA,29.9,I,1.011,B,11.8,C,,C,94.3,,,C,,T,,M,,N,,M*2F
20220704 050421+00:00 $HCHDT,221.7,T*2F
20220704 050421+00:00 $GPRMC,050416,A,4938.6598,N,12629.0496,W,7.19,223,040722,12.3,E,A,V*65
20220704 050421+00:00 $WIMWV,347.99,R,16.99,N,A*14
20220704 050423+00:00 $IIMDA,29.9,I,1.011,B,11.8,C,,C,94.4,,,C,,T,,M,,N,,M*28
20220704 050423+00:00 $HCHDT,221.7,T*2F
20220704 050423+00:00 $GPRMC,050418,A,4938.6598,N,12629.0496,W,7.19,223,040722,12.3,E,A,V*6B
20220704 050423+00:00 $WIMWV,347.09,R,17.09,N,A*15
20220704 050425+00:00 $IIMDA,29.9,I,1.011,B,11.8,C,,C,94.4,,,C,,T,,M,,N,,M*28
20220704 050425+00:00 $HCHDT,221.7,T*2F
20220704 050425+00:00 $GPRMC,050420,A,4938.6598,N,12629.0496,W,7.19,223,040722,12.3,E,A,V*60
20220704 050425+00:00 $WIMWV,345.09,R,17.79,N,A*10
20220704 050427+00:00 $IIMDA,29.9,I,1.011,B,11.8,C,,C,94.4,,,C,,T,,M,,N,,M*28
20220704 050427+00:00 $HCHDT,221.7,T*2F
20220704 050427+00:00 $GPRMC,050422,A,4938.6496,N,12629.0598,W,7.19,223,040722,12.3,E,A,V*62
20220704 050427+00:00 $WIMWV,342.59,R,18.68,N,A*1D
20220704 050429+00:00 $IIMDA,29.9,I,1.011,B,11.8,C,,C,94.3,,,C,,T,,M,,N,,M*2F
20220704 050429+00:00 $HCHDT,221.7,T*2F
20220704 050429+00:00 $GPRMC,050424,A,4938.6496,N,12629.0598,W,7.19,223,040722,12.3,E,A,V*64
20220704 050429+00:00 $WIMWV,345.09,R,18.29,N,A*1A
20220704 050431+00:00 $IIMDA,29.9,I,1.011,B,11.8,C,,C,94.3,,,C,,T,,M,,N,,M*2F
20220704 050431+00:00 $HCHDT,221.7,T*2F
20220704 050431+00:00 $GPRMC,050426,A,4938.6496,N,12629.0700,W,7.19,223,040722,12.3,E,A,V*65
20220704 050431+00:00 $WIMWV,345.09,R,17.69,N,A*11
20220704 050433+00:00 $IIMDA,29.9,I,1.011,B,11.8,C,,C,94.4,,,C,,T,,M,,N,,M*28
20220704 050433+00:00 $HCHDT,221.8,T*20
20220704 050433+00:00 $GPRMC,050428,A,4938.6496,N,12629.0700,W,7.19,223,040722,12.3,E,A,V*6B
20220704 050433+00:00 $WIMWV,342.59,R,19.59,N,A*1E
20220704 050435+00:00 $IIMDA,29.9,I,1.011,B,11.8,C,,C,94.4,,,C,,T,,M,,N,,M*28
20220704 050435+00:00 $HCHDT,221.8,T*20
20220704 050435+00:00 $GPRMC,050430,A,4938.6400,N,12629.0796,W,7.19,223,040722,12.3,E,A,V*62
20220704 050435+00:00 $WIMWV,342.39,R,18.29,N,A*1E
20220704 050437+00:00 $IIMDA,29.9,I,1.011,B,11.8,C,,C,94.4,,,C,,T,,M,,N,,M*28
20220704 050437+00:00 $HCHDT,221.9,T*21
20220704 050437+00:00 $GPRMC,050432,A,4938.6400,N,12629.0796,W,7.19,223,040722,12.3,E,A,V*60
20220704 050437+00:00 $WIMWV,338.89,R,19.19,N,A*1A
20220704 050439+00:00 $IIMDA,29.9,I,1.011,B,11.8,C,,C,94.4,,,C,,T,,M,,N,,M*28
20220704 050439+00:00 $HCHDT,221.9,T*21
20220704 050439+00:00 $GPRMC,050434,A,4938.6400,N,12629.0796,W,7.19,223,040722,12.3,E,A,V*66
20220704 050439+00:00 $WIMWV,341.99,R,17.98,N,A*12
20220704 050441+00:00 $IIMDA,29.9,I,1.011,B,11.8,C,,C,94.4,,,C,,T,,M,,N,,M*28
20220704 050441+00:00 $HCHDT,221.9,T*21
20220704 050441+00:00 $GPRMC,050436,A,4938.6298,N,12629.0898,W,7.19,223,040722,12.3,E,A,V*62
20220704 050441+00:00 $WIMWV,340.39,R,18.19,N,A*1F
20220704 050443+00:00 $IIMDA,29.9,I,1.011,B,11.8,C,,C,94.4,,,C,,T,,M,,N,,M*28
20220704 050443+00:00 $HCHDT,222,T*35
20220704 050443+00:00 $GPRMC,050438,A,4938.6298,N,12629.0898,W,7.19,223,040722,12.3,E,A,V*6C
20220704 050443+00:00 $WIMWV,341.09,R,18.19,N,A*1D
20220704 050445+00:00 $IIMDA,29.9,I,1.011,B,11.8,C,,C,94.4,,,C,,T,,M,,N,,M*28
20220704 050445+00:00 $HCHDT,222.1,T*2A
20220704 050445+00:00 $GPRMC,050440,A,4938.6298,N,12629.1000,W,7.19,223,040722,12.3,E,A,V*6B
20220704 050445+00:00 $WIMWV,343.79,R,17.88,N,A*1F
20220704 050447+00:00 $IIMDA,29.9,I,1.011,B,11.8,C,,C,94.4,,,C,,T,,M,,N,,M*28
20220704 050447+00:00 $HCHDT,222.2,T*29
20220704 050447+00:00 $GPRMC,050442,A,4938.6298,N,12629.1000,W,7.19,223,040722,12.3,E,A,V*69
20220704 050447+00:00 $WIMWV,342.49,R,17.98,N,A*1C
20220704 050449+00:00 $IIMDA,29.9,I,1.011,B,11.8,C,,C,94.4,,,C,,T,,M,,N,,M*28
20220704 050449+00:00 $HCHDT,222.3,T*28
20220704 050449+00:00 $GPRMC,050444,A,4938.6196,N,12629.1096,W,7.19,223,040722,12.3,E,A,V*6D
20220704 050449+00:00 $WIMWV,344.39,R,17.69,N,A*13
20220704 050451+00:00 $IIMDA,29.9,I,1.011,B,11.8,C,,C,94.4,,,C,,T,,M,,N,,M*28
20220704 050451+00:00 $HCHDT,222.3,T*28
20220704 050451+00:00 $GPRMC,050446,A,4938.6196,N,12629.1096,W,7.19,223,040722,12.3,E,A,V*6F
20220704 050451+00:00 $WIMWV,343.79,R,18.19,N,A*18
20220704 050453+00:00 $IIMDA,29.9,I,1.011,B,11.8,C,,C,94.4,,,C,,T,,M,,N,,M*28
20220704 050453+00:00 $HCHDT,222.4,T*2F
20220704 050453+00:00 $GPRMC,050448,A,4938.6196,N,12629.1096,W,7.19,224,040722,12.3,E,A,V*66
20220704 050453+00:00 $WIMWV,342.99,R,18.19,N,A*17
20220704 050455+00:00 $IIMDA,29.9,I,1.011,B,11.8,C,,C,94.4,,,C,,T,,M,,N,,M*28
20220704 050455+00:00 $HCHDT,222.4,T*2F
20220704 050455+00:00 $GPRMC,050450,A,4938.6100,N,12629.1198,W,7.19,224,040722,12.3,E,A,V*6F
20220704 050455+00:00 $WIMWV,345.39,R,18.19,N,A*1A
20220704 050457+00:00 $IIMDA,29.9,I,1.011,B,11.8,C,,C,94.4,,,C,,T,,M,,N,,M*28
20220704 050457+00:00 $HCHDT,222.5,T*2E
20220704 050457+00:00 $GPRMC,050452,A,4938.6100,N,12629.1198,W,7.19,224,040722,12.3,E,A,V*6D
20220704 050457+00:00 $WIMWV,344.89,R,17.79,N,A*19
20220704 050459+00:00 $IIMDA,29.9,I,1.011,B,11.8,C,,C,94.4,,,C,,T,,M,,N,,M*28
20220704 050459+00:00 $HCHDT,222.3,T*28
20220704 050459+00:00 $GPRMC,050454,A,4938.6100,N,12629.1300,W,7.19,224,040722,12.3,E,A,V*68
20220704 050459+00:00 $WIMWV,345.79,R,18.19,N,A*1E
20220704 050501+00:00 $IIMDA,29.9,I,1.011,B,11.8,C,,C,94.4,,,C,,T,,M,,N,,M*28
20220704 050501+00:00 $HCHDT,221.8,T*20
20220704 050501+00:00 $GPRMC,050456,A,4938.5998,N,12629.1300,W,7.19,224,040722,12.3,E,A,V*60
20220704 050501+00:00 $WIMWV,345.29,R,18.39,N,A*19
20220704 050503+00:00 $IIMDA,29.9,I,1.011,B,11.8,C,,C,94.4,,,C,,T,,M,,N,,M*28
20220704 050503+00:00 $HCHDT,220.3,T*2A
20220704 050503+00:00 $GPRMC,050458,A,4938.5998,N,12629.1396,W,7.19,224,040722,12.3,E,A,V*61
20220704 050503+00:00 $WIMWV,349.99,R,18.58,N,A*19
20220704 050505+00:00 $IIMDA,29.9,I,1.011,B,11.8,C,,C,94.4,,,C,,T,,M,,N,,M*28
20220704 050505+00:00 $HCHDT,218.3,T*21
20220704 050505+00:00 $GPRMC,050500,A,4938.5998,N,12629.1396,W,7.19,223,040722,12.3,E,A,V*6A
20220704 050505+00:00 $WIMWV,347.99,R,17.49,N,A*18
20220704 050507+00:00 $IIMDA,29.9,I,1.011,B,11.8,C,,C,94.4,,,C,,T,,M,,N,,M*28
20220704 050507+00:00 $HCHDT,216.3,T*2F
20220704 050507+00:00 $GPRMC,050502,A,4938.5998,N,12629.1396,W,7.19,223,040722,12.3,E,A,V*68
20220704 050507+00:00 $WIMWV,346.59,R,16.89,N,A*18
20220704 050509+00:00 $IIMDA,29.9,I,1.011,B,11.8,C,,C,94.4,,,C,,T,,M,,N,,M*28
20220704 050509+00:00 $HCHDT,214.5,T*2B
20220704 050509+00:00 $GPRMC,050504,A,4938.5896,N,12629.1498,W,7.19,222,040722,12.3,E,A,V*69
20220704 050509+00:00 $WIMWV,348.19,R,17.18,N,A*1B
20220704 050511+00:00 $IIMDA,29.9,I,1.011,B,11.8,C,,C,94.4,,,C,,T,,M,,N,,M*28
20220704 050511+00:00 $HCHDT,213,T*37
20220704 050511+00:00 $GPRMC,050506,A,4938.5896,N,12629.1498,W,7.19,221,040722,12.3,E,A,V*68
20220704 050511+00:00 $WIMWV,350.99,R,18.29,N,A*17
20220704 050513+00:00 $IIMDA,29.9,I,1.011,B,11.8,C,,C,94.4,,,C,,T,,M,,N,,M*28
20220704 050513+00:00 $HCHDT,211.8,T*23
20220704 050513+00:00 $GPRMC,050508,A,4938.5896,N,12629.1498,W,7.19,219,040722,12.3,E,A,V*6D
20220704 050513+00:00 $WIMWV,349.79,R,18.29,N,A*11
20220704 050515+00:00 $IIMDA,29.9,I,1.011,B,11.8,C,,C,94.4,,,C,,T,,M,,N,,M*28
20220704 050515+00:00 $HCHDT,211,T*35
20220704 050515+00:00 $GPRMC,050510,A,4938.5800,N,12629.1600,W,7.19,218,040722,12.3,E,A,V*69
20220704 050515+00:00 $WIMWV,349.39,R,17.98,N,A*10
20220704 050517+00:00 $IIMDA,29.9,I,1.011,B,11.8,C,,C,94.4,,,C,,T,,M,,N,,M*28
20220704 050517+00:00 $HCHDT,210.5,T*2F
20220704 050517+00:00 $GPRMC,050512,A,4938.5800,N,12629.1600,W,7.19,217,040722,12.3,E,A,V*64
20220704 050517+00:00 $WIMWV,349.39,R,18.39,N,A*14
20220704 050519+00:00 $IIMDA,29.9,I,1.011,B,11.8,C,,C,94.4,,,C,,T,,M,,N,,M*28
20220704 050519+00:00 $HCHDT,210.3,T*29
20220704 050519+00:00 $GPRMC,050514,A,4938.5800,N,12629.1600,W,7.19,216,040722,12.3,E,A,V*63
20220704 050519+00:00 $WIMWV,352.99,R,18.39,N,A*14
20220704 050521+00:00 $IIMDA,29.9,I,1.011,B,11.8,C,,C,94.4,,,C,,T,,M,,N,,M*28
20220704 050521+00:00 $HCHDT,210.3,T*29
20220704 050521+00:00 $GPRMC,050516,A,4938.5698,N,12629.1696,W,7.19,215,040722,12.3,E,A,V*62
20220704 050521+00:00 $WIMWV,353.19,R,19.09,N,A*1F
20220704 050523+00:00 $IIMDA,29.9,I,1.011,B,11.8,C,,C,94.4,,,C,,T,,M,,N,,M*28
20220704 050523+00:00 $HCHDT,210.6,T*2C
20220704 050523+00:00 $GPRMC,050518,A,4938.5698,N,12629.1696,W,7.19,214,040722,12.3,E,A,V*6D
20220704 050523+00:00 $WIMWV,353.09,R,18.8,N,A*2E
20220704 050525+00:00 $IIMDA,29.9,I,1.011,B,11.8,C,,C,94.4,,,C,,T,,M,,N,,M*28
20220704 050525+00:00 $HCHDT,211.1,T*2A
20220704 050525+00:00 $GPRMC,050520,A,4938.5698,N,12629.1798,W,7.19,214,040722,12.3,E,A,V*69
20220704 050525+00:00 $WIMWV,352.99,R,18.99,N,A*1E
20220704 050527+00:00 $IIMDA,29.9,I,1.011,B,11.8,C,,C,94.4,,,C,,T,,M,,N,,M*28
20220704 050527+00:00 $HCHDT,211.8,T*23
20220704 050527+00:00 $GPRMC,050522,A,4938.5596,N,12629.1798,W,7.19,213,040722,12.3,E,A,V*61
20220704 050527+00:00 $WIMWV,355.19,R,19.59,N,A*1C
20220704 050529+00:00 $IIMDA,29.9,I,1.011,B,11.8,C,,C,94.4,,,C,,T,,M,,N,,M*28
20220704 050529+00:00 $HCHDT,212.4,T*2C
20220704 050529+00:00 $GPRMC,050524,A,4938.5596,N,12629.1798,W,7.19,213,040722,12.3,E,A,V*67
20220704 050529+00:00 $WIMWV,357.59,R,17.88,N,A*18
20220704 050531+00:00 $IIMDA,29.9,I,1.011,B,11.8,C,,C,94.4,,,C,,T,,M,,N,,M*28
20220704 050531+00:00 $HCHDT,212.9,T*21
20220704 050531+00:00 $GPRMC,050526,A,4938.5596,N,12629.1900,W,7.31,214,040722,12.3,E,A,V*67
20220704 050531+00:00 $WIMWV,353.99,R,17.59,N,A*1C
20220704 050533+00:00 $IIMDA,29.9,I,1.011,B,11.8,C,,C,94.4,,,C,,T,,M,,N,,M*28
20220704 050533+00:00 $HCHDT,213.2,T*2B
20220704 050533+00:00 $GPRMC,050528,A,4938.5500,N,12629.1900,W,7.31,214,040722,12.3,E,A,V*66
20220704 050533+00:00 $WIMWV,354.29,R,17.09,N,A*15
20220704 050535+00:00 $IIMDA,29.9,I,1.011,B,11.8,C,,C,94.3,,,C,,T,,M,,N,,M*2F
20220704 050535+00:00 $HCHDT,213.6,T*2F
20220704 050535+00:00 $GPRMC,050530,A,4938.5500,N,12629.1900,W,7.31,214,040722,12.3,E,A,V*6F
20220704 050535+00:00 $WIMWV,355.99,R,16.99,N,A*17
20220704 050537+00:00 $IIMDA,29.9,I,1.011,B,11.8,C,,C,94.3,,,C,,T,,M,,N,,M*2F
20220704 050537+00:00 $HCHDT,213.7,T*2E
20220704 050537+00:00 $GPRMC,050532,A,4938.5500,N,12629.1996,W,7.31,214,040722,12.3,E,A,V*62
20220704 050537+00:00 $WIMWV,358.49,R,16.7,N,A*20
20220704 050539+00:00 $IIMDA,29.9,I,1.011,B,11.8,C,,C,94.3,,,C,,T,,M,,N,,M*2F
20220704 050539+00:00 $HCHDT,213.9,T*20
20220704 050539+00:00 $GPRMC,050534,A,4938.5398,N,12629.1996,W,7.31,215,040722,12.3,E,A,V*62
20220704 050539+00:00 $WIMWV,353.89,R,16.58,N,A*1D
20220704 050541+00:00 $IIMDA,29.9,I,1.011,B,11.8,C,,C,94.4,,,C,,T,,M,,N,,M*28
20220704 050541+00:00 $HCHDT,213.9,T*20
20220704 050541+00:00 $GPRMC,050536,A,4938.5398,N,12629.1996,W,7.19,215,040722,12.3,E,A,V*6A
20220704 050541+00:00 $WIMWV,353.39,R,16.1,N,A*2A
20220704 050543+00:00 $IIMDA,29.9,I,1.011,B,11.8,C,,C,94.3,,,C,,T,,M,,N,,M*2F
20220704 050543+00:00 $HCHDT,213.9,T*20
20220704 050543+00:00 $GPRMC,050538,A,4938.5398,N,12629.2098,W,7.19,215,040722,12.3,E,A,V*60
20220704 050543+00:00 $WIMWV,352.19,R,16.89,N,A*19
20220704 050545+00:00 $IIMDA,29.9,I,1.011,B,11.8,C,,C,94.3,,,C,,T,,M,,N,,M*2F
20220704 050545+00:00 $HCHDT,213.9,T*20
20220704 050545+00:00 $GPRMC,050540,A,4938.5296,N,12629.2098,W,7.19,215,040722,12.3,E,A,V*60
20220704 050545+00:00 $WIMWV,351.79,R,16.7,N,A*2A
20220704 050547+00:00 $IIMDA,29.9,I,1.011,B,11.8,C,,C,94.4,,,C,,T,,M,,N,,M*28
20220704 050547+00:00 $HCHDT,213.7,T*2E
20220704 050547+00:00 $GPRMC,050542,A,4938.5296,N,12629.2098,W,7.19,215,040722,12.3,E,A,V*62
20220704 050547+00:00 $WIMWV,354.19,R,16.1,N,A*2F
20220704 050549+00:00 $IIMDA,29.9,I,1.011,B,11.8,C,,C,94.4,,,C,,T,,M,,N,,M*28
20220704 050549+00:00 $HCHDT,213.5,T*2C
20220704 050549+00:00 $GPRMC,050544,A,4938.5296,N,12629.2200,W,7.19,215,040722,12.3,E,A,V*67
20220704 050549+00:00 $WIMWV,351.69,R,15.78,N,A*10
20220704 050551+00:00 $IIMDA,29.9,I,1.011,B,11.8,C,,C,94.4,,,C,,T,,M,,N,,M*28
20220704 050551+00:00 $HCHDT,213.2,T*2B
20220704 050551+00:00 $GPRMC,050546,A,4938.5200,N,12629.2200,W,7.19,215,040722,12.3,E,A,V*6A
20220704 050551+00:00 $WIMWV,352.09,R,15.88,N,A*1A
20220704 050553+00:00 $IIMDA,29.9,I,1.011,B,11.8,C,,C,94.4,,,C,,T,,M,,N,,M*28
20220704 050553+00:00 $HCHDT,212.9,T*21
20220704 050553+00:00 $GPRMC,050548,A,4938.5200,N,12629.2200,W,7.19,215,040722,12.3,E,A,V*64
20220704 050553+00:00 $WIMWV,351.99,R,15.18,N,A*19
20220704 050555+00:00 $IIMDA,29.9,I,1.011,B,11.8,C,,C,94.4,,,C,,T,,M,,N,,M*28
20220704 050555+00:00 $HCHDT,212.7,T*2F
20220704 050555+00:00 $GPRMC,050550,A,4938.5200,N,12629.2296,W,7.19,215,040722,12.3,E,A,V*62
20220704 050555+00:00 $WIMWV,354.89,R,15.4,N,A*20
20220704 050557+00:00 $IIMDA,29.9,I,1.011,B,11.8,C,,C,94.4,,,C,,T,,M,,N,,M*28
20220704 050557+00:00 $HCHDT,212.5,T*2D
20220704 050557+00:00 $GPRMC,050552,A,4938.5098,N,12629.2296,W,7.19,215,040722,12.3,E,A,V*63
20220704 050557+00:00 $WIMWV,352.99,R,16,N,A*3E
20220704 050559+00:00 $IIMDA,29.9,I,1.011,B,11.8,C,,C,94.4,,,C,,T,,M,,N,,M*28
20220704 050559+00:00 $HCHDT,212.3,T*2B
20220704 050559+00:00 $GPRMC,050554,A,4938.5098,N,12629.2296,W,7.19,214,040722,12.3,E,A,V*64
20220704 050559+00:00 $WIMWV,353.49,R,16,N,A*32
20220704 050601+00:00 $IIMDA,29.9,I,1.011,B,11.8,C,,C,94.4,,,C,,T,,M,,N,,M*28
20220704 050601+00:00 $HCHDT,212.2,T*2A
20220704 050601+00:00 $GPRMC,050556,A,4938.5098,N,12629.2398,W,7.31,214,040722,12.3,E,A,V*63
20220704 050601+00:00 $WIMWV,6.9,R,14.99,N,A*29
20220704 050603+00:00 $IIMDA,29.9,I,1.011,B,11.8,C,,C,94.4,,,C,,T,,M,,N,,M*28
20220704 050603+00:00 $HCHDT,212.1,T*29
20220704 050603+00:00 $GPRMC,050558,A,4938.4996,N,12629.2398,W,7.31,214,040722,12.3,E,A,V*6B
20220704 050603+00:00 $WIMWV,353.59,R,15.4,N,A*2A
20220704 050605+00:00 $IIMDA,29.9,I,1.011,B,11.8,C,,C,94.4,,,C,,T,,M,,N,,M*28
20220704 050605+00:00 $HCHDT,212,T*36
20220704 050605+00:00 $GPRMC,050600,A,4938.4996,N,12629.2398,W,7.31,214,040722,12.3,E,A,V*65
20220704 050605+00:00 $WIMWV,356.69,R,16.1,N,A*2A
20220704 050607+00:00 $IIMDA,29.9,I,1.011,B,11.8,C,,C,94.4,,,C,,T,,M,,N,,M*28
20220704 050607+00:00 $HCHDT,212,T*36
20220704 050607+00:00 $GPRMC,050602,A,4938.4996,N,12629.2500,W,7.19,214,040722,12.3,E,A,V*6A
20220704 050607+00:00 $WIMWV,352.99,R,16.1,N,A*21
20220704 050609+00:00 $IIMDA,29.9,I,1.011,B,11.8,C,,C,94.4,,,C,,T,,M,,N,,M*28
20220704 050609+00:00 $HCHDT,212,T*36
20220704 050609+00:00 $GPRMC,050604,A,4938.4900,N,12629.2500,W,7.19,214,040722,12.3,E,A,V*63
20220704 050609+00:00 $WIMWV,350.49,R,16,N,A*31
20220704 050611+00:00 $IIMDA,29.9,I,1.011,B,11.8,C,,C,94.4,,,C,,T,,M,,N,,M*28
20220704 050611+00:00 $HCHDT,212,T*36
20220704 050611+00:00 $GPRMC,050606,A,4938.4900,N,12629.2596,W,7.19,214,040722,12.3,E,A,V*6E
20220704 050611+00:00 $WIMWV,351.59,R,15.88,N,A*1C
20220704 050613+00:00 $IIMDA,29.9,I,1.011,B,11.8,C,,C,94.5,,,C,,T,,M,,N,,M*29
20220704 050613+00:00 $HCHDT,212,T*36
20220704 050613+00:00 $GPRMC,050608,A,4938.4900,N,12629.2596,W,7.19,214,040722,12.3,E,A,V*60
20220704 050613+00:00 $WIMWV,353.59,R,15.3,N,A*2D
20220704 050615+00:00 $IIMDA,29.9,I,1.011,B,11.8,C,,C,94.4,,,C,,T,,M,,N,,M*28
20220704 050615+00:00 $HCHDT,212,T*36
20220704 050615+00:00 $GPRMC,050610,A,4938.4798,N,12629.2596,W,7.19,213,040722,12.3,E,A,V*61
20220704 050615+00:00 $WIMWV,1.5,R,14.29,N,A*29
20220704 050617+00:00 $IIMDA,29.9,I,1.011,B,11.8,C,,C,94.4,,,C,,T,,M,,N,,M*28
20220704 050617+00:00 $HCHDT,212,T*36
20220704 050617+00:00 $GPRMC,050612,A,4938.4798,N,12629.2698,W,7.19,213,040722,12.3,E,A,V*6E
20220704 050617+00:00 $WIMWV,355.59,R,15.49,N,A*15
20220704 050619+00:00 $IIMDA,29.9,I,1.011,B,11.8,C,,C,94.4,,,C,,T,,M,,N,,M*28
20220704 050619+00:00 $HCHDT,212,T*36
20220704 050619+00:00 $GPRMC,050614,A,4938.4798,N,12629.2698,W,7.19,213,040722,12.3,E,A,V*68
20220704 050619+00:00 $WIMWV,359.59,R,14.19,N,A*1D
20220704 050621+00:00 $IIMDA,29.9,I,1.011,B,11.8,C,,C,94.4,,,C,,T,,M,,N,,M*28
20220704 050621+00:00 $HCHDT,212,T*36
20220704 050621+00:00 $GPRMC,050616,A,4938.4696,N,12629.2698,W,7.19,213,040722,12.3,E,A,V*65
20220704 050621+00:00 $WIMWV,358.69,R,15.08,N,A*1E
20220704 050623+00:00 $IIMDA,29.9,I,1.011,B,11.8,C,,C,94.4,,,C,,T,,M,,N,,M*28
20220704 050623+00:00 $HCHDT,212,T*36
20220704 050623+00:00 $GPRMC,050618,A,4938.4696,N,12629.2800,W,7.19,213,040722,12.3,E,A,V*64
20220704 050623+00:00 $WIMWV,8.2,R,13.39,N,A*21
20220704 050625+00:00 $IIMDA,29.9,I,1.011,B,11.8,C,,C,94.4,,,C,,T,,M,,N,,M*28
20220704 050625+00:00 $HCHDT,212,T*36
20220704 050625+00:00 $GPRMC,050620,A,4938.4696,N,12629.2800,W,7.19,213,040722,12.3,E,A,V*6F
20220704 050625+00:00 $WIMWV,17,R,12.09,N,A*01
20220704 050627+00:00 $IIMDA,29.9,I,1.011,B,11.8,C,,C,94.4,,,C,,T,,M,,N,,M*28
20220704 050627+00:00 $HCHDT,212.1,T*29
20220704 050627+00:00 $GPRMC,050622,A,4938.4600,N,12629.2800,W,7.31,213,040722,12.3,E,A,V*68
20220704 050627+00:00 $WIMWV,3,R,14.19,N,A*33
20220704 050629+00:00 $IIMDA,29.9,I,1.011,B,11.8,C,,C,94.4,,,C,,T,,M,,N,,M*28
20220704 050629+00:00 $HCHDT,212.2,T*2A
20220704 050629+00:00 $GPRMC,050624,A,4938.4600,N,12629.2896,W,7.31,213,040722,12.3,E,A,V*61
20220704 050629+00:00 $WIMWV,0.9,R,12.98,N,A*28
20220704 050631+00:00 $IIMDA,29.9,I,1.011,B,11.8,C,,C,94.4,,,C,,T,,M,,N,,M*28
20220704 050631+00:00 $HCHDT,212.3,T*2B
20220704 050631+00:00 $GPRMC,050626,A,4938.4600,N,12629.2896,W,7.31,214,040722,12.3,E,A,V*64
20220704 050631+00:00 $WIMWV,7.2,R,14.38,N,A*28
20220704 050633+00:00 $IIMDA,29.9,I,1.011,B,11.8,C,,C,94.4,,,C,,T,,M,,N,,M*28
20220704 050633+00:00 $HCHDT,212.5,T*2D
20220704 050633+00:00 $GPRMC,050628,A,4938.4498,N,12629.2896,W,7.31,214,040722,12.3,E,A,V*69
20220704 050633+00:00 $WIMWV,1.6,R,14.7,N,A*16
20220704 050635+00:00 $IIMDA,29.9,I,1.011,B,11.8,C,,C,94.4,,,C,,T,,M,,N,,M*28
20220704 050635+00:00 $HCHDT,212.6,T*2E
20220704 050635+00:00 $GPRMC,050630,A,4938.4498,N,12629.2998,W,7.31,214,040722,12.3,E,A,V*6F
20220704 050635+00:00 $WIMWV,2.1,R,13.59,N,A*2E
20220704 050637+00:00 $IIMDA,29.9,I,1.011,B,11.8,C,,C,94.4,,,C,,T,,M,,N,,M*28
20220704 050637+00:00 $HCHDT,212.6,T*2E
20220704 050637+00:00 $GPRMC,050632,A,4938.4498,N,12629.2998,W,7.31,214,040722,12.3,E,A,V*6D
20220704 050637+00:00 $WIMWV,4.1,R,13.2,N,A*16
20220704 050639+00:00 $IIMDA,29.9,I,1.011,B,11.8,C,,C,94.4,,,C,,T,,M,,N,,M*28
20220704 050639+00:00 $HCHDT,212.6,T*2E
20220704 050639+00:00 $GPRMC,050634,A,4938.4396,N,12629.2998,W,7.31,214,040722,12.3,E,A,V*62
20220704 050639+00:00 $WIMWV,0.1,R,13.49,N,A*2D
20220704 050641+00:00 $IIMDA,29.9,I,1.011,B,11.8,C,,C,94.4,,,C,,T,,M,,N,,M*28
20220704 050641+00:00 $HCHDT,212.5,T*2D
20220704 050641+00:00 $GPRMC,050636,A,4938.4396,N,12629.3100,W,7.31,214,040722,12.3,E,A,V*68
20220704 050641+00:00 $WIMWV,10.6,R,9.99,N,A*2D
20220704 050643+00:00 $IIMDA,29.9,I,1.011,B,11.8,C,,C,94.4,,,C,,T,,M,,N,,M*28
20220704 050643+00:00 $HCHDT,212.4,T*2C
20220704 050643+00:00 $GPRMC,050638,A,4938.4396,N,12629.3100,W,7.31,214,040722,12.3,E,A,V*66
20220704 050643+00:00 $WIMWV,1.6,R,14.09,N,A*28
20220704 050645+00:00 $IIMDA,29.9,I,1.011,B,11.8,C,,C,94.4,,,C,,T,,M,,N,,M*28
20220704 050645+00:00 $HCHDT,212.2,T*2A
20220704 050645+00:00 $GPRMC,050640,A,4938.4300,N,12629.3100,W,7.31,214,040722,12.3,E,A,V*66
20220704 050645+00:00 $WIMWV,0.4,R,12.29,N,A*2F
20220704 050647+00:00 $IIMDA,29.9,I,1.011,B,11.8,C,,C,94.4,,,C,,T,,M,,N,,M*28
20220704 050647+00:00 $HCHDT,212,T*36
20220704 050647+00:00 $GPRMC,050642,A,4938.4300,N,12629.3196,W,7.31,214,040722,12.3,E,A,V*6B
20220704 050647+00:00 $WIMWV,0.3,R,14.09,N,A*2C
20220704 050649+00:00 $IIMDA,29.9,I,1.011,B,11.8,C,,C,94.4,,,C,,T,,M,,N,,M*28
20220704 050649+00:00 $HCHDT,211.8,T*23
20220704 050649+00:00 $GPRMC,050644,A,4938.4300,N,12629.3196,W,7.31,214,040722,12.3,E,A,V*6D
20220704 050649+00:00 $WIMWV,351.69,R,14.48,N,A*12
20220704 050651+00:00 $IIMDA,29.9,I,1.011,B,11.8,C,,C,94.4,,,C,,T,,M,,N,,M*28
20220704 050651+00:00 $HCHDT,211.5,T*2E
20220704 050651+00:00 $GPRMC,050646,A,4938.4198,N,12629.3196,W,7.31,214,040722,12.3,E,A,V*6C
20220704 050651+00:00 $WIMWV,0,R,13.3,N,A*0C
20220704 050653+00:00 $IIMDA,29.9,I,1.011,B,11.8,C,,C,94.4,,,C,,T,,M,,N,,M*28
20220704 050653+00:00 $HCHDT,211.3,T*28
20220704 050653+00:00 $GPRMC,050648,A,4938.4198,N,12629.3298,W,7.31,214,040722,12.3,E,A,V*6F
20220704 050653+00:00 $WIMWV,353.19,R,14.79,N,A*15
20220704 050655+00:00 $IIMDA,29.9,I,1.011,B,11.8,C,,C,94.4,,,C,,T,,M,,N,,M*28
20220704 050655+00:00 $HCHDT,211,T*35
20220704 050655+00:00 $GPRMC,050650,A,4938.4198,N,12629.3298,W,7.31,213,040722,12.3,E,A,V*61
20220704 050655+00:00 $WIMWV,349.69,R,14.6,N,A*21
20220704 050657+00:00 $IIMDA,29.9,I,1.011,B,11.8,C,,C,94.4,,,C,,T,,M,,N,,M*28
20220704 050657+00:00 $HCHDT,210.8,T*22
20220704 050657+00:00 $GPRMC,050652,A,4938.4096,N,12629.3298,W,7.31,213,040722,12.3,E,A,V*6C
20220704 050657+00:00 $WIMWV,351.29,R,14.48,N,A*16
20220704 050659+00:00 $IIMDA,29.9,I,1.011,B,11.8,C,,C,94.4,,,C,,T,,M,,N,,M*28
20220704 050659+00:00 $HCHDT,210.4,T*2E
20220704 050659+00:00 $GPRMC,050654,A,4938.4096,N,12629.3400,W,7.31,213,040722,12.3,E,A,V*6D
20220704 050659+00:00 $WIMWV,353.49,R,14,N,A*30
20220704 050701+00:00 $IIMDA,29.9,I,1.011,B,11.8,C,,C,94.5,,,C,,T,,M,,N,,M*29
20220704 050701+00:00 $HCHDT,210.2,T*28
20220704 050701+00:00 $GPRMC,050656,A,4938.4096,N,12629.3400,W,7.31,213,040722,12.3,E,A,V*6F
20220704 050701+00:00 $WIMWV,353.19,R,14,N,A*35
20220704 050703+00:00 $IIMDA,29.9,I,1.011,B,11.8,C,,C,94.4,,,C,,T,,M,,N,,M*28
20220704 050703+00:00 $HCHDT,209.9,T*2B
20220704 050703+00:00 $GPRMC,050658,A,4938.4000,N,12629.3400,W,7.31,213,040722,12.3,E,A,V*6E
20220704 050703+00:00 $WIMWV,350.89,R,13.9,N,A*2F
20220704 050705+00:00 $IIMDA,29.9,I,1.011,B,11.8,C,,C,94.5,,,C,,T,,M,,N,,M*29
20220704 050705+00:00 $HCHDT,209.7,T*25
20220704 050705+00:00 $GPRMC,050700,A,4938.4000,N,12629.3496,W,7.31,212,040722,12.3,E,A,V*6C
20220704 050705+00:00 $WIMWV,351.99,R,14,N,A*3F
20220704 050707+00:00 $IIMDA,29.9,I,1.011,B,11.8,C,,C,94.5,,,C,,T,,M,,N,,M*29
20220704 050707+00:00 $HCHDT,209.5,T*27
20220704 050707+00:00 $GPRMC,050702,A,4938.4000,N,12629.3496,W,7.31,212,040722,12.3,E,A,V*6E
20220704 050707+00:00 $WIMWV,352.39,R,14.6,N,A*2E
20220704 050709+00:00 $IIMDA,29.9,I,1.011,B,11.8,C,,C,94.5,,,C,,T,,M,,N,,M*29
20220704 050709+00:00 $HCHDT,209.3,T*21
20220704 050709+00:00 $GPRMC,050704,A,4938.3898,N,12629.3496,W,7.31,212,040722,12.3,E,A,V*66
20220704 050709+00:00 $WIMWV,354.49,R,14.29,N,A*12
20220704 050711+00:00 $IIMDA,29.9,I,1.011,B,11.8,C,,C,94.5,,,C,,T,,M,,N,,M*29
20220704 050711+00:00 $HCHDT,209.1,T*23
20220704 050711+00:00 $GPRMC,050706,A,4938.3898,N,12629.3598,W,7.31,212,040722,12.3,E,A,V*6B
20220704 050711+00:00 $WIMWV,350.79,R,14.7,N,A*29
20220704 050713+00:00 $IIMDA,29.9,I,1.011,B,11.8,C,,C,94.6,,,C,,T,,M,,N,,M*2A
20220704 050713+00:00 $HCHDT,209,T*3C
20220704 050713+00:00 $GPRMC,050708,A,4938.3898,N,12629.3598,W,7.31,212,040722,12.3,E,A,V*65
20220704 050713+00:00 $WIMWV,349.59,R,14.89,N,A*15
20220704 050715+00:00 $IIMDA,29.9,I,1.011,B,11.8,C,,C,94.5,,,C,,T,,M,,N,,M*29
20220704 050715+00:00 $HCHDT,209.1,T*23
20220704 050715+00:00 $GPRMC,050710,A,4938.3796,N,12629.3598,W,7.31,212,040722,12.3,E,A,V*6D
20220704 050715+00:00 $WIMWV,348.19,R,14.6,N,A*27
20220704 050717+00:00 $IIMDA,29.9,I,1.011,B,11.8,C,,C,94.5,,,C,,T,,M,,N,,M*29
20220704 050717+00:00 $HCHDT,209.3,T*21
20220704 050717+00:00 $GPRMC,050712,A,4938.3796,N,12629.3700,W,7.31,212,040722,12.3,E,A,V*6C
20220704 050717+00:00 $WIMWV,348.19,R,15.18,N,A*19
20220704 050719+00:00 $IIMDA,29.9,I,1.011,B,11.8,C,,C,94.5,,,C,,T,,M,,N,,M*29
20220704 050719+00:00 $HCHDT,210.1,T*2B
20220704 050719+00:00 $GPRMC,050714,A,4938.3796,N,12629.3700,W,7.31,212,040722,12.3,E,A,V*6A
20220704 050719+00:00 $WIMWV,348.89,R,14.48,N,A*14
20220704 050721+00:00 $IIMDA,29.9,I,1.011,B,11.8,C,,C,94.5,,,C,,T,,M,,N,,M*29
20220704 050721+00:00 $HCHDT,211.5,T*2E
20220704 050721+00:00 $GPRMC,050716,A,4938.3700,N,12629.3700,W,7.31,212,040722,12.3,E,A,V*67
20220704 050721+00:00 $WIMWV,347.19,R,14.89,N,A*1F
20220704 050723+00:00 $IIMDA,29.9,I,1.011,B,11.8,C,,C,94.5,,,C,,T,,M,,N,,M*29
20220704 050723+00:00 $HCHDT,213,T*37
20220704 050723+00:00 $GPRMC,050718,A,4938.3700,N,12629.3796,W,7.41,212,040722,12.3,E,A,V*61
20220704 050723+00:00 $WIMWV,347.99,R,16.29,N,A*1F
20220704 050725+00:00 $IIMDA,29.9,I,1.011,B,11.8,C,,C,94.5,,,C,,T,,M,,N,,M*29
20220704 050725+00:00 $HCHDT,214.5,T*2B
20220704 050725+00:00 $GPRMC,050720,A,4938.3598,N,12629.3796,W,7.41,213,040722,12.3,E,A,V*68
20220704 050725+00:00 $WIMWV,348.89,R,16.58,N,A*17
20220704 050727+00:00 $IIMDA,29.9,I,1.011,B,11.8,C,,C,94.5,,,C,,T,,M,,N,,M*29
20220704 050727+00:00 $HCHDT,215.9,T*26
20220704 050727+00:00 $GPRMC,050722,A,4938.3598,N,12629.3796,W,7.41,213,040722,12.3,E,A,V*6A
20220704 050727+00:00 $WIMWV,346.79,R,16.19,N,A*13
20220704 050729+00:00 $IIMDA,29.9,I,1.011,B,11.8,C,,C,94.6,,,C,,T,,M,,N,,M*2A
20220704 050729+00:00 $HCHDT,217.2,T*2F
20220704 050729+00:00 $GPRMC,050724,A,4938.3598,N,12629.3898,W,7.5,214,040722,12.3,E,A,V*5A
20220704 050729+00:00 $WIMWV,346.19,R,17.09,N,A*15
20220704 050731+00:00 $IIMDA,29.9,I,1.011,B,11.8,C,,C,94.5,,,C,,T,,M,,N,,M*29
20220704 050731+00:00 $HCHDT,218.6,T*24
20220704 050731+00:00 $GPRMC,050726,A,4938.3496,N,12629.3898,W,7.6,215,040722,12.3,E,A,V*55
20220704 050731+00:00 $WIMWV,344.39,R,18.39,N,A*19
20220704 050733+00:00 $IIMDA,29.9,I,1.011,B,11.8,C,,C,94.5,,,C,,T,,M,,N,,M*29
20220704 050733+00:00 $HCHDT,219.8,T*2B
20220704 050733+00:00 $GPRMC,050728,A,4938.3496,N,12629.4000,W,7.6,217,040722,12.3,E,A,V*57
20220704 050733+00:00 $WIMWV,347.19,R,16.39,N,A*16
20220704 050735+00:00 $IIMDA,29.9,I,1.011,B,11.8,C,,C,94.5,,,C,,T,,M,,N,,M*29
20220704 050735+00:00 $HCHDT,220.8,T*21
20220704 050735+00:00 $GPRMC,050730,A,4938.3496,N,12629.4000,W,7.7,218,040722,12.3,E,A,V*50
20220704 050735+00:00 $WIMWV,342.49,R,17.28,N,A*17
20220704 050737+00:00 $IIMDA,29.9,I,1.011,B,11.8,C,,C,94.6,,,C,,T,,M,,N,,M*2A
20220704 050737+00:00 $HCHDT,221.8,T*20
20220704 050737+00:00 $GPRMC,050732,A,4938.3400,N,12629.4096,W,7.79,219,040722,12.3,E,A,V*6A
20220704 050737+00:00 $WIMWV,340.69,R,18.1,N,A*23
20220704 050739+00:00 $IIMDA,29.9,I,1.011,B,11.8,C,,C,94.5,,,C,,T,,M,,N,,M*29
20220704 050739+00:00 $HCHDT,223,T*34
20220704 050739+00:00 $GPRMC,050734,A,4938.3400,N,12629.4096,W,7.89,220,040722,12.3,E,A,V*69
