20220704 090001+00:00 $IIMDA,29.9,I,1.011,B,13,C,,C,89.1,,,C,,T,,M,,N,,M*35
20220704 090001+00:00 $HCHDT,121.4,T*2F
20220704 090001+00:00 $GPRMC,085956,A,4913.0800,N,12630.0096,W,9.19,125,040722,12.3,E,A,V*60
20220704 090001+00:00 $WIMWV,172.7,R,7.48,N,A*1B
20220704 090003+00:00 $IIMDA,29.9,I,1.011,B,13,C,,C,89.1,,,C,,T,,M,,N,,M*35
20220704 090003+00:00 $HCHDT,122.3,T*2B
20220704 090003+00:00 $GPRMC,085958,A,4913.0800,N,12630.0000,W,9.19,125,040722,12.3,E,A,V*61
20220704 090003+00:00 $WIMWV,169.6,R,5.79,N,A*10
20220704 090005+00:00 $IIMDA,29.9,I,1.011,B,13,C,,C,89.1,,,C,,T,,M,,N,,M*35
20220704 090005+00:00 $HCHDT,121.8,T*23
20220704 090005+00:00 $GPRMC,090000,A,4913.0698,N,12629.9898,W,9.19,125,040722,12.3,E,A,V*66
20220704 090005+00:00 $WIMWV,178.49,R,7.99,N,A*27
20220704 090007+00:00 $IIMDA,29.9,I,1.011,B,13,C,,C,89.1,,,C,,T,,M,,N,,M*35
20220704 090007+00:00 $HCHDT,120.7,T*2D
20220704 090007+00:00 $GPRMC,090002,A,4913.0698,N,12629.9898,W,9.19,125,040722,12.3,E,A,V*64
20220704 090007+00:00 $WIMWV,181.5,R,12.38,N,A*26
20220704 090009+00:00 $IIMDA,29.9,I,1.011,B,13,C,,C,89.1,,,C,,T,,M,,N,,M*35
20220704 090009+00:00 $HCHDT,120.8,T*22
20220704 090009+00:00 $GPRMC,090004,A,4913.0698,N,12629.9796,W,9.19,125,040722,12.3,E,A,V*63
20220704 090009+00:00 $WIMWV,185.19,R,10.28,N,A*1C
20220704 090011+00:00 $IIMDA,29.9,I,1.011,B,13,C,,C,89,,,C,,T,,M,,N,,M*2A
20220704 090011+00:00 $HCHDT,121.8,T*23
20220704 090011+00:00 $GPRMC,090006,A,4913.0596,N,12629.9700,W,9.19,124,040722,12.3,E,A,V*62
20220704 090011+00:00 $WIMWV,91.7,R,0.1,N,A*1D
20220704 090013+00:00 $IIMDA,29.9,I,1.011,B,13,C,,C,89.1,,,C,,T,,M,,N,,M*35
20220704 090013+00:00 $HCHDT,122,T*36
20220704 090013+00:00 $GPRMC,090008,A,4913.0596,N,12629.9700,W,9.19,125,040722,12.3,E,A,V*6D
20220704 090013+00:00 $WIMWV,192.39,R,4.49,N,A*2A
20220704 090015+00:00 $IIMDA,29.9,I,1.011,B,13,C,,C,89,,,C,,T,,M,,N,,M*2A
20220704 090015+00:00 $HCHDT,121.4,T*2F
20220704 090015+00:00 $GPRMC,090010,A,4913.0596,N,12629.9598,W,9.19,125,040722,12.3,E,A,V*67
20220704 090015+00:00 $WIMWV,171.89,R,10.19,N,A*1C
20220704 090017+00:00 $IIMDA,29.9,I,1.011,B,13,C,,C,89,,,C,,T,,M,,N,,M*2A
20220704 090017+00:00 $HCHDT,121.1,T*2A
20220704 090017+00:00 $GPRMC,090012,A,4913.0500,N,12629.9598,W,9.19,125,040722,12.3,E,A,V*6A
20220704 090017+00:00 $WIMWV,182.69,R,6.18,N,A*28
20220704 090019+00:00 $IIMDA,29.9,I,1.011,B,13,C,,C,89,,,C,,T,,M,,N,,M*2A
20220704 090019+00:00 $HCHDT,121.1,T*2A
20220704 090019+00:00 $GPRMC,090014,A,4913.0500,N,12629.9496,W,9.19,125,040722,12.3,E,A,V*63
20220704 090019+00:00 $WIMWV,182.4,R,5.99,N,A*19
20220704 090021+00:00 $IIMDA,29.9,I,1.011,B,13,C,,C,88.9,,,C,,T,,M,,N,,M*3C
20220704 090021+00:00 $HCHDT,121.3,T*28
20220704 090021+00:00 $GPRMC,090016,A,4913.0500,N,12629.9400,W,9.19,125,040722,12.3,E,A,V*6E
20220704 090021+00:00 $WIMWV,177.39,R,4.49,N,A*21
20220704 090023+00:00 $IIMDA,29.9,I,1.011,B,13,C,,C,88.9,,,C,,T,,M,,N,,M*3C
20220704 090023+00:00 $HCHDT,121.7,T*2C
20220704 090023+00:00 $GPRMC,090018,A,4913.0500,N,12629.9400,W,9.19,125,040722,12.3,E,A,V*60
20220704 090023+00:00 $WIMWV,178.69,R,6.3,N,A*17
20220704 090025+00:00 $IIMDA,29.9,I,1.011,B,13,C,,C,89,,,C,,T,,M,,N,,M*2A
20220704 090025+00:00 $HCHDT,121.4,T*2F
20220704 090025+00:00 $GPRMC,090020,A,4913.0398,N,12629.9298,W,9.19,125,040722,12.3,E,A,V*6B
20220704 090025+00:00 $WIMWV,178.89,R,5.6,N,A*1F
20220704 090027+00:00 $IIMDA,29.9,I,1.011,B,13,C,,C,89,,,C,,T,,M,,N,,M*2A
20220704 090027+00:00 $HCHDT,120.8,T*22
20220704 090027+00:00 $GPRMC,090022,A,4913.0398,N,12629.9196,W,9.19,124,040722,12.3,E,A,V*65
20220704 090027+00:00 $WIMWV,161.99,R,3.09,N,A*2F
20220704 090029+00:00 $IIMDA,29.9,I,1.011,B,13,C,,C,88.9,,,C,,T,,M,,N,,M*3C
20220704 090029+00:00 $HCHDT,121,T*35
20220704 090029+00:00 $GPRMC,090024,A,4913.0398,N,12629.9196,W,9.19,124,040722,12.3,E,A,V*63
20220704 090029+00:00 $WIMWV,171.89,R,6.59,N,A*2F
20220704 090031+00:00 $IIMDA,29.9,I,1.011,B,13,C,,C,89,,,C,,T,,M,,N,,M*2A
20220704 090031+00:00 $HCHDT,121.8,T*23
20220704 090031+00:00 $GPRMC,090026,A,4913.0296,N,12629.9100,W,9.19,125,040722,12.3,E,A,V*60
20220704 090031+00:00 $WIMWV,170.39,R,6.59,N,A*25
20220704 090033+00:00 $IIMDA,29.9,I,1.011,B,13,C,,C,89,,,C,,T,,M,,N,,M*2A
20220704 090033+00:00 $HCHDT,122.3,T*2B
20220704 090033+00:00 $GPRMC,090028,A,4913.0296,N,12629.8998,W,9.19,125,040722,12.3,E,A,V*66
20220704 090033+00:00 $WIMWV,180.6,R,2.68,N,A*10
20220704 090035+00:00 $IIMDA,29.9,I,1.011,B,13,C,,C,89,,,C,,T,,M,,N,,M*2A
20220704 090035+00:00 $HCHDT,121.8,T*23
20220704 090035+00:00 $GPRMC,090030,A,4913.0296,N,12629.8998,W,9.19,125,040722,12.3,E,A,V*6F
20220704 090035+00:00 $WIMWV,158.59,R,1.09,N,A*2B
20220704 090037+00:00 $IIMDA,29.9,I,1.011,B,13,C,,C,89,,,C,,T,,M,,N,,M*2A
20220704 090037+00:00 $HCHDT,121.4,T*2F
20220704 090037+00:00 $GPRMC,090032,A,4913.0296,N,12629.8896,W,9.19,125,040722,12.3,E,A,V*62
20220704 090037+00:00 $WIMWV,143.59,R,1.59,N,A*24
20220704 090039+00:00 $IIMDA,29.9,I,1.011,B,13,C,,C,89.1,,,C,,T,,M,,N,,M*35
20220704 090039+00:00 $HCHDT,121.7,T*2C
20220704 090039+00:00 $GPRMC,090034,A,4913.0200,N,12629.8800,W,9.19,125,040722,12.3,E,A,V*64
20220704 090039+00:00 $WIMWV,165.2,R,2.2,N,A*23
20220704 090041+00:00 $IIMDA,29.9,I,1.011,B,13,C,,C,89.1,,,C,,T,,M,,N,,M*35
20220704 090041+00:00 $HCHDT,122.2,T*2A
20220704 090041+00:00 $GPRMC,090036,A,4913.0200,N,12629.8800,W,9.19,125,040722,12.3,E,A,V*66
20220704 090041+00:00 $WIMWV,164.7,R,5,N,A*3C
20220704 090043+00:00 $IIMDA,29.9,I,1.011,B,13,C,,C,89.1,,,C,,T,,M,,N,,M*35
20220704 090043+00:00 $HCHDT,122.7,T*2F
20220704 090043+00:00 $GPRMC,090038,A,4913.0200,N,12629.8698,W,9.19,125,040722,12.3,E,A,V*67
20220704 090043+00:00 $WIMWV,174.4,R,8.18,N,A*14
20220704 090045+00:00 $IIMDA,29.9,I,1.011,B,13,C,,C,89.1,,,C,,T,,M,,N,,M*35
20220704 090045+00:00 $HCHDT,122.6,T*2E
20220704 090045+00:00 $GPRMC,090040,A,4913.0098,N,12629.8698,W,9.19,125,040722,12.3,E,A,V*6B
20220704 090045+00:00 $WIMWV,161.99,R,9.58,N,A*21
20220704 090047+00:00 $IIMDA,29.9,I,1.011,B,13,C,,C,89.1,,,C,,T,,M,,N,,M*35
20220704 090047+00:00 $HCHDT,122.1,T*29
20220704 090047+00:00 $GPRMC,090042,A,4913.0098,N,12629.8596,W,9.19,125,040722,12.3,E,A,V*64
20220704 090047+00:00 $WIMWV,161.79,R,10.59,N,A*16
20220704 090049+00:00 $IIMDA,29.9,I,1.011,B,13,C,,C,89,,,C,,T,,M,,N,,M*2A
20220704 090049+00:00 $HCHDT,121.9,T*22
20220704 090049+00:00 $GPRMC,090044,A,4913.0098,N,12629.8500,W,9.19,126,040722,12.3,E,A,V*6E
20220704 090049+00:00 $WIMWV,178.2,R,4.49,N,A*16
20220704 090051+00:00 $IIMDA,29.9,I,1.011,B,13,C,,C,89,,,C,,T,,M,,N,,M*2A
20220704 090051+00:00 $HCHDT,121.5,T*2E
20220704 090051+00:00 $GPRMC,090046,A,4912.9996,N,12629.8500,W,9.19,126,040722,12.3,E,A,V*63
20220704 090051+00:00 $WIMWV,175.19,R,7.89,N,A*2E
20220704 090053+00:00 $IIMDA,29.9,I,1.011,B,13,C,,C,88.9,,,C,,T,,M,,N,,M*3C
20220704 090053+00:00 $HCHDT,121.7,T*2C
20220704 090053+00:00 $GPRMC,090048,A,4912.9996,N,12629.8398,W,9.19,125,040722,12.3,E,A,V*69
20220704 090053+00:00 $WIMWV,167.8,R,8.59,N,A*1F
20220704 090055+00:00 $IIMDA,29.9,I,1.011,B,13,C,,C,88.9,,,C,,T,,M,,N,,M*3C
20220704 090055+00:00 $HCHDT,121.9,T*22
20220704 090055+00:00 $GPRMC,090050,A,4912.9996,N,12629.8296,W,9.19,125,040722,12.3,E,A,V*6F
20220704 090055+00:00 $WIMWV,91.7,R,0.29,N,A*27
20220704 090057+00:00 $IIMDA,29.9,I,1.011,B,13,C,,C,88.9,,,C,,T,,M,,N,,M*3C
20220704 090057+00:00 $HCHDT,122,T*36
20220704 090057+00:00 $GPRMC,090052,A,4912.9996,N,12629.8296,W,9.19,125,040722,12.3,E,A,V*6D
20220704 090057+00:00 $WIMWV,5.9,R,3.29,N,A*17
20220704 090059+00:00 $IIMDA,29.9,I,1.011,B,13.1,C,,C,88.9,,,C,,T,,M,,N,,M*23
20220704 090059+00:00 $HCHDT,121.3,T*28
20220704 090059+00:00 $GPRMC,090054,A,4912.9900,N,12629.8200,W,9.19,125,040722,12.3,E,A,V*6B
20220704 090059+00:00 $WIMWV,149.99,R,3.29,N,A*27
20220704 090101+00:00 $IIMDA,29.9,I,1.011,B,13.1,C,,C,88.9,,,C,,T,,M,,N,,M*23
20220704 090101+00:00 $HCHDT,120.5,T*2F
20220704 090101+00:00 $GPRMC,090056,A,4912.9900,N,12629.8098,W,9.19,125,040722,12.3,E,A,V*6A
20220704 090101+00:00 $WIMWV,163.89,R,8.69,N,A*21
20220704 090103+00:00 $IIMDA,29.9,I,1.011,B,13.1,C,,C,88.8,,,C,,T,,M,,N,,M*22
20220704 090103+00:00 $HCHDT,120.8,T*22
20220704 090103+00:00 $GPRMC,090058,A,4912.9900,N,12629.8098,W,9.29,125,040722,12.3,E,A,V*67
20220704 090103+00:00 $WIMWV,165.09,R,7.99,N,A*2F
20220704 090105+00:00 $IIMDA,29.9,I,1.011,B,13.1,C,,C,88.6,,,C,,T,,M,,N,,M*2C
20220704 090105+00:00 $HCHDT,121.7,T*2C
20220704 090105+00:00 $GPRMC,090100,A,4912.9798,N,12629.7996,W,9.19,125,040722,12.3,E,A,V*6F
20220704 090105+00:00 $WIMWV,178.2,R,14.6,N,A*1C
20220704 090107+00:00 $IIMDA,29.9,I,1.011,B,13.1,C,,C,88.7,,,C,,T,,M,,N,,M*2D
20220704 090107+00:00 $HCHDT,122.1,T*29
20220704 090107+00:00 $GPRMC,090102,A,4912.9798,N,12629.7996,W,9.19,125,040722,12.3,E,A,V*6D
20220704 090107+00:00 $WIMWV,176.59,R,14.29,N,A*11
20220704 090109+00:00 $IIMDA,29.9,I,1.011,B,13.1,C,,C,88.6,,,C,,T,,M,,N,,M*2C
20220704 090109+00:00 $HCHDT,121.8,T*23
20220704 090109+00:00 $GPRMC,090104,A,4912.9798,N,12629.7900,W,9.19,125,040722,12.3,E,A,V*64
20220704 090109+00:00 $WIMWV,162.5,R,7.19,N,A*1C
20220704 090111+00:00 $IIMDA,29.9,I,1.011,B,13.1,C,,C,88.6,,,C,,T,,M,,N,,M*2C
20220704 090111+00:00 $HCHDT,121.7,T*2C
20220704 090111+00:00 $GPRMC,090106,A,4912.9798,N,12629.7798,W,9.19,125,040722,12.3,E,A,V*69
20220704 090111+00:00 $WIMWV,175.39,R,10.38,N,A*10
20220704 090113+00:00 $IIMDA,29.9,I,1.011,B,13.1,C,,C,88.6,,,C,,T,,M,,N,,M*2C
20220704 090113+00:00 $HCHDT,121.7,T*2C
20220704 090113+00:00 $GPRMC,090108,A,4912.9696,N,12629.7798,W,9.19,125,040722,12.3,E,A,V*68
20220704 090113+00:00 $WIMWV,176.9,R,12.09,N,A*20
20220704 090115+00:00 $IIMDA,29.9,I,1.011,B,13.1,C,,C,88.6,,,C,,T,,M,,N,,M*2C
20220704 090115+00:00 $HCHDT,121.5,T*2E
20220704 090115+00:00 $GPRMC,090110,A,4912.9696,N,12629.7696,W,9.19,125,040722,12.3,E,A,V*6E
20220704 090115+00:00 $WIMWV,170.99,R,12.5,N,A*23
20220704 090117+00:00 $IIMDA,29.9,I,1.011,B,13.1,C,,C,88.5,,,C,,T,,M,,N,,M*2F
20220704 090117+00:00 $HCHDT,121.9,T*22
20220704 090117+00:00 $GPRMC,090112,A,4912.9696,N,12629.7600,W,9.19,125,040722,12.3,E,A,V*63
20220704 090117+00:00 $WIMWV,176.4,R,11.08,N,A*2F
20220704 090119+00:00 $IIMDA,29.9,I,1.011,B,13.1,C,,C,88.5,,,C,,T,,M,,N,,M*2F
20220704 090119+00:00 $HCHDT,122.1,T*29
20220704 090119+00:00 $GPRMC,090114,A,4912.9600,N,12629.7600,W,9.19,125,040722,12.3,E,A,V*6A
20220704 090119+00:00 $WIMWV,176.9,R,10.89,N,A*2A
20220704 090121+00:00 $IIMDA,29.9,I,1.011,B,13.1,C,,C,88.5,,,C,,T,,M,,N,,M*2F
20220704 090121+00:00 $HCHDT,121.7,T*2C
20220704 090121+00:00 $GPRMC,090116,A,4912.9600,N,12629.7498,W,9.19,125,040722,12.3,E,A,V*6B
20220704 090121+00:00 $WIMWV,169.4,R,9.99,N,A*10
20220704 090123+00:00 $IIMDA,29.9,I,1.011,B,13.1,C,,C,88.5,,,C,,T,,M,,N,,M*2F
20220704 090123+00:00 $HCHDT,121.5,T*2E
20220704 090123+00:00 $GPRMC,090118,A,4912.9600,N,12629.7396,W,9.19,125,040722,12.3,E,A,V*6C
20220704 090123+00:00 $WIMWV,157.9,R,9.19,N,A*18
20220704 090125+00:00 $IIMDA,29.9,I,1.011,B,13.1,C,,C,88.6,,,C,,T,,M,,N,,M*2C
20220704 090125+00:00 $HCHDT,121.5,T*2E
20220704 090125+00:00 $GPRMC,090120,A,4912.9498,N,12629.7396,W,9.19,125,040722,12.3,E,A,V*64
20220704 090125+00:00 $WIMWV,163.89,R,12.29,N,A*1E
20220704 090127+00:00 $IIMDA,29.9,I,1.011,B,13.1,C,,C,88.6,,,C,,T,,M,,N,,M*2C
20220704 090127+00:00 $HCHDT,121.7,T*2C
20220704 090127+00:00 $GPRMC,090122,A,4912.9498,N,12629.7300,W,9.19,125,040722,12.3,E,A,V*69
20220704 090127+00:00 $WIMWV,164.99,R,12.38,N,A*18
20220704 090129+00:00 $IIMDA,29.9,I,1.011,B,13.1,C,,C,88.6,,,C,,T,,M,,N,,M*2C
20220704 090129+00:00 $HCHDT,121.8,T*23
20220704 090129+00:00 $GPRMC,090124,A,4912.9498,N,12629.7300,W,9.19,125,040722,12.3,E,A,V*6F
20220704 090129+00:00 $WIMWV,167.4,R,12.98,N,A*25
20220704 090131+00:00 $IIMDA,29.9,I,1.011,B,13.1,C,,C,88.6,,,C,,T,,M,,N,,M*2C
20220704 090131+00:00 $HCHDT,121.9,T*22
20220704 090131+00:00 $GPRMC,090126,A,4912.9498,N,12629.7198,W,9.19,125,040722,12.3,E,A,V*6E
20220704 090131+00:00 $WIMWV,173.8,R,10.89,N,A*2E
20220704 090133+00:00 $IIMDA,29.9,I,1.011,B,13.1,C,,C,88.6,,,C,,T,,M,,N,,M*2C
20220704 090133+00:00 $HCHDT,121.6,T*2D
20220704 090133+00:00 $GPRMC,090128,A,4912.9396,N,12629.7096,W,9.19,125,040722,12.3,E,A,V*66
20220704 090133+00:00 $WIMWV,173.39,R,11.2,N,A*2E
20220704 090135+00:00 $IIMDA,29.9,I,1.011,B,13.1,C,,C,88.6,,,C,,T,,M,,N,,M*2C
20220704 090135+00:00 $HCHDT,121.4,T*2F
20220704 090135+00:00 $GPRMC,090130,A,4912.9396,N,12629.7096,W,9.19,125,040722,12.3,E,A,V*6F
20220704 090135+00:00 $WIMWV,165.49,R,7.7,N,A*1C
20220704 090137+00:00 $IIMDA,29.9,I,1.011,B,13.1,C,,C,88.6,,,C,,T,,M,,N,,M*2C
20220704 090137+00:00 $HCHDT,121.2,T*29
20220704 090137+00:00 $GPRMC,090132,A,4912.9396,N,12629.7000,W,9.19,125,040722,12.3,E,A,V*62
20220704 090137+00:00 $WIMWV,169.4,R,5.38,N,A*17
20220704 090139+00:00 $IIMDA,29.9,I,1.011,B,13.1,C,,C,88.6,,,C,,T,,M,,N,,M*2C
20220704 090139+00:00 $HCHDT,120.8,T*22
20220704 090139+00:00 $GPRMC,090134,A,4912.9300,N,12629.6898,W,9.19,125,040722,12.3,E,A,V*63
20220704 090139+00:00 $WIMWV,170.99,R,6.78,N,A*2C
20220704 090141+00:00 $IIMDA,29.9,I,1.011,B,13.1,C,,C,88.5,,,C,,T,,M,,N,,M*2F
20220704 090141+00:00 $HCHDT,120.6,T*2C
20220704 090141+00:00 $GPRMC,090136,A,4912.9300,N,12629.6898,W,9.19,125,040722,12.3,E,A,V*61
20220704 090141+00:00 $WIMWV,166.3,R,7.79,N,A*18
20220704 090143+00:00 $IIMDA,29.9,I,1.011,B,13.1,C,,C,88.5,,,C,,T,,M,,N,,M*2F
20220704 090143+00:00 $HCHDT,120.5,T*2F
20220704 090143+00:00 $GPRMC,090138,A,4912.9300,N,12629.6796,W,9.19,125,040722,12.3,E,A,V*6E
20220704 090143+00:00 $WIMWV,171.1,R,1.59,N,A*18
20220704 090145+00:00 $IIMDA,29.9,I,1.011,B,13.1,C,,C,88.5,,,C,,T,,M,,N,,M*2F
20220704 090145+00:00 $HCHDT,120.3,T*29
20220704 090145+00:00 $GPRMC,090140,A,4912.9300,N,12629.6700,W,9.19,124,040722,12.3,E,A,V*6F
20220704 090145+00:00 $WIMWV,182.8,R,10.19,N,A*29
20220704 090147+00:00 $IIMDA,29.9,I,1.011,B,13.1,C,,C,88.4,,,C,,T,,M,,N,,M*2E
20220704 090147+00:00 $HCHDT,120.6,T*2C
20220704 090147+00:00 $GPRMC,090142,A,4912.9198,N,12629.6700,W,9.19,124,040722,12.3,E,A,V*6E
20220704 090147+00:00 $WIMWV,182.19,R,9.99,N,A*29
20220704 090149+00:00 $IIMDA,29.9,I,1.011,B,13.1,C,,C,88.4,,,C,,T,,M,,N,,M*2E
20220704 090149+00:00 $HCHDT,120.5,T*2F
20220704 090149+00:00 $GPRMC,090144,A,4912.9198,N,12629.6598,W,9.19,124,040722,12.3,E,A,V*6B
20220704 090149+00:00 $WIMWV,170.59,R,8.59,N,A*2D
20220704 090151+00:00 $IIMDA,29.9,I,1.011,B,13.1,C,,C,88.5,,,C,,T,,M,,N,,M*2F
20220704 090151+00:00 $HCHDT,120.4,T*2E
20220704 090151+00:00 $GPRMC,090146,A,4912.9198,N,12629.6496,W,9.19,124,040722,12.3,E,A,V*66
20220704 090151+00:00 $WIMWV,172.99,R,8.98,N,A*2E
20220704 090153+00:00 $IIMDA,29.9,I,1.011,B,13.1,C,,C,88.5,,,C,,T,,M,,N,,M*2F
20220704 090153+00:00 $HCHDT,120.4,T*2E
20220704 090153+00:00 $GPRMC,090148,A,4912.9096,N,12629.6496,W,9.19,124,040722,12.3,E,A,V*67
20220704 090153+00:00 $WIMWV,172.39,R,6.4,N,A*1F
20220704 090155+00:00 $IIMDA,29.9,I,1.011,B,13.1,C,,C,88.5,,,C,,T,,M,,N,,M*2F
20220704 090155+00:00 $HCHDT,120.8,T*22
20220704 090155+00:00 $GPRMC,090150,A,4912.9096,N,12629.6400,W,9.19,124,040722,12.3,E,A,V*61
20220704 090155+00:00 $WIMWV,174,R,10.38,N,A*35
20220704 090157+00:00 $IIMDA,29.9,I,1.011,B,13.1,C,,C,88.4,,,C,,T,,M,,N,,M*2E
20220704 090157+00:00 $HCHDT,121,T*35
20220704 090157+00:00 $GPRMC,090152,A,4912.9096,N,12629.6400,W,9.19,124,040722,12.3,E,A,V*63
20220704 090157+00:00 $WIMWV,155.99,R,5.48,N,A*2B
20220704 090159+00:00 $IIMDA,29.9,I,1.011,B,13.1,C,,C,88.4,,,C,,T,,M,,N,,M*2E
20220704 090159+00:00 $HCHDT,121,T*35
20220704 090159+00:00 $GPRMC,090154,A,4912.9096,N,12629.6298,W,9.19,124,040722,12.3,E,A,V*62
20220704 090159+00:00 $WIMWV,160.39,R,5.6,N,A*1D
20220704 090201+00:00 $IIMDA,29.9,I,1.011,B,13.1,C,,C,88.5,,,C,,T,,M,,N,,M*2F
20220704 090201+00:00 $HCHDT,121.4,T*2F
20220704 090201+00:00 $GPRMC,090156,A,4912.9000,N,12629.6196,W,9.19,124,040722,12.3,E,A,V*62
20220704 090201+00:00 $WIMWV,178.4,R,5.89,N,A*1D
20220704 090203+00:00 $IIMDA,29.9,I,1.011,B,13.1,C,,C,88.5,,,C,,T,,M,,N,,M*2F
20220704 090203+00:00 $HCHDT,121.5,T*2E
20220704 090203+00:00 $GPRMC,090158,A,4912.9000,N,12629.6196,W,9.19,124,040722,12.3,E,A,V*6C
20220704 090203+00:00 $WIMWV,169.6,R,10.38,N,A*21
20220704 090205+00:00 $IIMDA,29.9,I,1.011,B,13.1,C,,C,88.5,,,C,,T,,M,,N,,M*2F
20220704 090205+00:00 $HCHDT,121.4,T*2F
20220704 090205+00:00 $GPRMC,090200,A,4912.9000,N,12629.6100,W,9.19,124,040722,12.3,E,A,V*6D
20220704 090205+00:00 $WIMWV,180.6,R,2.49,N,A*13
20220704 090207+00:00 $IIMDA,29.9,I,1.011,B,13.1,C,,C,88.5,,,C,,T,,M,,N,,M*2F
20220704 090207+00:00 $HCHDT,121.6,T*2D
20220704 090207+00:00 $GPRMC,090202,A,4912.8898,N,12629.5998,W,9.19,124,040722,12.3,E,A,V*6D
20220704 090207+00:00 $WIMWV,153.7,R,5.7,N,A*21
20220704 090209+00:00 $IIMDA,29.9,I,1.011,B,13.1,C,,C,88.5,,,C,,T,,M,,N,,M*2F
20220704 090209+00:00 $HCHDT,121.7,T*2C
20220704 090209+00:00 $GPRMC,090204,A,4912.8898,N,12629.5998,W,9.19,124,040722,12.3,E,A,V*6B
20220704 090209+00:00 $WIMWV,167.09,R,5.38,N,A*24
20220704 090211+00:00 $IIMDA,29.9,I,1.011,B,13.1,C,,C,88.6,,,C,,T,,M,,N,,M*2C
20220704 090211+00:00 $HCHDT,121,T*35
20220704 090211+00:00 $GPRMC,090206,A,4912.8898,N,12629.5896,W,9.19,125,040722,12.3,E,A,V*67
20220704 090211+00:00 $WIMWV,170.79,R,11.39,N,A*11
20220704 090213+00:00 $IIMDA,29.9,I,1.011,B,13.1,C,,C,88.6,,,C,,T,,M,,N,,M*2C
20220704 090213+00:00 $HCHDT,120.7,T*2D
20220704 090213+00:00 $GPRMC,090208,A,4912.8898,N,12629.5800,W,9.19,125,040722,12.3,E,A,V*66
20220704 090213+00:00 $WIMWV,170.7,R,11.39,N,A*28
20220704 090215+00:00 $IIMDA,29.9,I,1.011,B,13.1,C,,C,88.7,,,C,,T,,M,,N,,M*2D
20220704 090215+00:00 $HCHDT,120.8,T*22
20220704 090215+00:00 $GPRMC,090210,A,4912.8796,N,12629.5800,W,9.19,125,040722,12.3,E,A,V*6E
20220704 090215+00:00 $WIMWV,177.69,R,6.49,N,A*26
20220704 090217+00:00 $IIMDA,29.9,I,1.011,B,13.1,C,,C,88.7,,,C,,T,,M,,N,,M*2D
20220704 090217+00:00 $HCHDT,121.4,T*2F
20220704 090217+00:00 $GPRMC,090212,A,4912.8796,N,12629.5698,W,9.19,124,040722,12.3,E,A,V*62
20220704 090217+00:00 $WIMWV,170,R,8.49,N,A*0E
20220704 090219+00:00 $IIMDA,29.9,I,1.011,B,13.1,C,,C,88.8,,,C,,T,,M,,N,,M*22
20220704 090219+00:00 $HCHDT,121.8,T*23
20220704 090219+00:00 $GPRMC,090214,A,4912.8796,N,12629.5596,W,9.19,124,040722,12.3,E,A,V*69
20220704 090219+00:00 $WIMWV,164.7,R,9.49,N,A*13
20220704 090221+00:00 $IIMDA,29.9,I,1.011,B,13.1,C,,C,88.8,,,C,,T,,M,,N,,M*22
20220704 090221+00:00 $HCHDT,121.5,T*2E
20220704 090221+00:00 $GPRMC,090216,A,4912.8700,N,12629.5596,W,9.19,124,040722,12.3,E,A,V*64
20220704 090221+00:00 $WIMWV,168.59,R,9.39,N,A*23
20220704 090223+00:00 $IIMDA,29.9,I,1.011,B,13.1,C,,C,88.8,,,C,,T,,M,,N,,M*22
20220704 090223+00:00 $HCHDT,120.6,T*2C
20220704 090223+00:00 $GPRMC,090218,A,4912.8700,N,12629.5500,W,9.19,124,040722,12.3,E,A,V*65
20220704 090223+00:00 $WIMWV,174,R,12.79,N,A*32
20220704 090225+00:00 $IIMDA,29.9,I,1.011,B,13.1,C,,C,88.9,,,C,,T,,M,,N,,M*23
20220704 090225+00:00 $HCHDT,120.1,T*2B
20220704 090225+00:00 $GPRMC,090220,A,4912.8700,N,12629.5398,W,9.19,124,040722,12.3,E,A,V*69
20220704 090225+00:00 $WIMWV,170.39,R,12.5,N,A*29
20220704 090227+00:00 $IIMDA,29.9,I,1.011,B,13.1,C,,C,88.8,,,C,,T,,M,,N,,M*22
20220704 090227+00:00 $HCHDT,120.3,T*29
20220704 090227+00:00 $GPRMC,090222,A,4912.8700,N,12629.5398,W,9.19,124,040722,12.3,E,A,V*6B
20220704 090227+00:00 $WIMWV,165.89,R,9.49,N,A*24
20220704 090229+00:00 $IIMDA,29.9,I,1.011,B,13.1,C,,C,88.7,,,C,,T,,M,,N,,M*2D
20220704 090229+00:00 $HCHDT,121.2,T*29
20220704 090229+00:00 $GPRMC,090224,A,4912.8598,N,12629.5296,W,9.19,124,040722,12.3,E,A,V*61
20220704 090229+00:00 $WIMWV,163.4,R,5,N,A*38
20220704 090231+00:00 $IIMDA,29.9,I,1.011,B,13.1,C,,C,88.6,,,C,,T,,M,,N,,M*2C
20220704 090231+00:00 $HCHDT,121.9,T*22
20220704 090231+00:00 $GPRMC,090226,A,4912.8598,N,12629.5296,W,9.19,124,040722,12.3,E,A,V*63
20220704 090231+00:00 $WIMWV,171.8,R,11.78,N,A*23
20220704 090233+00:00 $IIMDA,29.9,I,1.011,B,13.1,C,,C,88.5,,,C,,T,,M,,N,,M*2F
20220704 090233+00:00 $HCHDT,121.4,T*2F
20220704 090233+00:00 $GPRMC,090228,A,4912.8598,N,12629.5200,W,9.1,124,040722,12.3,E,A,V*5B
20220704 090233+00:00 $WIMWV,176.09,R,10.69,N,A*14
20220704 090235+00:00 $IIMDA,29.9,I,1.011,B,13,C,,C,88.4,,,C,,T,,M,,N,,M*31
20220704 090235+00:00 $HCHDT,120.8,T*22
20220704 090235+00:00 $GPRMC,090230,A,4912.8496,N,12629.5098,W,9.19,124,040722,12.3,E,A,V*67
20220704 090235+00:00 $WIMWV,178.99,R,8.28,N,A*2F
20220704 090237+00:00 $IIMDA,29.9,I,1.011,B,13,C,,C,88.4,,,C,,T,,M,,N,,M*31
20220704 090237+00:00 $HCHDT,120.6,T*2C
20220704 090237+00:00 $GPRMC,090232,A,4912.8496,N,12629.5098,W,9.19,124,040722,12.3,E,A,V*65
20220704 090237+00:00 $WIMWV,166.7,R,5.19,N,A*18
20220704 090239+00:00 $IIMDA,29.9,I,1.011,B,13,C,,C,88.4,,,C,,T,,M,,N,,M*31
20220704 090239+00:00 $HCHDT,121,T*35
20220704 090239+00:00 $GPRMC,090234,A,4912.8496,N,12629.4996,W,9.19,124,040722,12.3,E,A,V*65
20220704 090239+00:00 $WIMWV,173.8,R,6.59,N,A*14
20220704 090241+00:00 $IIMDA,29.9,I,1.011,B,13,C,,C,88.4,,,C,,T,,M,,N,,M*31
20220704 090241+00:00 $HCHDT,121.5,T*2E
20220704 090241+00:00 $GPRMC,090236,A,4912.8496,N,12629.4900,W,9.19,124,040722,12.3,E,A,V*68
20220704 090241+00:00 $WIMWV,177.69,R,8.49,N,A*28
20220704 090243+00:00 $IIMDA,29.9,I,1.011,B,13,C,,C,88.4,,,C,,T,,M,,N,,M*31
20220704 090243+00:00 $HCHDT,121.4,T*2F
20220704 090243+00:00 $GPRMC,090238,A,4912.8400,N,12629.4900,W,9.19,124,040722,12.3,E,A,V*69
20220704 090243+00:00 $WIMWV,164.5,R,7.48,N,A*1E
20220704 090245+00:00 $IIMDA,29.9,I,1.011,B,13,C,,C,88.5,,,C,,T,,M,,N,,M*30
20220704 090245+00:00 $HCHDT,120.6,T*2C
20220704 090245+00:00 $GPRMC,090240,A,4912.8400,N,12629.4798,W,9.19,124,040722,12.3,E,A,V*69
20220704 090245+00:00 $WIMWV,177.5,R,8.28,N,A*15
20220704 090247+00:00 $IIMDA,29.9,I,1.011,B,13,C,,C,88.5,,,C,,T,,M,,N,,M*30
20220704 090247+00:00 $HCHDT,119.7,T*27
20220704 090247+00:00 $GPRMC,090242,A,4912.8400,N,12629.4696,W,9.19,124,040722,12.3,E,A,V*64
20220704 090247+00:00 $WIMWV,183.29,R,8.88,N,A*2A
20220704 090249+00:00 $IIMDA,29.9,I,1.011,B,13,C,,C,88.4,,,C,,T,,M,,N,,M*31
20220704 090249+00:00 $HCHDT,119.2,T*22
20220704 090249+00:00 $GPRMC,090244,A,4912.8298,N,12629.4696,W,9.19,124,040722,12.3,E,A,V*65
20220704 090249+00:00 $WIMWV,183.39,R,6.88,N,A*25
20220704 090251+00:00 $IIMDA,29.9,I,1.011,B,13,C,,C,88.5,,,C,,T,,M,,N,,M*30
20220704 090251+00:00 $HCHDT,119.7,T*27
20220704 090251+00:00 $GPRMC,090246,A,4912.8298,N,12629.4600,W,9.19,123,040722,12.3,E,A,V*6F
20220704 090251+00:00 $WIMWV,161.99,R,5.38,N,A*2B
20220704 090253+00:00 $IIMDA,29.9,I,1.011,B,13,C,,C,88.5,,,C,,T,,M,,N,,M*30
20220704 090253+00:00 $HCHDT,120.7,T*2D
20220704 090253+00:00 $GPRMC,090248,A,4912.8298,N,12629.4498,W,9.19,124,040722,12.3,E,A,V*65
20220704 090253+00:00 $WIMWV,170.79,R,7.39,N,A*26
20220704 090255+00:00 $IIMDA,29.9,I,1.011,B,13,C,,C,88.5,,,C,,T,,M,,N,,M*30
20220704 090255+00:00 $HCHDT,121.2,T*29
20220704 090255+00:00 $GPRMC,090250,A,4912.8298,N,12629.4498,W,9.19,123,040722,12.3,E,A,V*6B
20220704 090255+00:00 $WIMWV,9.5,R,4.49,N,A*16
20220704 090257+00:00 $IIMDA,29.9,I,1.011,B,13,C,,C,88.4,,,C,,T,,M,,N,,M*31
20220704 090257+00:00 $HCHDT,120.8,T*22
20220704 090257+00:00 $GPRMC,090252,A,4912.8196,N,12629.4396,W,9.19,123,040722,12.3,E,A,V*6D
20220704 090257+00:00 $WIMWV,11.5,R,5.29,N,A*28
20220704 090259+00:00 $IIMDA,29.9,I,1.011,B,13,C,,C,88.4,,,C,,T,,M,,N,,M*31
20220704 090259+00:00 $HCHDT,120.3,T*29
20220704 090259+00:00 $GPRMC,090254,A,4912.8196,N,12629.4396,W,9.19,123,040722,12.3,E,A,V*6B
20220704 090259+00:00 $WIMWV,171.1,R,6.4,N,A*27
20220704 090301+00:00 $IIMDA,29.9,I,1.011,B,13,C,,C,88.4,,,C,,T,,M,,N,,M*31
20220704 090301+00:00 $HCHDT,120.2,T*28
20220704 090301+00:00 $GPRMC,090256,A,4912.8196,N,12629.4300,W,9.19,123,040722,12.3,E,A,V*66
20220704 090301+00:00 $WIMWV,176.99,R,3.79,N,A*2E
20220704 090303+00:00 $IIMDA,29.9,I,1.011,B,13,C,,C,88.4,,,C,,T,,M,,N,,M*31
20220704 090303+00:00 $HCHDT,120.8,T*22
20220704 090303+00:00 $GPRMC,090258,A,4912.8100,N,12629.4198,W,9.19,123,040722,12.3,E,A,V*64
20220704 090303+00:00 $WIMWV,176.69,R,3.69,N,A*20
20220704 090305+00:00 $IIMDA,29.9,I,1.011,B,13,C,,C,88.4,,,C,,T,,M,,N,,M*31
20220704 090305+00:00 $HCHDT,121.4,T*2F
20220704 090305+00:00 $GPRMC,090300,A,4912.8100,N,12629.4198,W,9.19,123,040722,12.3,E,A,V*68
20220704 090305+00:00 $WIMWV,174.29,R,4.08,N,A*26
20220704 090307+00:00 $IIMDA,29.9,I,1.011,B,13,C,,C,88.4,,,C,,T,,M,,N,,M*31
20220704 090307+00:00 $HCHDT,121.5,T*2E
20220704 090307+00:00 $GPRMC,090302,A,4912.8100,N,12629.4096,W,9.19,124,040722,12.3,E,A,V*62
20220704 090307+00:00 $WIMWV,174.4,R,7,N,A*3C
20220704 090309+00:00 $IIMDA,29.9,I,1.011,B,13,C,,C,88.4,,,C,,T,,M,,N,,M*31
20220704 090309+00:00 $HCHDT,121.2,T*29
20220704 090309+00:00 $GPRMC,090304,A,4912.8100,N,12629.4000,W,9.19,124,040722,12.3,E,A,V*6B
20220704 090309+00:00 $WIMWV,167.6,R,5.6,N,A*26
20220704 090311+00:00 $IIMDA,29.9,I,1.011,B,13,C,,C,88.4,,,C,,T,,M,,N,,M*31
20220704 090311+00:00 $HCHDT,120.7,T*2D
20220704 090311+00:00 $GPRMC,090306,A,4912.7998,N,12629.4000,W,9.19,124,040722,12.3,E,A,V*6F
20220704 090311+00:00 $WIMWV,180.6,R,5.29,N,A*12
20220704 090313+00:00 $IIMDA,29.9,I,1.011,B,13,C,,C,88.5,,,C,,T,,M,,N,,M*30
20220704 090313+00:00 $HCHDT,120.5,T*2F
20220704 090313+00:00 $GPRMC,090308,A,4912.7998,N,12629.3898,W,9.19,124,040722,12.3,E,A,V*6F
20220704 090313+00:00 $WIMWV,188.59,R,4.39,N,A*20
20220704 090315+00:00 $IIMDA,29.9,I,1.011,B,13,C,,C,88.5,,,C,,T,,M,,N,,M*30
20220704 090315+00:00 $HCHDT,121,T*35
20220704 090315+00:00 $GPRMC,090310,A,4912.7998,N,12629.3796,W,9.19,123,040722,12.3,E,A,V*60
20220704 090315+00:00 $WIMWV,199.19,R,5.19,N,A*27
20220704 090317+00:00 $IIMDA,29.9,I,1.011,B,13,C,,C,88.6,,,C,,T,,M,,N,,M*33
20220704 090317+00:00 $HCHDT,121.2,T*29
20220704 090317+00:00 $GPRMC,090312,A,4912.7896,N,12629.3796,W,9.19,123,040722,12.3,E,A,V*6D
20220704 090317+00:00 $WIMWV,177.39,R,5.48,N,A*21
20220704 090319+00:00 $IIMDA,29.9,I,1.011,B,13,C,,C,88.6,,,C,,T,,M,,N,,M*33
20220704 090319+00:00 $HCHDT,121.1,T*2A
20220704 090319+00:00 $GPRMC,090314,A,4912.7896,N,12629.3700,W,9.19,124,040722,12.3,E,A,V*63
20220704 090319+00:00 $WIMWV,159,R,6.18,N,A*0F
20220704 090321+00:00 $IIMDA,29.9,I,1.011,B,13,C,,C,88.7,,,C,,T,,M,,N,,M*32
20220704 090321+00:00 $HCHDT,120.5,T*2F
20220704 090321+00:00 $GPRMC,090316,A,4912.7896,N,12629.3598,W,9.19,124,040722,12.3,E,A,V*62
20220704 090321+00:00 $WIMWV,178.6,R,17.28,N,A*27
20220704 090323+00:00 $IIMDA,29.9,I,1.011,B,13,C,,C,88.6,,,C,,T,,M,,N,,M*33
20220704 090323+00:00 $HCHDT,120.1,T*2B
20220704 090323+00:00 $GPRMC,090318,A,4912.7896,N,12629.3598,W,9.19,124,040722,12.3,E,A,V*6C
20220704 090323+00:00 $WIMWV,183.19,R,4.39,N,A*2F
20220704 090325+00:00 $IIMDA,29.9,I,1.011,B,13,C,,C,88.7,,,C,,T,,M,,N,,M*32
20220704 090325+00:00 $HCHDT,120.3,T*29
20220704 090325+00:00 $GPRMC,090320,A,4912.7800,N,12629.3496,W,9.19,124,040722,12.3,E,A,V*67
20220704 090325+00:00 $WIMWV,172.7,R,5,N,A*3B
20220704 090327+00:00 $IIMDA,29.9,I,1.011,B,13,C,,C,88.7,,,C,,T,,M,,N,,M*32
20220704 090327+00:00 $HCHDT,120.8,T*22
20220704 090327+00:00 $GPRMC,090322,A,4912.7800,N,12629.3400,W,9.19,124,040722,12.3,E,A,V*6A
20220704 090327+00:00 $WIMWV,176.09,R,5.38,N,A*24
20220704 090329+00:00 $IIMDA,29.9,I,1.011,B,13,C,,C,88.7,,,C,,T,,M,,N,,M*32
20220704 090329+00:00 $HCHDT,121.1,T*2A
20220704 090329+00:00 $GPRMC,090324,A,4912.7800,N,12629.3400,W,9.19,123,040722,12.3,E,A,V*6B
20220704 090329+00:00 $WIMWV,178.4,R,3.69,N,A*15
20220704 090331+00:00 $IIMDA,29.9,I,1.011,B,13,C,,C,88.7,,,C,,T,,M,,N,,M*32
20220704 090331+00:00 $HCHDT,121.1,T*2A
20220704 090331+00:00 $GPRMC,090326,A,4912.7698,N,12629.3298,W,9.19,123,040722,12.3,E,A,V*61
20220704 090331+00:00 $WIMWV,176.09,R,3.29,N,A*22
20220704 090333+00:00 $IIMDA,29.9,I,1.011,B,13,C,,C,88.8,,,C,,T,,M,,N,,M*3D
20220704 090333+00:00 $HCHDT,120.7,T*2D
20220704 090333+00:00 $GPRMC,090328,A,4912.7698,N,12629.3196,W,9.19,124,040722,12.3,E,A,V*65
20220704 090333+00:00 $WIMWV,169.1,R,3.5,N,A*2A
20220704 090335+00:00 $IIMDA,29.9,I,1.011,B,13,C,,C,88.8,,,C,,T,,M,,N,,M*3D
20220704 090335+00:00 $HCHDT,120.6,T*2C
20220704 090335+00:00 $GPRMC,090330,A,4912.7698,N,12629.3196,W,9.19,124,040722,12.3,E,A,V*6C
20220704 090335+00:00 $WIMWV,175.59,R,9.39,N,A*2F
20220704 090337+00:00 $IIMDA,29.9,I,1.011,B,13,C,,C,88.8,,,C,,T,,M,,N,,M*3D
20220704 090337+00:00 $HCHDT,121.4,T*2F
20220704 090337+00:00 $GPRMC,090332,A,4912.7698,N,12629.3100,W,9.19,124,040722,12.3,E,A,V*61
20220704 090337+00:00 $WIMWV,179.79,R,10.79,N,A*1D
20220704 090339+00:00 $IIMDA,29.9,I,1.011,B,13,C,,C,88.8,,,C,,T,,M,,N,,M*3D
20220704 090339+00:00 $HCHDT,122.6,T*2E
20220704 090339+00:00 $GPRMC,090334,A,4912.7596,N,12629.3100,W,9.19,124,040722,12.3,E,A,V*6A
20220704 090339+00:00 $WIMWV,179.5,R,10.98,N,A*29
20220704 090341+00:00 $IIMDA,29.9,I,1.011,B,13,C,,C,88.7,,,C,,T,,M,,N,,M*32
20220704 090341+00:00 $HCHDT,122.3,T*2B
20220704 090341+00:00 $GPRMC,090336,A,4912.7596,N,12629.2998,W,9.19,124,040722,12.3,E,A,V*60
20220704 090341+00:00 $WIMWV,165.49,R,3.38,N,A*24
20220704 090343+00:00 $IIMDA,29.9,I,1.011,B,13,C,,C,88.7,,,C,,T,,M,,N,,M*32
20220704 090343+00:00 $HCHDT,121.2,T*29
20220704 090343+00:00 $GPRMC,090338,A,4912.7596,N,12629.2896,W,9.19,124,040722,12.3,E,A,V*61
20220704 090343+00:00 $WIMWV,157,R,5.48,N,A*07
20220704 090345+00:00 $IIMDA,29.9,I,1.011,B,13,C,,C,88.6,,,C,,T,,M,,N,,M*33
20220704 090345+00:00 $HCHDT,120.6,T*2C
20220704 090345+00:00 $GPRMC,090340,A,4912.7500,N,12629.2896,W,9.19,124,040722,12.3,E,A,V*61
20220704 090345+00:00 $WIMWV,164.39,R,6.88,N,A*2C
20220704 090347+00:00 $IIMDA,29.9,I,1.011,B,13,C,,C,88.5,,,C,,T,,M,,N,,M*30
20220704 090347+00:00 $HCHDT,120.8,T*22
20220704 090347+00:00 $GPRMC,090342,A,4912.7500,N,12629.2800,W,9.19,124,040722,12.3,E,A,V*6C
20220704 090347+00:00 $WIMWV,165.99,R,7.19,N,A*2E
20220704 090349+00:00 $IIMDA,29.9,I,1.011,B,13,C,,C,88.5,,,C,,T,,M,,N,,M*30
20220704 090349+00:00 $HCHDT,121.6,T*2D
20220704 090349+00:00 $GPRMC,090344,A,4912.7500,N,12629.2698,W,9.19,124,040722,12.3,E,A,V*65
20220704 090349+00:00 $WIMWV,169.4,R,9.29,N,A*1B
20220704 090351+00:00 $IIMDA,29.9,I,1.011,B,13,C,,C,88.5,,,C,,T,,M,,N,,M*30
20220704 090351+00:00 $HCHDT,122,T*36
20220704 090351+00:00 $GPRMC,090346,A,4912.7500,N,12629.2698,W,9.19,125,040722,12.3,E,A,V*66
20220704 090351+00:00 $WIMWV,160.1,R,5.79,N,A*1E
20220704 090353+00:00 $IIMDA,29.9,I,1.011,B,13,C,,C,88.4,,,C,,T,,M,,N,,M*31
20220704 090353+00:00 $HCHDT,121.4,T*2F
20220704 090353+00:00 $GPRMC,090348,A,4912.7398,N,12629.2596,W,9.19,125,040722,12.3,E,A,V*62
20220704 090353+00:00 $WIMWV,176.29,R,5.38,N,A*26
20220704 090355+00:00 $IIMDA,29.9,I,1.011,B,13,C,,C,88.4,,,C,,T,,M,,N,,M*31
20220704 090355+00:00 $HCHDT,120.9,T*23
20220704 090355+00:00 $GPRMC,090350,A,4912.7398,N,12629.2500,W,9.19,125,040722,12.3,E,A,V*64
20220704 090355+00:00 $WIMWV,201.89,R,4.2,N,A*17
20220704 090357+00:00 $IIMDA,29.9,I,1.011,B,13,C,,C,88.4,,,C,,T,,M,,N,,M*31
20220704 090357+00:00 $HCHDT,120.6,T*2C
20220704 090357+00:00 $GPRMC,090352,A,4912.7398,N,12629.2500,W,9.19,124,040722,12.3,E,A,V*67
20220704 090357+00:00 $WIMWV,183.59,R,3.89,N,A*27
20220704 090359+00:00 $IIMDA,29.9,I,1.011,B,13,C,,C,88.4,,,C,,T,,M,,N,,M*31
20220704 090359+00:00 $HCHDT,120.5,T*2F
20220704 090359+00:00 $GPRMC,090354,A,4912.7296,N,12629.2398,W,9.29,124,040722,12.3,E,A,V*6A
20220704 090359+00:00 $WIMWV,182.69,R,7.99,N,A*20
20220704 090401+00:00 $IIMDA,29.9,I,1.011,B,13,C,,C,88.4,,,C,,T,,M,,N,,M*31
20220704 090401+00:00 $HCHDT,120.8,T*22
20220704 090401+00:00 $GPRMC,090356,A,4912.7296,N,12629.2296,W,9.29,124,040722,12.3,E,A,V*67
20220704 090401+00:00 $WIMWV,179.1,R,8.18,N,A*1C
20220704 090403+00:00 $IIMDA,29.9,I,1.011,B,13,C,,C,88.4,,,C,,T,,M,,N,,M*31
20220704 090403+00:00 $HCHDT,121.1,T*2A
20220704 090403+00:00 $GPRMC,090358,A,4912.7296,N,12629.2296,W,9.29,124,040722,12.3,E,A,V*69
20220704 090403+00:00 $WIMWV,171.1,R,6.4,N,A*27
20220704 090405+00:00 $IIMDA,29.9,I,1.011,B,13,C,,C,88.5,,,C,,T,,M,,N,,M*30
20220704 090405+00:00 $HCHDT,120.5,T*2F
20220704 090405+00:00 $GPRMC,090400,A,4912.7296,N,12629.2200,W,9.29,124,040722,12.3,E,A,V*6C
20220704 090405+00:00 $WIMWV,161.49,R,6.59,N,A*22
20220704 090407+00:00 $IIMDA,29.9,I,1.011,B,13,C,,C,88.6,,,C,,T,,M,,N,,M*33
20220704 090407+00:00 $HCHDT,120,T*34
20220704 090407+00:00 $GPRMC,090402,A,4912.7200,N,12629.2098,W,9.19,124,040722,12.3,E,A,V*61
20220704 090407+00:00 $WIMWV,154.6,R,6.49,N,A*1E
20220704 090409+00:00 $IIMDA,29.9,I,1.011,B,13,C,,C,88.6,,,C,,T,,M,,N,,M*33
20220704 090409+00:00 $HCHDT,120,T*34
20220704 090409+00:00 $GPRMC,090404,A,4912.7200,N,12629.2098,W,9.29,124,040722,12.3,E,A,V*64
20220704 090409+00:00 $WIMWV,156.1,R,6.3,N,A*25
20220704 090411+00:00 $IIMDA,29.9,I,1.011,B,13,C,,C,88.7,,,C,,T,,M,,N,,M*32
20220704 090411+00:00 $HCHDT,120.5,T*2F
20220704 090411+00:00 $GPRMC,090406,A,4912.7200,N,12629.1996,W,9.29,124,040722,12.3,E,A,V*62
20220704 090411+00:00 $WIMWV,165.99,R,9.49,N,A*25
20220704 090413+00:00 $IIMDA,29.9,I,1.011,B,13,C,,C,88.8,,,C,,T,,M,,N,,M*3D
20220704 090413+00:00 $HCHDT,121.1,T*2A
20220704 090413+00:00 $GPRMC,090408,A,4912.7098,N,12629.1900,W,9.29,124,040722,12.3,E,A,V*60
20220704 090413+00:00 $WIMWV,168,R,10.19,N,A*3B
20220704 090415+00:00 $IIMDA,29.9,I,1.011,B,13,C,,C,88.8,,,C,,T,,M,,N,,M*3D
20220704 090415+00:00 $HCHDT,120.9,T*23
20220704 090415+00:00 $GPRMC,090410,A,4912.7098,N,12629.1900,W,9.29,124,040722,12.3,E,A,V*69
20220704 090415+00:00 $WIMWV,167.09,R,5.99,N,A*2F
20220704 090417+00:00 $IIMDA,29.9,I,1.011,B,13,C,,C,88.9,,,C,,T,,M,,N,,M*3C
20220704 090417+00:00 $HCHDT,120.4,T*2E
20220704 090417+00:00 $GPRMC,090412,A,4912.7098,N,12629.1798,W,9.29,124,040722,12.3,E,A,V*64
20220704 090417+00:00 $WIMWV,164.7,R,6.69,N,A*1E
20220704 090419+00:00 $IIMDA,29.9,I,1.011,B,13,C,,C,88.9,,,C,,T,,M,,N,,M*3C
20220704 090419+00:00 $HCHDT,120.3,T*29
20220704 090419+00:00 $GPRMC,090414,A,4912.7098,N,12629.1798,W,9.19,124,040722,12.3,E,A,V*61
20220704 090419+00:00 $WIMWV,173.1,R,8.59,N,A*13
20220704 090421+00:00 $IIMDA,29.9,I,1.011,B,13,C,,C,88.9,,,C,,T,,M,,N,,M*3C
20220704 090421+00:00 $HCHDT,120.6,T*2C
20220704 090421+00:00 $GPRMC,090416,A,4912.6996,N,12629.1696,W,9.19,124,040722,12.3,E,A,V*6A
20220704 090421+00:00 $WIMWV,180.6,R,11.2,N,A*1E
20220704 090423+00:00 $IIMDA,29.9,I,1.011,B,13,C,,C,88.8,,,C,,T,,M,,N,,M*3D
20220704 090423+00:00 $HCHDT,121.2,T*29
20220704 090423+00:00 $GPRMC,090418,A,4912.6996,N,12629.1600,W,9.19,124,040722,12.3,E,A,V*6B
20220704 090423+00:00 $WIMWV,178.29,R,11.08,N,A*1E
20220704 090425+00:00 $IIMDA,29.9,I,1.011,B,13,C,,C,88.8,,,C,,T,,M,,N,,M*3D
20220704 090425+00:00 $HCHDT,121.5,T*2E
20220704 090425+00:00 $GPRMC,090420,A,4912.6996,N,12629.1600,W,9.29,124,040722,12.3,E,A,V*63
20220704 090425+00:00 $WIMWV,180.6,R,3.89,N,A*1E
20220704 090427+00:00 $IIMDA,29.9,I,1.011,B,13,C,,C,88.8,,,C,,T,,M,,N,,M*3D
20220704 090427+00:00 $HCHDT,121.2,T*29
20220704 090427+00:00 $GPRMC,090422,A,4912.6900,N,12629.1498,W,9.29,124,040722,12.3,E,A,V*6D
20220704 090427+00:00 $WIMWV,200.09,R,3.98,N,A*2A
20220704 090429+00:00 $IIMDA,29.9,I,1.011,B,13,C,,C,88.8,,,C,,T,,M,,N,,M*3D
20220704 090429+00:00 $HCHDT,121.2,T*29
20220704 090429+00:00 $GPRMC,090424,A,4912.6900,N,12629.1396,W,9.29,124,040722,12.3,E,A,V*62
20220704 090429+00:00 $WIMWV,167.89,R,4.2,N,A*14
20220704 090431+00:00 $IIMDA,29.9,I,1.011,B,13,C,,C,88.9,,,C,,T,,M,,N,,M*3C
20220704 090431+00:00 $HCHDT,121.3,T*28
20220704 090431+00:00 $GPRMC,090426,A,4912.6900,N,12629.1396,W,9.19,124,040722,12.3,E,A,V*63
20220704 090431+00:00 $WIMWV,162.89,R,7.29,N,A*2B
20220704 090433+00:00 $IIMDA,29.9,I,1.011,B,13,C,,C,88.9,,,C,,T,,M,,N,,M*3C
20220704 090433+00:00 $HCHDT,121.5,T*2E
20220704 090433+00:00 $GPRMC,090428,A,4912.6798,N,12629.1300,W,9.19,125,040722,12.3,E,A,V*6C
20220704 090433+00:00 $WIMWV,178.4,R,8.49,N,A*1C
20220704 090435+00:00 $IIMDA,29.9,I,1.011,B,13,C,,C,89,,,C,,T,,M,,N,,M*2A
20220704 090435+00:00 $HCHDT,122,T*36
20220704 090435+00:00 $GPRMC,090430,A,4912.6798,N,12629.1198,W,9.19,125,040722,12.3,E,A,V*66
20220704 090435+00:00 $WIMWV,177.5,R,8.18,N,A*16
20220704 090437+00:00 $IIMDA,29.9,I,1.011,B,13,C,,C,89,,,C,,T,,M,,N,,M*2A
20220704 090437+00:00 $HCHDT,122,T*36
20220704 090437+00:00 $GPRMC,090432,A,4912.6798,N,12629.1198,W,9.19,125,040722,12.3,E,A,V*64
20220704 090437+00:00 $WIMWV,181.99,R,6.78,N,A*22
20220704 090439+00:00 $IIMDA,29.9,I,1.011,B,13,C,,C,89.1,,,C,,T,,M,,N,,M*35
20220704 090439+00:00 $HCHDT,121.4,T*2F
20220704 090439+00:00 $GPRMC,090434,A,4912.6798,N,12629.1096,W,9.29,125,040722,12.3,E,A,V*6E
20220704 090439+00:00 $WIMWV,184.19,R,6.59,N,A*2C
20220704 090441+00:00 $IIMDA,29.9,I,1.011,B,13,C,,C,89,,,C,,T,,M,,N,,M*2A
20220704 090441+00:00 $HCHDT,121,T*35
20220704 090441+00:00 $GPRMC,090436,A,4912.6696,N,12629.1000,W,9.29,125,040722,12.3,E,A,V*6C
20220704 090441+00:00 $WIMWV,182.09,R,8.79,N,A*27
20220704 090443+00:00 $IIMDA,29.9,I,1.011,B,13,C,,C,89,,,C,,T,,M,,N,,M*2A
20220704 090443+00:00 $HCHDT,120.9,T*23
20220704 090443+00:00 $GPRMC,090438,A,4912.6696,N,12629.1000,W,9.29,125,040722,12.3,E,A,V*62
20220704 090443+00:00 $WIMWV,179.5,R,10.98,N,A*29
20220704 090445+00:00 $IIMDA,29.9,I,1.011,B,13,C,,C,89.1,,,C,,T,,M,,N,,M*35
20220704 090445+00:00 $HCHDT,120.9,T*23
20220704 090445+00:00 $GPRMC,090440,A,4912.6696,N,12629.0898,W,9.29,125,040722,12.3,E,A,V*65
20220704 090445+00:00 $WIMWV,176.09,R,6.59,N,A*20
20220704 090447+00:00 $IIMDA,29.9,I,1.011,B,13,C,,C,89.1,,,C,,T,,M,,N,,M*35
20220704 090447+00:00 $HCHDT,121.3,T*28
20220704 090447+00:00 $GPRMC,090442,A,4912.6600,N,12629.0898,W,9.29,125,040722,12.3,E,A,V*68
20220704 090447+00:00 $WIMWV,175.89,R,9.49,N,A*25
20220704 090449+00:00 $IIMDA,29.9,I,1.011,B,13,C,,C,89,,,C,,T,,M,,N,,M*2A
20220704 090449+00:00 $HCHDT,121.4,T*2F
20220704 090449+00:00 $GPRMC,090444,A,4912.6600,N,12629.0796,W,9.29,125,040722,12.3,E,A,V*6F
20220704 090449+00:00 $WIMWV,173.89,R,3.6,N,A*12
20220704 090451+00:00 $IIMDA,29.9,I,1.011,B,13,C,,C,88.9,,,C,,T,,M,,N,,M*3C
20220704 090451+00:00 $HCHDT,121.2,T*29
20220704 090451+00:00 $GPRMC,090446,A,4912.6600,N,12629.0700,W,9.19,125,040722,12.3,E,A,V*61
20220704 090451+00:00 $WIMWV,180.6,R,5.7,N,A*2E
20220704 090453+00:00 $IIMDA,29.9,I,1.011,B,13,C,,C,88.9,,,C,,T,,M,,N,,M*3C
20220704 090453+00:00 $HCHDT,121.4,T*2F
20220704 090453+00:00 $GPRMC,090448,A,4912.6600,N,12629.0700,W,9.19,125,040722,12.3,E,A,V*6F
20220704 090453+00:00 $WIMWV,182.4,R,6.18,N,A*13
20220704 090455+00:00 $IIMDA,29.9,I,1.011,B,13,C,,C,88.8,,,C,,T,,M,,N,,M*3D
20220704 090455+00:00 $HCHDT,121.4,T*2F
20220704 090455+00:00 $GPRMC,090450,A,4912.6498,N,12629.0598,W,9.29,125,040722,12.3,E,A,V*65
20220704 090455+00:00 $WIMWV,182.29,R,6.08,N,A*2D
20220704 090457+00:00 $IIMDA,29.9,I,1.011,B,13,C,,C,88.8,,,C,,T,,M,,N,,M*3D
20220704 090457+00:00 $HCHDT,120.6,T*2C
20220704 090457+00:00 $GPRMC,090452,A,4912.6498,N,12629.0496,W,9.29,125,040722,12.3,E,A,V*68
20220704 090457+00:00 $WIMWV,184.29,R,5.7,N,A*17
20220704 090459+00:00 $IIMDA,29.9,I,1.011,B,13,C,,C,88.8,,,C,,T,,M,,N,,M*3D
20220704 090459+00:00 $HCHDT,120.1,T*2B
20220704 090459+00:00 $GPRMC,090454,A,4912.6498,N,12629.0496,W,9.29,124,040722,12.3,E,A,V*6F
20220704 090459+00:00 $WIMWV,172.79,R,8.49,N,A*2C
20220704 090501+00:00 $IIMDA,29.9,I,1.011,B,13,C,,C,88.9,,,C,,T,,M,,N,,M*3C
20220704 090501+00:00 $HCHDT,120.3,T*29
20220704 090501+00:00 $GPRMC,090456,A,4912.6396,N,12629.0400,W,9.29,124,040722,12.3,E,A,V*6B
20220704 090501+00:00 $WIMWV,167.8,R,9.58,N,A*1F
20220704 090503+00:00 $IIMDA,29.9,I,1.011,B,13,C,,C,88.9,,,C,,T,,M,,N,,M*3C
20220704 090503+00:00 $HCHDT,120.8,T*22
20220704 090503+00:00 $GPRMC,090458,A,4912.6396,N,12629.0298,W,9.19,124,040722,12.3,E,A,V*61
20220704 090503+00:00 $WIMWV,168.19,R,9.58,N,A*20
20220704 090505+00:00 $IIMDA,29.9,I,1.011,B,13,C,,C,88.9,,,C,,T,,M,,N,,M*3C
20220704 090505+00:00 $HCHDT,121.2,T*29
20220704 090505+00:00 $GPRMC,090500,A,4912.6396,N,12629.0298,W,9.19,125,040722,12.3,E,A,V*6C
20220704 090505+00:00 $WIMWV,170.59,R,8.28,N,A*2B
20220704 090507+00:00 $IIMDA,29.9,I,1.011,B,13,C,,C,89,,,C,,T,,M,,N,,M*2A
20220704 090507+00:00 $HCHDT,121.5,T*2E
20220704 090507+00:00 $GPRMC,090502,A,4912.6396,N,12629.0196,W,9.29,125,040722,12.3,E,A,V*60
20220704 090507+00:00 $WIMWV,171.1,R,8.18,N,A*14
20220704 090509+00:00 $IIMDA,29.9,I,1.011,B,13,C,,C,89,,,C,,T,,M,,N,,M*2A
20220704 090509+00:00 $HCHDT,121.7,T*2C
20220704 090509+00:00 $GPRMC,090504,A,4912.6300,N,12629.0100,W,9.29,125,040722,12.3,E,A,V*66
20220704 090509+00:00 $WIMWV,168.39,R,7.39,N,A*2B
20220704 090511+00:00 $IIMDA,29.9,I,1.011,B,13,C,,C,89,,,C,,T,,M,,N,,M*2A
20220704 090511+00:00 $HCHDT,121.5,T*2E
20220704 090511+00:00 $GPRMC,090506,A,4912.6300,N,12629.0100,W,9.29,125,040722,12.3,E,A,V*64
20220704 090511+00:00 $WIMWV,182.6,R,4.9,N,A*23
20220704 090513+00:00 $IIMDA,29.9,I,1.011,B,13,C,,C,89.1,,,C,,T,,M,,N,,M*35
20220704 090513+00:00 $HCHDT,121.4,T*2F
20220704 090513+00:00 $GPRMC,090508,A,4912.6300,N,12628.9998,W,9.29,125,040722,12.3,E,A,V*6B
20220704 090513+00:00 $WIMWV,186.39,R,3.6,N,A*13
20220704 090515+00:00 $IIMDA,29.9,I,1.011,B,13,C,,C,89.1,,,C,,T,,M,,N,,M*35
20220704 090515+00:00 $HCHDT,121.7,T*2C
20220704 090515+00:00 $GPRMC,090510,A,4912.6198,N,12628.9896,W,9.29,125,040722,12.3,E,A,V*6E
20220704 090515+00:00 $WIMWV,176.2,R,7.7,N,A*21
20220704 090517+00:00 $IIMDA,29.9,I,1.011,B,13,C,,C,89.1,,,C,,T,,M,,N,,M*35
20220704 090517+00:00 $HCHDT,121.5,T*2E
20220704 090517+00:00 $GPRMC,090512,A,4912.6198,N,12628.9896,W,9.29,125,040722,12.3,E,A,V*6C
20220704 090517+00:00 $WIMWV,171.49,R,7.29,N,A*25
20220704 090519+00:00 $IIMDA,29.9,I,1.011,B,13,C,,C,89,,,C,,T,,M,,N,,M*2A
20220704 090519+00:00 $HCHDT,120.8,T*22
20220704 090519+00:00 $GPRMC,090514,A,4912.6198,N,12628.9800,W,9.29,125,040722,12.3,E,A,V*65
20220704 090519+00:00 $WIMWV,172.59,R,5.09,N,A*27
20220704 090521+00:00 $IIMDA,29.9,I,1.011,B,13,C,,C,89,,,C,,T,,M,,N,,M*2A
20220704 090521+00:00 $HCHDT,120.6,T*2C
20220704 090521+00:00 $GPRMC,090516,A,4912.6096,N,12628.9800,W,9.29,125,040722,12.3,E,A,V*68
20220704 090521+00:00 $WIMWV,179.1,R,6.4,N,A*2F
20220704 090523+00:00 $IIMDA,29.9,I,1.011,B,13,C,,C,88.9,,,C,,T,,M,,N,,M*3C
20220704 090523+00:00 $HCHDT,120.5,T*2F
20220704 090523+00:00 $GPRMC,090518,A,4912.6096,N,12628.9698,W,9.29,125,040722,12.3,E,A,V*69
20220704 090523+00:00 $WIMWV,177.89,R,8.09,N,A*22
20220704 090525+00:00 $IIMDA,29.9,I,1.011,B,13,C,,C,88.9,,,C,,T,,M,,N,,M*3C
20220704 090525+00:00 $HCHDT,120.7,T*2D
20220704 090525+00:00 $GPRMC,090520,A,4912.6096,N,12628.9596,W,9.29,125,040722,12.3,E,A,V*6F
20220704 090525+00:00 $WIMWV,175.79,R,8.49,N,A*2B
20220704 090527+00:00 $IIMDA,29.9,I,1.011,B,13,C,,C,89,,,C,,T,,M,,N,,M*2A
20220704 090527+00:00 $HCHDT,120.3,T*29
20220704 090527+00:00 $GPRMC,090522,A,4912.6096,N,12628.9596,W,9.29,125,040722,12.3,E,A,V*6D
20220704 090527+00:00 $WIMWV,182.09,R,9.49,N,A*25
20220704 090529+00:00 $IIMDA,29.9,I,1.011,B,13,C,,C,89,,,C,,T,,M,,N,,M*2A
20220704 090529+00:00 $HCHDT,119.5,T*25
20220704 090529+00:00 $GPRMC,090524,A,4912.6000,N,12628.9500,W,9.29,125,040722,12.3,E,A,V*6B
20220704 090529+00:00 $WIMWV,174.59,R,5.29,N,A*23
20220704 090531+00:00 $IIMDA,29.9,I,1.011,B,13,C,,C,89,,,C,,T,,M,,N,,M*2A
20220704 090531+00:00 $HCHDT,119.6,T*26
20220704 090531+00:00 $GPRMC,090526,A,4912.6000,N,12628.9398,W,9.29,124,040722,12.3,E,A,V*6F
20220704 090531+00:00 $WIMWV,202.79,R,3.89,N,A*2F
20220704 090533+00:00 $IIMDA,29.9,I,1.011,B,13,C,,C,89,,,C,,T,,M,,N,,M*2A
20220704 090533+00:00 $HCHDT,120.6,T*2C
20220704 090533+00:00 $GPRMC,090528,A,4912.6000,N,12628.9398,W,9.19,124,040722,12.3,E,A,V*62
20220704 090533+00:00 $WIMWV,182.89,R,9.49,N,A*2D
20220704 090535+00:00 $IIMDA,29.9,I,1.011,B,13,C,,C,88.9,,,C,,T,,M,,N,,M*3C
20220704 090535+00:00 $HCHDT,121.1,T*2A
20220704 090535+00:00 $GPRMC,090530,A,4912.5898,N,12628.9296,W,9.19,124,040722,12.3,E,A,V*6E
20220704 090535+00:00 $WIMWV,180.6,R,9.99,N,A*15
20220704 090537+00:00 $IIMDA,29.9,I,1.011,B,13,C,,C,88.9,,,C,,T,,M,,N,,M*3C
20220704 090537+00:00 $HCHDT,121.1,T*2A
20220704 090537+00:00 $GPRMC,090532,A,4912.5898,N,12628.9200,W,9.29,124,040722,12.3,E,A,V*60
20220704 090537+00:00 $WIMWV,173.1,R,7.89,N,A*11
20220704 090539+00:00 $IIMDA,29.9,I,1.011,B,13,C,,C,88.9,,,C,,T,,M,,N,,M*3C
20220704 090539+00:00 $HCHDT,121,T*35
20220704 090539+00:00 $GPRMC,090534,A,4912.5898,N,12628.9200,W,9.29,125,040722,12.3,E,A,V*67
20220704 090539+00:00 $WIMWV,163.89,R,7.1,N,A*10
20220704 090541+00:00 $IIMDA,29.9,I,1.011,B,13,C,,C,88.8,,,C,,T,,M,,N,,M*3D
20220704 090541+00:00 $HCHDT,121.2,T*29
20220704 090541+00:00 $GPRMC,090536,A,4912.5898,N,12628.9098,W,9.29,125,040722,12.3,E,A,V*66
20220704 090541+00:00 $WIMWV,161.69,R,6.88,N,A*2C
20220704 090543+00:00 $IIMDA,29.9,I,1.011,B,13,C,,C,88.9,,,C,,T,,M,,N,,M*3C
20220704 090543+00:00 $HCHDT,121.8,T*23
20220704 090543+00:00 $GPRMC,090538,A,4912.5796,N,12628.8996,W,9.29,125,040722,12.3,E,A,V*6F
20220704 090543+00:00 $WIMWV,167.09,R,6.59,N,A*20
20220704 090545+00:00 $IIMDA,29.9,I,1.011,B,13,C,,C,88.9,,,C,,T,,M,,N,,M*3C
20220704 090545+00:00 $HCHDT,122.2,T*2A
20220704 090545+00:00 $GPRMC,090540,A,4912.5796,N,12628.8996,W,9.29,125,040722,12.3,E,A,V*60
20220704 090545+00:00 $WIMWV,174.69,R,6.49,N,A*25
20220704 090547+00:00 $IIMDA,29.9,I,1.011,B,13,C,,C,88.9,,,C,,T,,M,,N,,M*3C
20220704 090547+00:00 $HCHDT,122.2,T*2A
20220704 090547+00:00 $GPRMC,090542,A,4912.5796,N,12628.8900,W,9.29,125,040722,12.3,E,A,V*6D
20220704 090547+00:00 $WIMWV,183.5,R,4.3,N,A*2B
20220704 090549+00:00 $IIMDA,29.9,I,1.011,B,13,C,,C,88.9,,,C,,T,,M,,N,,M*3C
20220704 090549+00:00 $HCHDT,121.3,T*28
20220704 090549+00:00 $GPRMC,090544,A,4912.5700,N,12628.8900,W,9.29,126,040722,12.3,E,A,V*67
20220704 090549+00:00 $WIMWV,182.89,R,8.4,N,A*15
20220704 090551+00:00 $IIMDA,29.9,I,1.011,B,13,C,,C,88.8,,,C,,T,,M,,N,,M*3D
20220704 090551+00:00 $HCHDT,120.8,T*22
20220704 090551+00:00 $GPRMC,090546,A,4912.5700,N,12628.8798,W,9.29,126,040722,12.3,E,A,V*6A
20220704 090551+00:00 $WIMWV,193.89,R,8.49,N,A*2C
20220704 090553+00:00 $IIMDA,29.9,I,1.011,B,13,C,,C,88.8,,,C,,T,,M,,N,,M*3D
20220704 090553+00:00 $HCHDT,121.7,T*2C
20220704 090553+00:00 $GPRMC,090548,A,4912.5700,N,12628.8696,W,9.29,126,040722,12.3,E,A,V*6B
20220704 090553+00:00 $WIMWV,201.49,R,1.59,N,A*20
20220704 090555+00:00 $IIMDA,29.9,I,1.011,B,13,C,,C,88.8,,,C,,T,,M,,N,,M*3D
20220704 090555+00:00 $HCHDT,122.5,T*2D
20220704 090555+00:00 $GPRMC,090550,A,4912.5598,N,12628.8696,W,9.29,126,040722,12.3,E,A,V*61
20220704 090555+00:00 $WIMWV,182.8,R,3.98,N,A*12
20220704 090557+00:00 $IIMDA,29.9,I,1.011,B,13,C,,C,88.8,,,C,,T,,M,,N,,M*3D
20220704 090557+00:00 $HCHDT,122.8,T*20
20220704 090557+00:00 $GPRMC,090552,A,4912.5598,N,12628.8600,W,9.29,126,040722,12.3,E,A,V*6C
20220704 090557+00:00 $WIMWV,167.8,R,4.9,N,A*26
20220704 090559+00:00 $IIMDA,29.9,I,1.011,B,13,C,,C,88.8,,,C,,T,,M,,N,,M*3D
20220704 090559+00:00 $HCHDT,122.5,T*2D
20220704 090559+00:00 $GPRMC,090554,A,4912.5598,N,12628.8498,W,9.29,126,040722,12.3,E,A,V*69
20220704 090559+00:00 $WIMWV,176.59,R,8.69,N,A*28
20220704 090601+00:00 $IIMDA,29.9,I,1.011,B,13,C,,C,88.8,,,C,,T,,M,,N,,M*3D
20220704 090601+00:00 $HCHDT,121.4,T*2F
20220704 090601+00:00 $GPRMC,090556,A,4912.5598,N,12628.8498,W,9.29,126,040722,12.3,E,A,V*6B
20220704 090601+00:00 $WIMWV,178.99,R,7.19,N,A*22
20220704 090603+00:00 $IIMDA,29.9,I,1.011,B,13,C,,C,88.8,,,C,,T,,M,,N,,M*3D
20220704 090603+00:00 $HCHDT,121.1,T*2A
20220704 090603+00:00 $GPRMC,090558,A,4912.5496,N,12628.8396,W,9.29,126,040722,12.3,E,A,V*63
20220704 090603+00:00 $WIMWV,178.69,R,5.19,N,A*2F
20220704 090605+00:00 $IIMDA,29.9,I,1.011,B,13,C,,C,88.7,,,C,,T,,M,,N,,M*32
20220704 090605+00:00 $HCHDT,121.4,T*2F
20220704 090605+00:00 $GPRMC,090600,A,4912.5496,N,12628.8300,W,9.29,126,040722,12.3,E,A,V*62
20220704 090605+00:00 $WIMWV,177.3,R,4.2,N,A*27
20220704 090607+00:00 $IIMDA,29.9,I,1.011,B,13,C,,C,88.7,,,C,,T,,M,,N,,M*32
20220704 090607+00:00 $HCHDT,122.4,T*2C
20220704 090607+00:00 $GPRMC,090602,A,4912.5496,N,12628.8300,W,9.29,126,040722,12.3,E,A,V*60
20220704 090607+00:00 $WIMWV,200.09,R,3.6,N,A*1D
20220704 090609+00:00 $IIMDA,29.9,I,1.011,B,13,C,,C,88.7,,,C,,T,,M,,N,,M*32
20220704 090609+00:00 $HCHDT,122.7,T*2F
20220704 090609+00:00 $GPRMC,090604,A,4912.5400,N,12628.8198,W,9.29,126,040722,12.3,E,A,V*6A
20220704 090609+00:00 $WIMWV,202.39,R,3.69,N,A*25
20220704 090611+00:00 $IIMDA,29.9,I,1.011,B,13,C,,C,88.7,,,C,,T,,M,,N,,M*32
20220704 090611+00:00 $HCHDT,122,T*36
20220704 090611+00:00 $GPRMC,090606,A,4912.5400,N,12628.8198,W,9.29,126,040722,12.3,E,A,V*68
20220704 090611+00:00 $WIMWV,190.1,R,5.19,N,A*17
20220704 090613+00:00 $IIMDA,29.9,I,1.011,B,13,C,,C,88.7,,,C,,T,,M,,N,,M*32
20220704 090613+00:00 $HCHDT,121.2,T*29
20220704 090613+00:00 $GPRMC,090608,A,4912.5400,N,12628.8096,W,9.29,126,040722,12.3,E,A,V*69
20220704 090613+00:00 $WIMWV,180.6,R,9.1,N,A*24
20220704 090615+00:00 $IIMDA,29.9,I,1.011,B,13,C,,C,88.8,,,C,,T,,M,,N,,M*3D
20220704 090615+00:00 $HCHDT,120.5,T*2F
20220704 090615+00:00 $GPRMC,090610,A,4912.5298,N,12628.8000,W,9.19,126,040722,12.3,E,A,V*6B
20220704 090615+00:00 $WIMWV,183.99,R,8.69,N,A*2E
20220704 090617+00:00 $IIMDA,29.9,I,1.011,B,13,C,,C,88.8,,,C,,T,,M,,N,,M*3D
20220704 090617+00:00 $HCHDT,120.9,T*23
20220704 090617+00:00 $GPRMC,090612,A,4912.5298,N,12628.8000,W,9.19,126,040722,12.3,E,A,V*69
20220704 090617+00:00 $WIMWV,201.09,R,6.18,N,A*26
20220704 090619+00:00 $IIMDA,29.9,I,1.011,B,13,C,,C,88.9,,,C,,T,,M,,N,,M*3C
20220704 090619+00:00 $HCHDT,121.9,T*22
20220704 090619+00:00 $GPRMC,090614,A,4912.5298,N,12628.7898,W,9.19,126,040722,12.3,E,A,V*69
20220704 090619+00:00 $WIMWV,195.79,R,4.49,N,A*29
20220704 090621+00:00 $IIMDA,29.9,I,1.011,B,13,C,,C,88.9,,,C,,T,,M,,N,,M*3C
20220704 090621+00:00 $HCHDT,122.1,T*29
20220704 090621+00:00 $GPRMC,090616,A,4912.5196,N,12628.7796,W,9.29,126,040722,12.3,E,A,V*64
20220704 090621+00:00 $WIMWV,174.69,R,7.1,N,A*18
20220704 090623+00:00 $IIMDA,29.9,I,1.011,B,12.9,C,,C,88.9,,,C,,T,,M,,N,,M*2A
20220704 090623+00:00 $HCHDT,121.5,T*2E
20220704 090623+00:00 $GPRMC,090618,A,4912.5196,N,12628.7796,W,9.29,126,040722,12.3,E,A,V*6A
20220704 090623+00:00 $WIMWV,164.39,R,7.48,N,A*21
20220704 090625+00:00 $IIMDA,29.9,I,1.011,B,12.9,C,,C,88.9,,,C,,T,,M,,N,,M*2A
20220704 090625+00:00 $HCHDT,120.9,T*23
20220704 090625+00:00 $GPRMC,090620,A,4912.5196,N,12628.7700,W,9.29,126,040722,12.3,E,A,V*6E
20220704 090625+00:00 $WIMWV,176.69,R,7.39,N,A*21
20220704 090627+00:00 $IIMDA,29.9,I,1.011,B,12.9,C,,C,88.9,,,C,,T,,M,,N,,M*2A
20220704 090627+00:00 $HCHDT,121.1,T*2A
20220704 090627+00:00 $GPRMC,090622,A,4912.5196,N,12628.7598,W,9.19,126,040722,12.3,E,A,V*6C
20220704 090627+00:00 $WIMWV,174.4,R,6.18,N,A*1A
20220704 090629+00:00 $IIMDA,29.9,I,1.011,B,12.9,C,,C,88.9,,,C,,T,,M,,N,,M*2A
20220704 090629+00:00 $HCHDT,121.8,T*23
20220704 090629+00:00 $GPRMC,090624,A,4912.5100,N,12628.7598,W,9.19,126,040722,12.3,E,A,V*65
20220704 090629+00:00 $WIMWV,177.5,R,4.9,N,A*2A
20220704 090631+00:00 $IIMDA,29.9,I,1.011,B,12.9,C,,C,88.9,,,C,,T,,M,,N,,M*2A
20220704 090631+00:00 $HCHDT,122.4,T*2C
20220704 090631+00:00 $GPRMC,090626,A,4912.5100,N,12628.7496,W,9.19,126,040722,12.3,E,A,V*68
20220704 090631+00:00 $WIMWV,175.39,R,2.29,N,A*23
20220704 090633+00:00 $IIMDA,29.9,I,1.011,B,12.9,C,,C,88.9,,,C,,T,,M,,N,,M*2A
20220704 090633+00:00 $HCHDT,122.5,T*2D
20220704 090633+00:00 $GPRMC,090628,A,4912.5100,N,12628.7496,W,9.19,126,040722,12.3,E,A,V*66
20220704 090633+00:00 $WIMWV,176.9,R,5.79,N,A*11
20220704 090635+00:00 $IIMDA,29.9,I,1.011,B,12.9,C,,C,89,,,C,,T,,M,,N,,M*3C
20220704 090635+00:00 $HCHDT,122.2,T*2A
20220704 090635+00:00 $GPRMC,090630,A,4912.4998,N,12628.7400,W,9.29,126,040722,12.3,E,A,V*6B
20220704 090635+00:00 $WIMWV,167.49,R,11.08,N,A*16
20220704 090637+00:00 $IIMDA,29.9,I,1.011,B,12.9,C,,C,89,,,C,,T,,M,,N,,M*3C
20220704 090637+00:00 $HCHDT,122.2,T*2A
20220704 090637+00:00 $GPRMC,090632,A,4912.4998,N,12628.7298,W,9.29,126,040722,12.3,E,A,V*6E
20220704 090637+00:00 $WIMWV,159.2,R,8.09,N,A*1D
20220704 090639+00:00 $IIMDA,29.9,I,1.011,B,12.9,C,,C,89,,,C,,T,,M,,N,,M*3C
20220704 090639+00:00 $HCHDT,122.6,T*2E
20220704 090639+00:00 $GPRMC,090634,A,4912.4998,N,12628.7298,W,9.29,126,040722,12.3,E,A,V*68
20220704 090639+00:00 $WIMWV,178,R,6.08,N,A*0D
20220704 090641+00:00 $IIMDA,29.9,I,1.011,B,12.9,C,,C,89.1,,,C,,T,,M,,N,,M*23
20220704 090641+00:00 $HCHDT,122.4,T*2C
20220704 090641+00:00 $GPRMC,090636,A,4912.4896,N,12628.7196,W,9.29,127,040722,12.3,E,A,V*69
20220704 090641+00:00 $WIMWV,178.49,R,6.08,N,A*2E
20220704 090643+00:00 $IIMDA,29.9,I,1.011,B,12.9,C,,C,89.1,,,C,,T,,M,,N,,M*23
20220704 090643+00:00 $HCHDT,122.2,T*2A
20220704 090643+00:00 $GPRMC,090638,A,4912.4896,N,12628.7100,W,9.29,127,040722,12.3,E,A,V*68
20220704 090643+00:00 $WIMWV,184.6,R,7.99,N,A*1F
20220704 090645+00:00 $IIMDA,29.9,I,1.011,B,12.9,C,,C,89.2,,,C,,T,,M,,N,,M*20
20220704 090645+00:00 $HCHDT,122.3,T*2B
20220704 090645+00:00 $GPRMC,090640,A,4912.4896,N,12628.7100,W,9.29,127,040722,12.3,E,A,V*67
20220704 090645+00:00 $WIMWV,180.6,R,10.98,N,A*2C
20220704 090647+00:00 $IIMDA,29.9,I,1.011,B,12.9,C,,C,89.3,,,C,,T,,M,,N,,M*21
20220704 090647+00:00 $HCHDT,122.3,T*2B
20220704 090647+00:00 $GPRMC,090642,A,4912.4896,N,12628.6998,W,9.29,127,040722,12.3,E,A,V*6D
20220704 090647+00:00 $WIMWV,177.89,R,7,N,A*0A
20220704 090649+00:00 $IIMDA,29.9,I,1.011,B,12.9,C,,C,89.3,,,C,,T,,M,,N,,M*21
20220704 090649+00:00 $HCHDT,122.1,T*29
20220704 090649+00:00 $GPRMC,090644,A,4912.4800,N,12628.6896,W,9.29,127,040722,12.3,E,A,V*6B
20220704 090649+00:00 $WIMWV,139.6,R,2.49,N,A*11
20220704 090651+00:00 $IIMDA,29.9,I,1.011,B,12.9,C,,C,89.4,,,C,,T,,M,,N,,M*26
20220704 090651+00:00 $HCHDT,122.4,T*2C
20220704 090651+00:00 $GPRMC,090646,A,4912.4800,N,12628.6896,W,9.29,127,040722,12.3,E,A,V*69
20220704 090651+00:00 $WIMWV,163.49,R,5.6,N,A*19
20220704 090653+00:00 $IIMDA,29.9,I,1.011,B,12.9,C,,C,89.4,,,C,,T,,M,,N,,M*26
20220704 090653+00:00 $HCHDT,122.3,T*2B
20220704 090653+00:00 $GPRMC,090648,A,4912.4800,N,12628.6800,W,9.29,127,040722,12.3,E,A,V*68
20220704 090653+00:00 $WIMWV,163.29,R,6.49,N,A*27
20220704 090655+00:00 $IIMDA,29.9,I,1.011,B,12.9,C,,C,89.5,,,C,,T,,M,,N,,M*27
20220704 090655+00:00 $HCHDT,122.2,T*2A
20220704 090655+00:00 $GPRMC,090650,A,4912.4698,N,12628.6800,W,9.29,127,040722,12.3,E,A,V*6E
20220704 090655+00:00 $WIMWV,166.3,R,6.59,N,A*1B
20220704 090657+00:00 $IIMDA,29.9,I,1.011,B,12.9,C,,C,89.5,,,C,,T,,M,,N,,M*27
20220704 090657+00:00 $HCHDT,122,T*36
20220704 090657+00:00 $GPRMC,090652,A,4912.4698,N,12628.6698,W,9.29,127,040722,12.3,E,A,V*63
20220704 090657+00:00 $WIMWV,163.69,R,3.6,N,A*1D
20220704 090659+00:00 $IIMDA,29.9,I,1.011,B,12.9,C,,C,89.5,,,C,,T,,M,,N,,M*27
20220704 090659+00:00 $HCHDT,122.2,T*2A
20220704 090659+00:00 $GPRMC,090656,A,4912.4698,N,12628.6596,W,9.29,127,040722,12.3,E,A,V*6A
20220704 090659+00:00 $WIMWV,159.09,R,0.7,N,A*10
20220704 090701+00:00 $IIMDA,29.9,I,1.011,B,12.9,C,,C,89.5,,,C,,T,,M,,N,,M*27
20220704 090701+00:00 $HCHDT,123,T*37
20220704 090701+00:00 $GPRMC,090656,A,4912.4596,N,12628.6596,W,9.29,127,040722,12.3,E,A,V*67
20220704 090701+00:00 $WIMWV,170.2,R,0.99,N,A*17
20220704 090703+00:00 $IIMDA,29.9,I,1.011,B,12.9,C,,C,89.6,,,C,,T,,M,,N,,M*24
20220704 090703+00:00 $HCHDT,123,T*37
20220704 090703+00:00 $GPRMC,090658,A,4912.4596,N,12628.6500,W,9.19,127,040722,12.3,E,A,V*65
20220704 090703+00:00 $WIMWV,295.89,R,1.98,N,A*2C
20220704 090705+00:00 $IIMDA,29.9,I,1.011,B,13,C,,C,89.6,,,C,,T,,M,,N,,M*32
20220704 090705+00:00 $HCHDT,122.5,T*2D
20220704 090705+00:00 $GPRMC,090700,A,4912.4596,N,12628.6398,W,9.19,127,040722,12.3,E,A,V*6E
20220704 090705+00:00 $WIMWV,206.59,R,3.89,N,A*29
20220704 090707+00:00 $IIMDA,29.9,I,1.011,B,13,C,,C,89.6,,,C,,T,,M,,N,,M*32
20220704 090707+00:00 $HCHDT,121.6,T*2D
20220704 090707+00:00 $GPRMC,090702,A,4912.4500,N,12628.6398,W,9.29,127,040722,12.3,E,A,V*60
20220704 090707+00:00 $WIMWV,237.89,R,1.59,N,A*29
20220704 090709+00:00 $IIMDA,29.9,I,1.011,B,13,C,,C,89.7,,,C,,T,,M,,N,,M*33
20220704 090709+00:00 $HCHDT,121.1,T*2A
20220704 090709+00:00 $GPRMC,090704,A,4912.4500,N,12628.6296,W,9.29,127,040722,12.3,E,A,V*69
20220704 090709+00:00 $WIMWV,237.89,R,3.6,N,A*11
20220704 090711+00:00 $IIMDA,29.9,I,1.011,B,13,C,,C,89.7,,,C,,T,,M,,N,,M*33
20220704 090711+00:00 $HCHDT,121.4,T*2F
20220704 090711+00:00 $GPRMC,090706,A,4912.4500,N,12628.6296,W,9.29,127,040722,12.3,E,A,V*6B
20220704 090711+00:00 $WIMWV,231.49,R,1.59,N,A*23
20220704 090713+00:00 $IIMDA,29.9,I,1.011,B,13,C,,C,89.7,,,C,,T,,M,,N,,M*33
20220704 090713+00:00 $HCHDT,122,T*36
20220704 090713+00:00 $GPRMC,090708,A,4912.4500,N,12628.6200,W,9.29,127,040722,12.3,E,A,V*6A
20220704 090713+00:00 $WIMWV,227.89,R,2.1,N,A*16
20220704 090715+00:00 $IIMDA,29.9,I,1.011,B,13,C,,C,89.7,,,C,,T,,M,,N,,M*33
20220704 090715+00:00 $HCHDT,122.1,T*29
20220704 090715+00:00 $GPRMC,090710,A,4912.4398,N,12628.6098,W,9.29,126,040722,12.3,E,A,V*66
20220704 090715+00:00 $WIMWV,184.6,R,3.09,N,A*12
20220704 090717+00:00 $IIMDA,29.9,I,1.011,B,13,C,,C,89.7,,,C,,T,,M,,N,,M*33
20220704 090717+00:00 $HCHDT,121.5,T*2E
20220704 090717+00:00 $GPRMC,090712,A,4912.4398,N,12628.6098,W,9.19,126,040722,12.3,E,A,V*67
20220704 090717+00:00 $WIMWV,190.3,R,3.38,N,A*10
20220704 090719+00:00 $IIMDA,29.9,I,1.011,B,13,C,,C,89.7,,,C,,T,,M,,N,,M*33
20220704 090719+00:00 $HCHDT,121,T*35
20220704 090719+00:00 $GPRMC,090714,A,4912.4398,N,12628.5996,W,9.19,126,040722,12.3,E,A,V*65
20220704 090719+00:00 $WIMWV,173.89,R,7.48,N,A*2C
20220704 090721+00:00 $IIMDA,29.9,I,1.011,B,13,C,,C,89.8,,,C,,T,,M,,N,,M*3C
20220704 090721+00:00 $HCHDT,121.1,T*2A
20220704 090721+00:00 $GPRMC,090716,A,4912.4296,N,12628.5900,W,9.19,126,040722,12.3,E,A,V*67
20220704 090721+00:00 $WIMWV,236.39,R,2.59,N,A*20
20220704 090723+00:00 $IIMDA,29.9,I,1.011,B,13,C,,C,89.8,,,C,,T,,M,,N,,M*3C
20220704 090723+00:00 $HCHDT,122,T*36
20220704 090723+00:00 $GPRMC,090718,A,4912.4296,N,12628.5900,W,9.29,126,040722,12.3,E,A,V*6A
20220704 090723+00:00 $WIMWV,298.09,R,2.59,N,A*27
20220704 090725+00:00 $IIMDA,29.9,I,1.011,B,13,C,,C,89.8,,,C,,T,,M,,N,,M*3C
20220704 090725+00:00 $HCHDT,122.2,T*2A
20220704 090725+00:00 $GPRMC,090720,A,4912.4296,N,12628.5798,W,9.29,126,040722,12.3,E,A,V*6E
20220704 090725+00:00 $WIMWV,161.79,R,1.4,N,A*1E
20220704 090727+00:00 $IIMDA,29.9,I,1.011,B,13,C,,C,89.8,,,C,,T,,M,,N,,M*3C
20220704 090727+00:00 $HCHDT,121.6,T*2D
20220704 090727+00:00 $GPRMC,090722,A,4912.4200,N,12628.5696,W,9.29,126,040722,12.3,E,A,V*6C
20220704 090727+00:00 $WIMWV,158.39,R,1.4,N,A*10
20220704 090729+00:00 $IIMDA,29.9,I,1.011,B,13,C,,C,89.9,,,C,,T,,M,,N,,M*3D
20220704 090729+00:00 $HCHDT,120.8,T*22
20220704 090729+00:00 $GPRMC,090724,A,4912.4200,N,12628.5696,W,9.29,126,040722,12.3,E,A,V*6A
20220704 090729+00:00 $WIMWV,178.09,R,4.78,N,A*2F
20220704 090731+00:00 $IIMDA,29.9,I,1.011,B,13,C,,C,89.9,,,C,,T,,M,,N,,M*3D
20220704 090731+00:00 $HCHDT,120.7,T*2D
20220704 090731+00:00 $GPRMC,090726,A,4912.4200,N,12628.5600,W,9.29,126,040722,12.3,E,A,V*67
20220704 090731+00:00 $WIMWV,155.5,R,7,N,A*3E
20220704 090733+00:00 $IIMDA,29.9,I,1.011,B,13,C,,C,89.8,,,C,,T,,M,,N,,M*3C
20220704 090733+00:00 $HCHDT,121.3,T*28
20220704 090733+00:00 $GPRMC,090728,A,4912.4098,N,12628.5600,W,9.29,126,040722,12.3,E,A,V*6A
20220704 090733+00:00 $WIMWV,229.09,R,1.19,N,A*2A
20220704 090735+00:00 $IIMDA,29.9,I,1.011,B,13,C,,C,89.8,,,C,,T,,M,,N,,M*3C
20220704 090735+00:00 $HCHDT,121.5,T*2E
20220704 090735+00:00 $GPRMC,090730,A,4912.4098,N,12628.5498,W,9.29,126,040722,12.3,E,A,V*60
20220704 090735+00:00 $WIMWV,176.4,R,2.39,N,A*1F
20220704 090737+00:00 $IIMDA,29.9,I,1.011,B,13,C,,C,89.8,,,C,,T,,M,,N,,M*3C
20220704 090737+00:00 $HCHDT,121.8,T*23
20220704 090737+00:00 $GPRMC,090732,A,4912.4098,N,12628.5396,W,9.29,126,040722,12.3,E,A,V*6B
20220704 090737+00:00 $WIMWV,175.39,R,2.29,N,A*23
20220704 090739+00:00 $IIMDA,29.9,I,1.011,B,13,C,,C,89.8,,,C,,T,,M,,N,,M*3C
20220704 090739+00:00 $HCHDT,121.7,T*2C
20220704 090739+00:00 $GPRMC,090734,A,4912.4098,N,12628.5396,W,9.29,126,040722,12.3,E,A,V*6D
20220704 090739+00:00 $WIMWV,187.49,R,1.69,N,A*2E
20220704 090741+00:00 $IIMDA,29.9,I,1.011,B,13,C,,C,89.8,,,C,,T,,M,,N,,M*3C
20220704 090741+00:00 $HCHDT,121.2,T*29
20220704 090741+00:00 $GPRMC,090736,A,4912.3996,N,12628.5300,W,9.29,126,040722,12.3,E,A,V*60
20220704 090741+00:00 $WIMWV,185.09,R,2.2,N,A*16
20220704 090743+00:00 $IIMDA,29.9,I,1.011,B,13,C,,C,89.8,,,C,,T,,M,,N,,M*3C
20220704 090743+00:00 $HCHDT,121.2,T*29
20220704 090743+00:00 $GPRMC,090738,A,4912.3996,N,12628.5198,W,9.29,126,040722,12.3,E,A,V*6D
20220704 090743+00:00 $WIMWV,230.5,R,1.5,N,A*23
