20220704 140000+00:00 $GPRMC,135954,A,4845.9696,N,12533.4698,W,9,116,040722,12.1,E,A,V*4A
20220704 140000+00:00 $WIMWV,61.2,R,1.4,N,A*13
20220704 140001+00:00 $IIMDA,29.9,I,1.011,B,12.4,C,,C,93.6,,,C,,T,,M,,N,,M*22
20220704 140001+00:00 $HCHDT,114.1,T*2C
20220704 140002+00:00 $GPRMC,135958,A,4845.9696,N,12533.4596,W,9,117,040722,12.1,E,A,V*4A
20220704 140002+00:00 $WIMWV,126.39,R,1.69,N,A*22
20220704 140003+00:00 $IIMDA,29.9,I,1.011,B,12.4,C,,C,93.6,,,C,,T,,M,,N,,M*22
20220704 140003+00:00 $HCHDT,113.7,T*2D
20220704 140004+00:00 $GPRMC,140000,A,4845.9600,N,12533.4500,W,9,117,040722,12.1,E,A,V*4C
20220704 140004+00:00 $WIMWV,126.39,R,4.39,N,A*22
20220704 140005+00:00 $IIMDA,29.9,I,1.011,B,12.4,C,,C,93.6,,,C,,T,,M,,N,,M*22
20220704 140005+00:00 $HCHDT,113.3,T*29
20220704 140006+00:00 $GPRMC,140002,A,4845.9600,N,12533.4398,W,9,116,040722,12.1,E,A,V*48
20220704 140006+00:00 $WIMWV,99.4,R,1.98,N,A*27
20220704 140007+00:00 $IIMDA,29.9,I,1.011,B,12.4,C,,C,93.5,,,C,,T,,M,,N,,M*21
20220704 140007+00:00 $HCHDT,113.3,T*29
20220704 140008+00:00 $GPRMC,140004,A,4845.9600,N,12533.4398,W,9,116,040722,12.1,E,A,V*4E
20220704 140008+00:00 $WIMWV,172.7,R,2.49,N,A*1F
20220704 140009+00:00 $IIMDA,29.9,I,1.011,B,12.4,C,,C,93.5,,,C,,T,,M,,N,,M*21
20220704 140009+00:00 $HCHDT,114.3,T*2E
20220704 140010+00:00 $GPRMC,140004,A,4845.9600,N,12533.4296,W,9,116,040722,12.1,E,A,V*41
20220704 140010+00:00 $WIMWV,109.69,R,1.4,N,A*11
20220704 140011+00:00 $IIMDA,29.9,I,1.011,B,12.4,C,,C,93.5,,,C,,T,,M,,N,,M*21
20220704 140011+00:00 $HCHDT,114.4,T*29
20220704 140012+00:00 $GPRMC,140008,A,4845.9600,N,12533.4200,W,9,116,040722,12.1,E,A,V*42
20220704 140012+00:00 $WIMWV,118.2,R,2.9,N,A*22
20220704 140013+00:00 $IIMDA,29.9,I,1.011,B,12.4,C,,C,93.5,,,C,,T,,M,,N,,M*21
20220704 140013+00:00 $HCHDT,114.2,T*2F
20220704 140014+00:00 $GPRMC,140008,A,4845.9498,N,12533.4200,W,9,116,040722,12.1,E,A,V*41
20220704 140014+00:00 $WIMWV,125.59,R,4.08,N,A*25
20220704 140015+00:00 $IIMDA,29.9,I,1.011,B,12.4,C,,C,93.5,,,C,,T,,M,,N,,M*21
20220704 140015+00:00 $HCHDT,114.1,T*2C
20220704 140016+00:00 $GPRMC,140012,A,4845.9498,N,12533.4098,W,9,116,040722,12.1,E,A,V*49
20220704 140016+00:00 $WIMWV,175.19,R,2.39,N,A*20
20220704 140017+00:00 $IIMDA,29.9,I,1.011,B,12.4,C,,C,93.4,,,C,,T,,M,,N,,M*20
20220704 140017+00:00 $HCHDT,114,T*33
20220704 140018+00:00 $GPRMC,140014,A,4845.9498,N,12533.3996,W,9.1,116,040722,12.1,E,A,V*50
20220704 140018+00:00 $WIMWV,126.8,R,2.68,N,A*12
20220704 140019+00:00 $IIMDA,29.9,I,1.011,B,12.4,C,,C,93.4,,,C,,T,,M,,N,,M*20
20220704 140019+00:00 $HCHDT,114.4,T*29
20220704 140020+00:00 $GPRMC,140014,A,4845.9498,N,12533.3996,W,9.1,116,040722,12.1,E,A,V*50
20220704 140020+00:00 $WIMWV,161.99,R,2.39,N,A*2D
20220704 140021+00:00 $IIMDA,29.9,I,1.011,B,12.4,C,,C,93.4,,,C,,T,,M,,N,,M*20
20220704 140021+00:00 $HCHDT,114.9,T*24
20220704 140022+00:00 $GPRMC,140016,A,4845.9396,N,12533.3900,W,9.1,116,040722,12.1,E,A,V*54
20220704 140022+00:00 $WIMWV,165.99,R,2.8,N,A*1B
20220704 140023+00:00 $IIMDA,29.9,I,1.011,B,12.4,C,,C,93.4,,,C,,T,,M,,N,,M*20
20220704 140023+00:00 $HCHDT,115.3,T*2F
20220704 140024+00:00 $GPRMC,140018,A,4845.9396,N,12533.3798,W,9.1,116,040722,12.1,E,A,V*55
20220704 140024+00:00 $WIMWV,146.29,R,3.5,N,A*1D
20220704 140025+00:00 $IIMDA,29.9,I,1.012,B,12.4,C,,C,93.4,,,C,,T,,M,,N,,M*23
20220704 140025+00:00 $HCHDT,114.4,T*29
20220704 140026+00:00 $GPRMC,140020,A,4845.9396,N,12533.3798,W,9.1,117,040722,12.1,E,A,V*5F
20220704 140026+00:00 $WIMWV,137.89,R,2.59,N,A*29
20220704 140027+00:00 $IIMDA,29.9,I,1.011,B,12.4,C,,C,93.4,,,C,,T,,M,,N,,M*20
20220704 140027+00:00 $HCHDT,113.4,T*2E
20220704 140028+00:00 $GPRMC,140024,A,4845.9396,N,12533.3696,W,9,117,040722,12.1,E,A,V*4B
20220704 140028+00:00 $WIMWV,154.29,R,1.59,N,A*25
20220704 140029+00:00 $IIMDA,29.9,I,1.011,B,12.4,C,,C,93.4,,,C,,T,,M,,N,,M*20
20220704 140029+00:00 $HCHDT,113.3,T*29
20220704 140030+00:00 $GPRMC,140026,A,4845.9396,N,12533.3600,W,9.1,116,040722,12.1,E,A,V*58
20220704 140030+00:00 $WIMWV,166.19,R,2.68,N,A*26
20220704 140031+00:00 $IIMDA,29.9,I,1.011,B,12.4,C,,C,93.4,,,C,,T,,M,,N,,M*20
20220704 140031+00:00 $HCHDT,113.5,T*2F
20220704 140032+00:00 $GPRMC,140026,A,4845.9300,N,12533.3600,W,9.1,116,040722,12.1,E,A,V*57
20220704 140032+00:00 $WIMWV,176.9,R,2.99,N,A*18
20220704 140033+00:00 $IIMDA,29.9,I,1.011,B,12.4,C,,C,93.4,,,C,,T,,M,,N,,M*20
20220704 140033+00:00 $HCHDT,113.9,T*23
20220704 140034+00:00 $GPRMC,140028,A,4845.9300,N,12533.3498,W,9.1,116,040722,12.1,E,A,V*5A
20220704 140034+00:00 $WIMWV,147.89,R,2.49,N,A*2F
20220704 140035+00:00 $IIMDA,29.9,I,1.012,B,12.4,C,,C,93.4,,,C,,T,,M,,N,,M*23
20220704 140035+00:00 $HCHDT,114,T*33
20220704 140036+00:00 $GPRMC,140030,A,4845.9300,N,12533.3396,W,9.1,116,040722,12.1,E,A,V*5A
20220704 140036+00:00 $WIMWV,205.3,R,1.28,N,A*1C
20220704 140037+00:00 $IIMDA,29.9,I,1.011,B,12.4,C,,C,93.3,,,C,,T,,M,,N,,M*27
20220704 140037+00:00 $HCHDT,113.7,T*2D
20220704 140038+00:00 $GPRMC,140032,A,4845.9300,N,12533.3396,W,9.1,116,040722,12.1,E,A,V*58
20220704 140038+00:00 $WIMWV,229.79,R,0.99,N,A*24
20220704 140039+00:00 $IIMDA,29.9,I,1.011,B,12.4,C,,C,93.3,,,C,,T,,M,,N,,M*27
20220704 140039+00:00 $HCHDT,113.2,T*28
20220704 140040+00:00 $GPRMC,140036,A,4845.9198,N,12533.3300,W,9.1,116,040722,12.1,E,A,V*50
20220704 140040+00:00 $WIMWV,209.19,R,1.28,N,A*2B
20220704 140041+00:00 $IIMDA,29.9,I,1.011,B,12.4,C,,C,93.3,,,C,,T,,M,,N,,M*27
20220704 140041+00:00 $HCHDT,113.5,T*2F
20220704 140042+00:00 $GPRMC,140038,A,4845.9198,N,12533.3198,W,9.1,116,040722,12.1,E,A,V*5D
20220704 140042+00:00 $WIMWV,166.99,R,0.58,N,A*2F
20220704 140043+00:00 $IIMDA,29.9,I,1.011,B,12.4,C,,C,93.3,,,C,,T,,M,,N,,M*27
20220704 140043+00:00 $HCHDT,113.6,T*2C
20220704 140044+00:00 $GPRMC,140038,A,4845.9198,N,12533.3096,W,9.1,116,040722,12.1,E,A,V*52
20220704 140044+00:00 $WIMWV,148,R,0.58,N,A*0D
20220704 140045+00:00 $IIMDA,29.9,I,1.011,B,12.4,C,,C,93.3,,,C,,T,,M,,N,,M*27
20220704 140045+00:00 $HCHDT,113.5,T*2F
20220704 140046+00:00 $GPRMC,140040,A,4845.9198,N,12533.3096,W,9.1,116,040722,12.1,E,A,V*5D
20220704 140046+00:00 $WIMWV,168.19,R,0.8,N,A*1C
20220704 140047+00:00 $IIMDA,29.9,I,1.012,B,12.4,C,,C,93.3,,,C,,T,,M,,N,,M*24
20220704 140047+00:00 $HCHDT,113.4,T*2E
20220704 140048+00:00 $GPRMC,140044,A,4845.9198,N,12533.3000,W,9.1,116,040722,12.1,E,A,V*56
20220704 140048+00:00 $WIMWV,145.79,R,1.19,N,A*24
20220704 140049+00:00 $IIMDA,29.9,I,1.012,B,12.4,C,,C,93.3,,,C,,T,,M,,N,,M*24
20220704 140049+00:00 $HCHDT,113.2,T*28
20220704 140050+00:00 $GPRMC,140046,A,4845.9096,N,12533.2898,W,9.1,116,040722,12.1,E,A,V*53
20220704 140050+00:00 $WIMWV,128.89,R,2.1,N,A*1A
20220704 140051+00:00 $IIMDA,29.9,I,1.012,B,12.4,C,,C,93.3,,,C,,T,,M,,N,,M*24
20220704 140051+00:00 $HCHDT,112.4,T*2F
20220704 140052+00:00 $GPRMC,140048,A,4845.9096,N,12533.2898,W,9.1,116,040722,12.1,E,A,V*5D
20220704 140052+00:00 $WIMWV,145.79,R,1.5,N,A*19
20220704 140053+00:00 $IIMDA,29.9,I,1.012,B,12.4,C,,C,93.3,,,C,,T,,M,,N,,M*24
20220704 140053+00:00 $HCHDT,112.5,T*2E
20220704 140054+00:00 $GPRMC,140050,A,4845.9096,N,12533.2796,W,9.1,115,040722,12.1,E,A,V*56
20220704 140054+00:00 $WIMWV,135.8,R,1.28,N,A*17
20220704 140055+00:00 $IIMDA,29.9,I,1.011,B,12.4,C,,C,93.3,,,C,,T,,M,,N,,M*27
20220704 140055+00:00 $HCHDT,113.5,T*2F
20220704 140056+00:00 $GPRMC,140050,A,4845.9096,N,12533.2700,W,9.1,115,040722,12.1,E,A,V*59
20220704 140056+00:00 $WIMWV,221,R,0.39,N,A*06
20220704 140057+00:00 $IIMDA,29.9,I,1.011,B,12.4,C,,C,93.3,,,C,,T,,M,,N,,M*27
20220704 140057+00:00 $HCHDT,113.7,T*2D
20220704 140058+00:00 $GPRMC,140052,A,4845.9000,N,12533.2700,W,9.1,115,040722,12.1,E,A,V*54
20220704 140058+00:00 $WIMWV,80.7,R,1.59,N,A*21
20220704 140059+00:00 $IIMDA,29.9,I,1.011,B,12.4,C,,C,93.3,,,C,,T,,M,,N,,M*27
20220704 140059+00:00 $HCHDT,113.5,T*2F
20220704 140100+00:00 $GPRMC,140056,A,4845.9000,N,12533.2598,W,9.1,115,040722,12.1,E,A,V*53
20220704 140100+00:00 $WIMWV,56.89,R,0.39,N,A*1B
20220704 140101+00:00 $IIMDA,29.9,I,1.012,B,12.4,C,,C,93.3,,,C,,T,,M,,N,,M*24
20220704 140101+00:00 $HCHDT,113.6,T*2C
20220704 140102+00:00 $GPRMC,140058,A,4845.9000,N,12533.2496,W,9.1,115,040722,12.1,E,A,V*52
20220704 140102+00:00 $WIMWV,331.69,R,1.28,N,A*26
20220704 140103+00:00 $IIMDA,29.9,I,1.012,B,12.4,C,,C,93.3,,,C,,T,,M,,N,,M*24
20220704 140103+00:00 $HCHDT,114.3,T*2E
20220704 140104+00:00 $GPRMC,140100,A,4845.9000,N,12533.2496,W,9.1,115,040722,12.1,E,A,V*5E
20220704 140104+00:00 $WIMWV,347.29,R,0.8,N,A*10
20220704 140105+00:00 $IIMDA,29.9,I,1.012,B,12.4,C,,C,93.3,,,C,,T,,M,,N,,M*24
20220704 140105+00:00 $HCHDT,114.5,T*28
20220704 140106+00:00 $GPRMC,140102,A,4845.9000,N,12533.2400,W,9.19,115,040722,12.1,E,A,V*6A
20220704 140106+00:00 $WIMWV,133.2,R,1.69,N,A*1E
20220704 140107+00:00 $IIMDA,29.9,I,1.012,B,12.4,C,,C,93.2,,,C,,T,,M,,N,,M*25
20220704 140107+00:00 $HCHDT,114.6,T*2B
20220704 140108+00:00 $GPRMC,140104,A,4845.8898,N,12533.2298,W,9.19,116,040722,12.1,E,A,V*60
20220704 140108+00:00 $WIMWV,146.49,R,0.58,N,A*20
20220704 140109+00:00 $IIMDA,29.9,I,1.011,B,12.4,C,,C,93.3,,,C,,T,,M,,N,,M*27
20220704 140109+00:00 $HCHDT,114.9,T*24
20220704 140110+00:00 $GPRMC,140104,A,4845.8898,N,12533.2196,W,9.19,116,040722,12.1,E,A,V*6D
20220704 140110+00:00 $WIMWV,105.89,R,1.19,N,A*2F
20220704 140111+00:00 $IIMDA,29.9,I,1.011,B,12.4,C,,C,93.3,,,C,,T,,M,,N,,M*27
20220704 140111+00:00 $HCHDT,114.6,T*2B
20220704 140112+00:00 $GPRMC,140108,A,4845.8898,N,12533.2196,W,9.19,116,040722,12.1,E,A,V*61
20220704 140112+00:00 $WIMWV,77.5,R,0.99,N,A*26
20220704 140113+00:00 $IIMDA,29.9,I,1.012,B,12.4,C,,C,93.3,,,C,,T,,M,,N,,M*24
20220704 140113+00:00 $HCHDT,114.5,T*28
20220704 140114+00:00 $GPRMC,140110,A,4845.8898,N,12533.2100,W,9.19,116,040722,12.1,E,A,V*67
20220704 140114+00:00 $WIMWV,303.39,R,0.49,N,A*24
20220704 140115+00:00 $IIMDA,29.9,I,1.012,B,12.4,C,,C,93.3,,,C,,T,,M,,N,,M*24
20220704 140115+00:00 $HCHDT,113.5,T*2F
20220704 140116+00:00 $GPRMC,140112,A,4845.8796,N,12533.1998,W,9.19,116,040722,12.1,E,A,V*6E
20220704 140116+00:00 $WIMWV,151.59,R,0.39,N,A*20
20220704 140117+00:00 $IIMDA,29.9,I,1.012,B,12.4,C,,C,93.3,,,C,,T,,M,,N,,M*24
20220704 140117+00:00 $HCHDT,113.2,T*28
20220704 140118+00:00 $GPRMC,140114,A,4845.8796,N,12533.1998,W,9.19,116,040722,12.1,E,A,V*68
20220704 140118+00:00 $WIMWV,330.09,R,0.58,N,A*27
20220704 140119+00:00 $IIMDA,29.9,I,1.012,B,12.4,C,,C,93.2,,,C,,T,,M,,N,,M*25
20220704 140119+00:00 $HCHDT,113.2,T*28
20220704 140120+00:00 $GPRMC,140114,A,4845.8796,N,12533.1896,W,9.19,116,040722,12.1,E,A,V*67
20220704 140120+00:00 $WIMWV,127.49,R,1.59,N,A*27
20220704 140121+00:00 $IIMDA,29.9,I,1.012,B,12.4,C,,C,93.3,,,C,,T,,M,,N,,M*24
20220704 140121+00:00 $HCHDT,113.4,T*2E
20220704 140122+00:00 $GPRMC,140116,A,4845.8796,N,12533.1800,W,9.19,116,040722,12.1,E,A,V*6A
20220704 140122+00:00 $WIMWV,142.9,R,1.69,N,A*13
20220704 140123+00:00 $IIMDA,29.9,I,1.011,B,12.4,C,,C,93.2,,,C,,T,,M,,N,,M*26
20220704 140123+00:00 $HCHDT,113.3,T*29
20220704 140124+00:00 $GPRMC,140120,A,4845.8796,N,12533.1800,W,9.19,116,040722,12.1,E,A,V*6F
20220704 140124+00:00 $WIMWV,58.6,R,1.4,N,A*1D
20220704 140125+00:00 $IIMDA,29.9,I,1.012,B,12.3,C,,C,93.2,,,C,,T,,M,,N,,M*22
20220704 140125+00:00 $HCHDT,113.2,T*28
20220704 140126+00:00 $GPRMC,140122,A,4845.8700,N,12533.1698,W,9.19,116,040722,12.1,E,A,V*6D
20220704 140126+00:00 $WIMWV,320.19,R,0.89,N,A*2B
20220704 140127+00:00 $IIMDA,29.9,I,1.012,B,12.3,C,,C,93.2,,,C,,T,,M,,N,,M*22
20220704 140127+00:00 $HCHDT,113.6,T*2C
20220704 140128+00:00 $GPRMC,140124,A,4845.8700,N,12533.1596,W,9.19,115,040722,12.1,E,A,V*65
20220704 140128+00:00 $WIMWV,116.09,R,0.58,N,A*21
20220704 140129+00:00 $IIMDA,29.9,I,1.012,B,12.3,C,,C,93.2,,,C,,T,,M,,N,,M*22
20220704 140129+00:00 $HCHDT,114,T*33
20220704 140130+00:00 $GPRMC,140126,A,4845.8700,N,12533.1500,W,9.19,115,040722,12.1,E,A,V*68
20220704 140130+00:00 $WIMWV,154.29,R,0.8,N,A*10
20220704 140131+00:00 $IIMDA,29.9,I,1.012,B,12.3,C,,C,93.2,,,C,,T,,M,,N,,M*22
20220704 140131+00:00 $HCHDT,114.3,T*2E
20220704 140132+00:00 $GPRMC,140126,A,4845.8700,N,12533.1500,W,9.19,115,040722,12.1,E,A,V*68
20220704 140132+00:00 $WIMWV,91.7,R,1.28,N,A*27
20220704 140133+00:00 $IIMDA,29.9,I,1.012,B,12.3,C,,C,93.2,,,C,,T,,M,,N,,M*22
20220704 140133+00:00 $HCHDT,114.6,T*2B
20220704 140134+00:00 $GPRMC,140128,A,4845.8598,N,12533.1398,W,9.19,115,040722,12.1,E,A,V*62
20220704 140134+00:00 $WIMWV,100.39,R,1.28,N,A*23
20220704 140135+00:00 $IIMDA,29.9,I,1.012,B,12.3,C,,C,93.2,,,C,,T,,M,,N,,M*22
20220704 140135+00:00 $HCHDT,114.4,T*29
20220704 140136+00:00 $GPRMC,140132,A,4845.8598,N,12533.1296,W,9.19,116,040722,12.1,E,A,V*65
20220704 140136+00:00 $WIMWV,335.89,R,0.49,N,A*2A
20220704 140137+00:00 $IIMDA,29.9,I,1.012,B,12.3,C,,C,93.2,,,C,,T,,M,,N,,M*22
20220704 140137+00:00 $HCHDT,113.7,T*2D
20220704 140138+00:00 $GPRMC,140134,A,4845.8598,N,12533.1296,W,9.19,116,040722,12.1,E,A,V*63
20220704 140138+00:00 $WIMWV,111.89,R,0.58,N,A*2E
20220704 140139+00:00 $IIMDA,29.9,I,1.012,B,12.3,C,,C,93.2,,,C,,T,,M,,N,,M*22
20220704 140139+00:00 $HCHDT,113.5,T*2F
20220704 140140+00:00 $GPRMC,140136,A,4845.8598,N,12533.1200,W,9.19,116,040722,12.1,E,A,V*6E
20220704 140140+00:00 $WIMWV,133.09,R,1.4,N,A*1E
20220704 140141+00:00 $IIMDA,29.9,I,1.011,B,12.3,C,,C,93.2,,,C,,T,,M,,N,,M*21
20220704 140141+00:00 $HCHDT,114,T*33
20220704 140142+00:00 $GPRMC,140136,A,4845.8598,N,12533.1098,W,9.19,116,040722,12.1,E,A,V*6D
20220704 140142+00:00 $WIMWV,124.6,R,1.09,N,A*1A
20220704 140143+00:00 $IIMDA,29.9,I,1.012,B,12.3,C,,C,93.2,,,C,,T,,M,,N,,M*22
20220704 140143+00:00 $HCHDT,114.3,T*2E
20220704 140144+00:00 $GPRMC,140138,A,4845.8496,N,12533.1098,W,9.19,116,040722,12.1,E,A,V*6C
20220704 140144+00:00 $WIMWV,329.49,R,0.39,N,A*2C
20220704 140145+00:00 $IIMDA,29.9,I,1.012,B,12.3,C,,C,93.2,,,C,,T,,M,,N,,M*22
20220704 140145+00:00 $HCHDT,114.6,T*2B
20220704 140146+00:00 $GPRMC,140140,A,4845.8496,N,12533.0996,W,9.19,116,040722,12.1,E,A,V*65
20220704 140146+00:00 $WIMWV,29.6,R,0.7,N,A*19
20220704 140147+00:00 $IIMDA,29.9,I,1.012,B,12.3,C,,C,93.2,,,C,,T,,M,,N,,M*22
20220704 140147+00:00 $HCHDT,114.7,T*2A
20220704 140148+00:00 $GPRMC,140144,A,4845.8496,N,12533.0900,W,9.19,115,040722,12.1,E,A,V*6D
20220704 140148+00:00 $WIMWV,0.19,R,0,N,A*05
20220704 140149+00:00 $IIMDA,29.9,I,1.012,B,12.3,C,,C,93.2,,,C,,T,,M,,N,,M*22
20220704 140149+00:00 $HCHDT,113.9,T*23
20220704 140150+00:00 $GPRMC,140146,A,4845.8496,N,12533.0900,W,9.19,116,040722,12.1,E,A,V*6C
20220704 140150+00:00 $WIMWV,288.19,R,0.7,N,A*1E
20220704 140151+00:00 $IIMDA,29.9,I,1.012,B,12.3,C,,C,93.2,,,C,,T,,M,,N,,M*22
20220704 140151+00:00 $HCHDT,113.2,T*28
20220704 140152+00:00 $GPRMC,140148,A,4845.8496,N,12533.0798,W,9.19,116,040722,12.1,E,A,V*6D
20220704 140152+00:00 $WIMWV,242.79,R,0.89,N,A*28
20220704 140153+00:00 $IIMDA,29.9,I,1.012,B,12.3,C,,C,93.2,,,C,,T,,M,,N,,M*22
20220704 140153+00:00 $HCHDT,113.6,T*2C
20220704 140154+00:00 $GPRMC,140148,A,4845.8400,N,12533.0696,W,9.19,116,040722,12.1,E,A,V*6D
20220704 140154+00:00 $WIMWV,239.39,R,0.8,N,A*19
20220704 140155+00:00 $IIMDA,29.9,I,1.012,B,12.3,C,,C,93.2,,,C,,T,,M,,N,,M*22
20220704 140155+00:00 $HCHDT,114,T*33
20220704 140156+00:00 $GPRMC,140152,A,4845.8400,N,12533.0600,W,9.19,116,040722,12.1,E,A,V*69
20220704 140156+00:00 $WIMWV,149.9,R,0.29,N,A*1D
20220704 140157+00:00 $IIMDA,29.9,I,1.012,B,12.3,C,,C,93.2,,,C,,T,,M,,N,,M*22
20220704 140157+00:00 $HCHDT,114.5,T*28
20220704 140158+00:00 $GPRMC,140152,A,4845.8400,N,12533.0600,W,9.19,116,040722,12.1,E,A,V*69
20220704 140158+00:00 $WIMWV,333.09,R,0.49,N,A*24
20220704 140159+00:00 $IIMDA,29.9,I,1.012,B,12.3,C,,C,93.2,,,C,,T,,M,,N,,M*22
20220704 140159+00:00 $HCHDT,114.1,T*2C
20220704 140200+00:00 $GPRMC,140156,A,4845.8400,N,12533.0498,W,9.19,116,040722,12.1,E,A,V*6E
20220704 140200+00:00 $WIMWV,294.19,R,0.58,N,A*29
20220704 140201+00:00 $IIMDA,29.9,I,1.012,B,12.3,C,,C,93.2,,,C,,T,,M,,N,,M*22
20220704 140201+00:00 $HCHDT,113.7,T*2D
20220704 140202+00:00 $GPRMC,140158,A,4845.8298,N,12533.0396,W,9.19,116,040722,12.1,E,A,V*6E
20220704 140202+00:00 $WIMWV,123.79,R,0.29,N,A*26
20220704 140203+00:00 $IIMDA,29.9,I,1.012,B,12.3,C,,C,93.2,,,C,,T,,M,,N,,M*22
20220704 140203+00:00 $HCHDT,113.6,T*2C
20220704 140204+00:00 $GPRMC,140200,A,4845.8298,N,12533.0396,W,9.19,116,040722,12.1,E,A,V*60
20220704 140204+00:00 $WIMWV,340.69,R,0.8,N,A*13
20220704 140205+00:00 $IIMDA,29.9,I,1.012,B,12.3,C,,C,93.2,,,C,,T,,M,,N,,M*22
20220704 140205+00:00 $HCHDT,113.7,T*2D
20220704 140206+00:00 $GPRMC,140202,A,4845.8298,N,12533.0300,W,9.19,115,040722,12.1,E,A,V*6E
20220704 140206+00:00 $WIMWV,32.3,R,0.29,N,A*2A
20220704 140207+00:00 $IIMDA,29.9,I,1.012,B,12.3,C,,C,93.2,,,C,,T,,M,,N,,M*22
20220704 140207+00:00 $HCHDT,113.4,T*2E
20220704 140208+00:00 $GPRMC,140202,A,4845.8298,N,12533.0198,W,9.19,115,040722,12.1,E,A,V*6D
20220704 140208+00:00 $WIMWV,269.99,R,0.29,N,A*25
20220704 140209+00:00 $IIMDA,29.9,I,1.012,B,12.3,C,,C,93.2,,,C,,T,,M,,N,,M*22
20220704 140209+00:00 $HCHDT,113.4,T*2E
20220704 140210+00:00 $GPRMC,140204,A,4845.8298,N,12533.0198,W,9.19,116,040722,12.1,E,A,V*68
20220704 140210+00:00 $WIMWV,295.69,R,0.58,N,A*2F
20220704 140211+00:00 $IIMDA,29.9,I,1.012,B,12.3,C,,C,93.2,,,C,,T,,M,,N,,M*22
20220704 140211+00:00 $HCHDT,114.5,T*28
20220704 140212+00:00 $GPRMC,140208,A,4845.8196,N,12533.0096,W,9.19,116,040722,12.1,E,A,V*66
20220704 140212+00:00 $WIMWV,161.69,R,0.58,N,A*27
20220704 140213+00:00 $IIMDA,29.9,I,1.012,B,12.3,C,,C,93.2,,,C,,T,,M,,N,,M*22
20220704 140213+00:00 $HCHDT,114.4,T*29
20220704 140214+00:00 $GPRMC,140210,A,4845.8196,N,12533.0000,W,9.19,116,040722,12.1,E,A,V*60
20220704 140214+00:00 $WIMWV,346.19,R,1.28,N,A*21
20220704 140215+00:00 $IIMDA,29.9,I,1.012,B,12.3,C,,C,93.2,,,C,,T,,M,,N,,M*22
20220704 140215+00:00 $HCHDT,113.7,T*2D
20220704 140216+00:00 $GPRMC,140212,A,4845.8196,N,12532.9898,W,9.19,116,040722,12.1,E,A,V*63
20220704 140216+00:00 $WIMWV,231.99,R,0.39,N,A*29
20220704 140217+00:00 $IIMDA,29.9,I,1.012,B,12.3,C,,C,93.2,,,C,,T,,M,,N,,M*22
20220704 140217+00:00 $HCHDT,113.5,T*2F
20220704 140218+00:00 $GPRMC,140212,A,4845.8196,N,12532.9898,W,9.19,116,040722,12.1,E,A,V*63
20220704 140218+00:00 $WIMWV,130.79,R,0.39,N,A*25
20220704 140219+00:00 $IIMDA,29.9,I,1.012,B,12.3,C,,C,93.2,,,C,,T,,M,,N,,M*22
20220704 140219+00:00 $HCHDT,113.7,T*2D
20220704 140220+00:00 $GPRMC,140214,A,4845.8100,N,12532.9796,W,9.19,115,040722,12.1,E,A,V*68
20220704 140220+00:00 $WIMWV,111.1,R,0.7,N,A*24
20220704 140221+00:00 $IIMDA,29.9,I,1.011,B,12.3,C,,C,93.2,,,C,,T,,M,,N,,M*21
20220704 140221+00:00 $HCHDT,113.8,T*22
20220704 140222+00:00 $GPRMC,140218,A,4845.8100,N,12532.9700,W,9.19,115,040722,12.1,E,A,V*6B
20220704 140222+00:00 $WIMWV,119.5,R,1.89,N,A*1F
20220704 140223+00:00 $IIMDA,29.9,I,1.012,B,12.3,C,,C,93.2,,,C,,T,,M,,N,,M*22
20220704 140223+00:00 $HCHDT,114.5,T*28
20220704 140224+00:00 $GPRMC,140220,A,4845.8100,N,12532.9700,W,9.19,116,040722,12.1,E,A,V*63
20220704 140224+00:00 $WIMWV,119.79,R,2.2,N,A*14
20220704 140225+00:00 $IIMDA,29.9,I,1.012,B,12.3,C,,C,93.2,,,C,,T,,M,,N,,M*22
20220704 140225+00:00 $HCHDT,114.8,T*25
20220704 140226+00:00 $GPRMC,140222,A,4845.8100,N,12532.9598,W,9.19,116,040722,12.1,E,A,V*62
20220704 140226+00:00 $WIMWV,127.79,R,2.99,N,A*2B
20220704 140227+00:00 $IIMDA,29.9,I,1.012,B,12.3,C,,C,93.2,,,C,,T,,M,,N,,M*22
20220704 140227+00:00 $HCHDT,114.5,T*28
20220704 140228+00:00 $GPRMC,140224,A,4845.7998,N,12532.9496,W,9.19,116,040722,12.1,E,A,V*6D
20220704 140228+00:00 $WIMWV,132.19,R,1.5,N,A*1F
20220704 140229+00:00 $IIMDA,29.9,I,1.012,B,12.3,C,,C,93.2,,,C,,T,,M,,N,,M*22
20220704 140229+00:00 $HCHDT,113.8,T*22
20220704 140230+00:00 $GPRMC,140226,A,4845.7998,N,12532.9496,W,9.19,117,040722,12.1,E,A,V*6E
20220704 140230+00:00 $WIMWV,129.09,R,1.59,N,A*2D
20220704 140231+00:00 $IIMDA,29.9,I,1.011,B,12.3,C,,C,93.1,,,C,,T,,M,,N,,M*22
20220704 140231+00:00 $HCHDT,113.4,T*2E
20220704 140232+00:00 $GPRMC,140228,A,4845.7998,N,12532.9400,W,9.19,116,040722,12.1,E,A,V*6E
20220704 140232+00:00 $WIMWV,123.9,R,2.1,N,A*29
20220704 140233+00:00 $IIMDA,29.9,I,1.011,B,12.3,C,,C,93.1,,,C,,T,,M,,N,,M*22
20220704 140233+00:00 $HCHDT,113.2,T*28
20220704 140234+00:00 $GPRMC,140230,A,4845.7998,N,12532.9298,W,9.19,116,040722,12.1,E,A,V*60
20220704 140234+00:00 $WIMWV,143.39,R,1.28,N,A*24
20220704 140235+00:00 $IIMDA,29.9,I,1.012,B,12.3,C,,C,93.1,,,C,,T,,M,,N,,M*21
20220704 140235+00:00 $HCHDT,113,T*34
20220704 140236+00:00 $GPRMC,140232,A,4845.7998,N,12532.9298,W,9.19,116,040722,12.1,E,A,V*62
20220704 140236+00:00 $WIMWV,91.7,R,1.5,N,A*18
20220704 140237+00:00 $IIMDA,29.9,I,1.012,B,12.3,C,,C,93,,,C,,T,,M,,N,,M*3E
20220704 140237+00:00 $HCHDT,112.2,T*29
20220704 140238+00:00 $GPRMC,140234,A,4845.7896,N,12532.9196,W,9.19,116,040722,12.1,E,A,V*66
20220704 140238+00:00 $WIMWV,113.1,R,0.89,N,A*10
20220704 140239+00:00 $IIMDA,29.9,I,1.012,B,12.3,C,,C,93.1,,,C,,T,,M,,N,,M*21
20220704 140239+00:00 $HCHDT,112.2,T*29
20220704 140240+00:00 $GPRMC,140236,A,4845.7896,N,12532.9100,W,9.19,116,040722,12.1,E,A,V*6B
20220704 140240+00:00 $WIMWV,78.09,R,0.58,N,A*18
20220704 140241+00:00 $IIMDA,29.9,I,1.012,B,12.3,C,,C,93.1,,,C,,T,,M,,N,,M*21
20220704 140241+00:00 $HCHDT,112.4,T*2F
20220704 140242+00:00 $GPRMC,140238,A,4845.7896,N,12532.8998,W,9.19,115,040722,12.1,E,A,V*6E
20220704 140242+00:00 $WIMWV,23.59,R,0.58,N,A*13
20220704 140243+00:00 $IIMDA,29.9,I,1.012,B,12.3,C,,C,93.1,,,C,,T,,M,,N,,M*21
20220704 140243+00:00 $HCHDT,113.6,T*2C
20220704 140244+00:00 $GPRMC,140238,A,4845.7896,N,12532.8998,W,9.19,115,040722,12.1,E,A,V*6E
20220704 140244+00:00 $WIMWV,318.59,R,0.89,N,A*24
20220704 140245+00:00 $IIMDA,29.9,I,1.012,B,12.3,C,,C,93.1,,,C,,T,,M,,N,,M*21
20220704 140245+00:00 $HCHDT,114.3,T*2E
20220704 140246+00:00 $GPRMC,140240,A,4845.7896,N,12532.8896,W,9.19,115,040722,12.1,E,A,V*6E
20220704 140246+00:00 $WIMWV,0.19,R,0.58,N,A*26
20220704 140247+00:00 $IIMDA,29.9,I,1.012,B,12.3,C,,C,93.1,,,C,,T,,M,,N,,M*21
20220704 140247+00:00 $HCHDT,114,T*33
20220704 140248+00:00 $GPRMC,140244,A,4845.7800,N,12532.8800,W,9.19,115,040722,12.1,E,A,V*6A
20220704 140248+00:00 $WIMWV,338.19,R,1.19,N,A*2A
20220704 140249+00:00 $IIMDA,29.9,I,1.012,B,12.3,C,,C,93.1,,,C,,T,,M,,N,,M*21
20220704 140249+00:00 $HCHDT,113.6,T*2C
20220704 140250+00:00 $GPRMC,140246,A,4845.7800,N,12532.8800,W,9.19,115,040722,12.1,E,A,V*68
20220704 140250+00:00 $WIMWV,51.19,R,0.29,N,A*14
20220704 140251+00:00 $IIMDA,29.9,I,1.012,B,12.3,C,,C,93.2,,,C,,T,,M,,N,,M*22
20220704 140251+00:00 $HCHDT,113.5,T*2F
20220704 140252+00:00 $GPRMC,140248,A,4845.7800,N,12532.8698,W,9.19,115,040722,12.1,E,A,V*69
20220704 140252+00:00 $WIMWV,0.19,R,0.89,N,A*2A
20220704 140253+00:00 $IIMDA,29.9,I,1.012,B,12.3,C,,C,93.1,,,C,,T,,M,,N,,M*21
20220704 140253+00:00 $HCHDT,114.1,T*2C
20220704 140254+00:00 $GPRMC,140248,A,4845.7800,N,12532.8596,W,9.19,115,040722,12.1,E,A,V*64
20220704 140254+00:00 $WIMWV,53.5,R,0.29,N,A*2B
20220704 140255+00:00 $IIMDA,29.9,I,1.012,B,12.3,C,,C,93.2,,,C,,T,,M,,N,,M*22
20220704 140255+00:00 $HCHDT,114.5,T*28
20220704 140256+00:00 $GPRMC,140252,A,4845.7698,N,12532.8596,W,9.19,116,040722,12.1,E,A,V*63
20220704 140256+00:00 $WIMWV,157.09,R,0.8,N,A*11
20220704 140257+00:00 $IIMDA,29.9,I,1.012,B,12.3,C,,C,93.2,,,C,,T,,M,,N,,M*22
20220704 140257+00:00 $HCHDT,114.2,T*2F
20220704 140258+00:00 $GPRMC,140254,A,4845.7698,N,12532.8500,W,9.29,116,040722,12.1,E,A,V*69
20220704 140258+00:00 $WIMWV,221,R,0.99,N,A*0C
20220704 140259+00:00 $IIMDA,29.9,I,1.011,B,12.3,C,,C,93.2,,,C,,T,,M,,N,,M*21
20220704 140259+00:00 $HCHDT,113.5,T*2F
20220704 140300+00:00 $GPRMC,140256,A,4845.7698,N,12532.8398,W,9.29,117,040722,12.1,E,A,V*6D
20220704 140300+00:00 $WIMWV,323.99,R,0.89,N,A*20
20220704 140301+00:00 $IIMDA,29.9,I,1.011,B,12.3,C,,C,93.2,,,C,,T,,M,,N,,M*21
20220704 140301+00:00 $HCHDT,112.9,T*22
20220704 140302+00:00 $GPRMC,140258,A,4845.7698,N,12532.8296,W,9.29,117,040722,12.1,E,A,V*6C
20220704 140302+00:00 $WIMWV,101.29,R,1.09,N,A*20
20220704 140303+00:00 $IIMDA,29.9,I,1.011,B,12.3,C,,C,93.2,,,C,,T,,M,,N,,M*21
20220704 140303+00:00 $HCHDT,112.6,T*2D
20220704 140304+00:00 $GPRMC,140300,A,4845.7596,N,12532.8296,W,9.29,116,040722,12.1,E,A,V*6C
20220704 140304+00:00 $WIMWV,116.09,R,1.59,N,A*21
20220704 140305+00:00 $IIMDA,29.9,I,1.011,B,12.3,C,,C,93.2,,,C,,T,,M,,N,,M*21
20220704 140305+00:00 $HCHDT,112.8,T*23
20220704 140306+00:00 $GPRMC,140302,A,4845.7596,N,12532.8200,W,9.29,116,040722,12.1,E,A,V*61
20220704 140306+00:00 $WIMWV,42.1,R,0.58,N,A*29
20220704 140307+00:00 $IIMDA,29.9,I,1.011,B,12.3,C,,C,93.1,,,C,,T,,M,,N,,M*22
20220704 140307+00:00 $HCHDT,113.6,T*2C
20220704 140308+00:00 $GPRMC,140304,A,4845.7596,N,12532.8098,W,9.29,116,040722,12.1,E,A,V*64
20220704 140308+00:00 $WIMWV,36.1,R,0.49,N,A*2A
20220704 140309+00:00 $IIMDA,29.9,I,1.011,B,12.3,C,,C,93.1,,,C,,T,,M,,N,,M*22
20220704 140309+00:00 $HCHDT,113.4,T*2E
20220704 140310+00:00 $GPRMC,140306,A,4845.7596,N,12532.8098,W,9.29,116,040722,12.1,E,A,V*66
20220704 140310+00:00 $WIMWV,180.6,R,0.89,N,A*1D
20220704 140311+00:00 $IIMDA,29.9,I,1.011,B,12.3,C,,C,93.1,,,C,,T,,M,,N,,M*22
20220704 140311+00:00 $HCHDT,112.7,T*2C
20220704 140312+00:00 $GPRMC,140308,A,4845.7596,N,12532.7996,W,9.19,116,040722,12.1,E,A,V*63
20220704 140312+00:00 $WIMWV,135.1,R,1.59,N,A*18
20220704 140313+00:00 $IIMDA,29.9,I,1.011,B,12.3,C,,C,93.1,,,C,,T,,M,,N,,M*22
20220704 140313+00:00 $HCHDT,112.1,T*2A
20220704 140314+00:00 $GPRMC,140310,A,4845.7500,N,12532.7900,W,9.19,116,040722,12.1,E,A,V*6A
20220704 140314+00:00 $WIMWV,115.7,R,0.99,N,A*11
20220704 140315+00:00 $IIMDA,29.9,I,1.012,B,12.3,C,,C,93.1,,,C,,T,,M,,N,,M*21
20220704 140315+00:00 $HCHDT,112.1,T*2A
20220704 140316+00:00 $GPRMC,140312,A,4845.7500,N,12532.7900,W,9.19,115,040722,12.1,E,A,V*6B
20220704 140316+00:00 $WIMWV,91.7,R,1.09,N,A*24
20220704 140317+00:00 $IIMDA,29.9,I,1.012,B,12.3,C,,C,93.1,,,C,,T,,M,,N,,M*21
20220704 140317+00:00 $HCHDT,113,T*34
20220704 140318+00:00 $GPRMC,140314,A,4845.7500,N,12532.7798,W,9.19,115,040722,12.1,E,A,V*62
20220704 140318+00:00 $WIMWV,118.6,R,1.79,N,A*12
20220704 140319+00:00 $IIMDA,29.9,I,1.012,B,12.3,C,,C,93.1,,,C,,T,,M,,N,,M*21
20220704 140319+00:00 $HCHDT,113.9,T*23
20220704 140320+00:00 $GPRMC,140314,A,4845.7500,N,12532.7696,W,9.19,115,040722,12.1,E,A,V*6D
20220704 140320+00:00 $WIMWV,121.5,R,1.79,N,A*1B
20220704 140321+00:00 $IIMDA,29.9,I,1.011,B,12.3,C,,C,93.1,,,C,,T,,M,,N,,M*22
20220704 140321+00:00 $HCHDT,113.4,T*2E
20220704 140322+00:00 $GPRMC,140318,A,4845.7398,N,12532.7600,W,9.19,115,040722,12.1,E,A,V*69
20220704 140322+00:00 $WIMWV,124.8,R,1.79,N,A*13
20220704 140323+00:00 $IIMDA,29.9,I,1.011,B,12.3,C,,C,93,,,C,,T,,M,,N,,M*3D
20220704 140323+00:00 $HCHDT,112.6,T*2D
20220704 140324+00:00 $GPRMC,140320,A,4845.7398,N,12532.7600,W,9.19,115,040722,12.1,E,A,V*62
20220704 140324+00:00 $WIMWV,128.19,R,1.19,N,A*29
20220704 140325+00:00 $IIMDA,29.9,I,1.011,B,12.3,C,,C,93,,,C,,T,,M,,N,,M*3D
20220704 140325+00:00 $HCHDT,112.4,T*2F
20220704 140326+00:00 $GPRMC,140322,A,4845.7398,N,12532.7498,W,9.19,115,040722,12.1,E,A,V*63
20220704 140326+00:00 $WIMWV,126.69,R,1.69,N,A*27
20220704 140327+00:00 $IIMDA,29.9,I,1.012,B,12.3,C,,C,93,,,C,,T,,M,,N,,M*3E
20220704 140327+00:00 $HCHDT,112.6,T*2D
20220704 140328+00:00 $GPRMC,140324,A,4845.7398,N,12532.7396,W,9.29,115,040722,12.1,E,A,V*6F
20220704 140328+00:00 $WIMWV,113.59,R,1.09,N,A*24
20220704 140329+00:00 $IIMDA,29.9,I,1.012,B,12.3,C,,C,93,,,C,,T,,M,,N,,M*3E
20220704 140329+00:00 $HCHDT,113.2,T*28
20220704 140330+00:00 $GPRMC,140326,A,4845.7398,N,12532.7396,W,9.29,115,040722,12.1,E,A,V*6D
20220704 140330+00:00 $WIMWV,127.09,R,2.49,N,A*21
20220704 140331+00:00 $IIMDA,29.9,I,1.012,B,12.3,C,,C,93,,,C,,T,,M,,N,,M*3E
20220704 140331+00:00 $HCHDT,113.3,T*29
20220704 140332+00:00 $GPRMC,140328,A,4845.7296,N,12532.7300,W,9.29,115,040722,12.1,E,A,V*63
20220704 140332+00:00 $WIMWV,134.1,R,1.79,N,A*1B
20220704 140333+00:00 $IIMDA,29.9,I,1.012,B,12.3,C,,C,92.9,,,C,,T,,M,,N,,M*28
20220704 140333+00:00 $HCHDT,112.7,T*2C
20220704 140334+00:00 $GPRMC,140328,A,4845.7296,N,12532.7198,W,9.29,115,040722,12.1,E,A,V*60
20220704 140334+00:00 $WIMWV,127.4,R,1.98,N,A*13
20220704 140335+00:00 $IIMDA,29.9,I,1.012,B,12.3,C,,C,93,,,C,,T,,M,,N,,M*3E
20220704 140335+00:00 $HCHDT,112.5,T*2E
20220704 140336+00:00 $GPRMC,140332,A,4845.7296,N,12532.7096,W,9.19,115,040722,12.1,E,A,V*67
20220704 140336+00:00 $WIMWV,120.2,R,1.4,N,A*27
20220704 140337+00:00 $IIMDA,29.9,I,1.012,B,12.3,C,,C,93,,,C,,T,,M,,N,,M*3E
20220704 140337+00:00 $HCHDT,112.9,T*22
20220704 140338+00:00 $GPRMC,140334,A,4845.7296,N,12532.7096,W,9.19,115,040722,12.1,E,A,V*61
20220704 140338+00:00 $WIMWV,117.9,R,0.58,N,A*10
20220704 140339+00:00 $IIMDA,29.9,I,1.012,B,12.3,C,,C,93,,,C,,T,,M,,N,,M*3E
20220704 140339+00:00 $HCHDT,113.1,T*2B
20220704 140340+00:00 $GPRMC,140336,A,4845.7296,N,12532.7000,W,9.29,115,040722,12.1,E,A,V*6F
20220704 140340+00:00 $WIMWV,295.19,R,0.58,N,A*28
20220704 140341+00:00 $IIMDA,29.9,I,1.012,B,12.3,C,,C,93,,,C,,T,,M,,N,,M*3E
20220704 140341+00:00 $HCHDT,113.1,T*2B
20220704 140342+00:00 $GPRMC,140338,A,4845.7200,N,12532.6898,W,9.29,115,040722,12.1,E,A,V*66
20220704 140342+00:00 $WIMWV,269.99,R,0.49,N,A*23
20220704 140343+00:00 $IIMDA,29.9,I,1.012,B,12.3,C,,C,93,,,C,,T,,M,,N,,M*3E
20220704 140343+00:00 $HCHDT,112.9,T*22
20220704 140344+00:00 $GPRMC,140338,A,4845.7200,N,12532.6898,W,9.29,115,040722,12.1,E,A,V*66
20220704 140344+00:00 $WIMWV,283.39,R,0.89,N,A*21
20220704 140345+00:00 $IIMDA,29.9,I,1.012,B,12.3,C,,C,93.1,,,C,,T,,M,,N,,M*21
20220704 140345+00:00 $HCHDT,112.8,T*23
20220704 140346+00:00 $GPRMC,140342,A,4845.7200,N,12532.6796,W,9.29,115,040722,12.1,E,A,V*6A
20220704 140346+00:00 $WIMWV,32.6,R,0.39,N,A*2E
20220704 140347+00:00 $IIMDA,29.9,I,1.012,B,12.3,C,,C,93.1,,,C,,T,,M,,N,,M*21
20220704 140347+00:00 $HCHDT,112.5,T*2E
20220704 140348+00:00 $GPRMC,140344,A,4845.7200,N,12532.6700,W,9.29,115,040722,12.1,E,A,V*63
20220704 140348+00:00 $WIMWV,49.19,R,1.79,N,A*19
20220704 140349+00:00 $IIMDA,29.9,I,1.012,B,12.3,C,,C,93.1,,,C,,T,,M,,N,,M*21
20220704 140349+00:00 $HCHDT,112.6,T*2D
20220704 140350+00:00 $GPRMC,140346,A,4845.7098,N,12532.6700,W,9.29,115,040722,12.1,E,A,V*62
20220704 140350+00:00 $WIMWV,65.49,R,1.28,N,A*16
20220704 140351+00:00 $IIMDA,29.9,I,1.012,B,12.3,C,,C,93.1,,,C,,T,,M,,N,,M*21
20220704 140351+00:00 $HCHDT,112.8,T*23
20220704 140352+00:00 $GPRMC,140348,A,4845.7098,N,12532.6598,W,9.29,115,040722,12.1,E,A,V*6F
20220704 140352+00:00 $WIMWV,269.99,R,0.1,N,A*1F
20220704 140353+00:00 $IIMDA,29.9,I,1.012,B,12.3,C,,C,93.1,,,C,,T,,M,,N,,M*21
20220704 140353+00:00 $HCHDT,113.4,T*2E
20220704 140354+00:00 $GPRMC,140350,A,4845.7098,N,12532.6496,W,9.29,115,040722,12.1,E,A,V*69
20220704 140354+00:00 $WIMWV,321.59,R,1.4,N,A*1A
20220704 140355+00:00 $IIMDA,29.9,I,1.012,B,12.3,C,,C,93.1,,,C,,T,,M,,N,,M*21
20220704 140355+00:00 $HCHDT,113.7,T*2D
20220704 140356+00:00 $GPRMC,140350,A,4845.7098,N,12532.6400,W,9.19,116,040722,12.1,E,A,V*66
20220704 140356+00:00 $WIMWV,327.39,R,1.89,N,A*2F
20220704 140357+00:00 $IIMDA,29.9,I,1.012,B,12.3,C,,C,93.1,,,C,,T,,M,,N,,M*21
20220704 140357+00:00 $HCHDT,113.5,T*2F
20220704 140358+00:00 $GPRMC,140354,A,4845.7098,N,12532.6400,W,9.19,116,040722,12.1,E,A,V*62
20220704 140358+00:00 $WIMWV,31,R,0.7,N,A*08
20220704 140359+00:00 $IIMDA,29.9,I,1.012,B,12.3,C,,C,93.1,,,C,,T,,M,,N,,M*21
20220704 140359+00:00 $HCHDT,113,T*34
20220704 140400+00:00 $GPRMC,140356,A,4845.6996,N,12532.6298,W,9.19,116,040722,12.1,E,A,V*61
20220704 140400+00:00 $WIMWV,71.29,R,0.7,N,A*29
20220704 140401+00:00 $IIMDA,29.9,I,1.012,B,12.3,C,,C,93.1,,,C,,T,,M,,N,,M*21
20220704 140401+00:00 $HCHDT,113,T*34
20220704 140402+00:00 $GPRMC,140358,A,4845.6996,N,12532.6196,W,9.29,116,040722,12.1,E,A,V*61
20220704 140402+00:00 $WIMWV,52.69,R,0.39,N,A*11
20220704 140403+00:00 $IIMDA,29.9,I,1.012,B,12.3,C,,C,93.2,,,C,,T,,M,,N,,M*22
20220704 140403+00:00 $HCHDT,113.2,T*28
20220704 140404+00:00 $GPRMC,140400,A,4845.6996,N,12532.6196,W,9.29,116,040722,12.1,E,A,V*6B
20220704 140404+00:00 $WIMWV,72.99,R,0.89,N,A*17
20220704 140405+00:00 $IIMDA,29.9,I,1.012,B,12.3,C,,C,93.2,,,C,,T,,M,,N,,M*22
20220704 140405+00:00 $HCHDT,113.3,T*29
20220704 140406+00:00 $GPRMC,140402,A,4845.6996,N,12532.6100,W,9.29,115,040722,12.1,E,A,V*65
20220704 140406+00:00 $WIMWV,79.6,R,0.89,N,A*2A
20220704 140407+00:00 $IIMDA,29.9,I,1.012,B,12.3,C,,C,93.2,,,C,,T,,M,,N,,M*22
20220704 140407+00:00 $HCHDT,113.5,T*2F
20220704 140408+00:00 $GPRMC,140402,A,4845.6900,N,12532.5998,W,9.19,116,040722,12.1,E,A,V*60
20220704 140408+00:00 $WIMWV,27.7,R,0.8,N,A*19
20220704 140409+00:00 $IIMDA,29.9,I,1.012,B,12.3,C,,C,93.1,,,C,,T,,M,,N,,M*21
20220704 140409+00:00 $HCHDT,113.7,T*2D
20220704 140410+00:00 $GPRMC,140406,A,4845.6900,N,12532.5998,W,9.19,116,040722,12.1,E,A,V*64
20220704 140410+00:00 $WIMWV,269.99,R,0.39,N,A*24
20220704 140411+00:00 $IIMDA,29.9,I,1.012,B,12.3,C,,C,93.2,,,C,,T,,M,,N,,M*22
20220704 140411+00:00 $HCHDT,113.9,T*23
20220704 140412+00:00 $GPRMC,140408,A,4845.6900,N,12532.5896,W,9.19,116,040722,12.1,E,A,V*65
20220704 140412+00:00 $WIMWV,151.9,R,0.58,N,A*12
20220704 140413+00:00 $IIMDA,29.9,I,1.012,B,12.3,C,,C,93.2,,,C,,T,,M,,N,,M*22
20220704 140413+00:00 $HCHDT,113.6,T*2C
20220704 140414+00:00 $GPRMC,140410,A,4845.6900,N,12532.5800,W,9.19,116,040722,12.1,E,A,V*63
20220704 140414+00:00 $WIMWV,269.99,R,0.19,N,A*26
20220704 140415+00:00 $IIMDA,29.9,I,1.012,B,12.3,C,,C,93.1,,,C,,T,,M,,N,,M*21
20220704 140415+00:00 $HCHDT,113.2,T*28
20220704 140416+00:00 $GPRMC,140412,A,4845.6900,N,12532.5698,W,9.29,116,040722,12.1,E,A,V*6D
20220704 140416+00:00 $WIMWV,64.6,R,0.49,N,A*2A
20220704 140417+00:00 $IIMDA,29.9,I,1.012,B,12.3,C,,C,93.1,,,C,,T,,M,,N,,M*21
20220704 140417+00:00 $HCHDT,112.8,T*23
20220704 140418+00:00 $GPRMC,140412,A,4845.6798,N,12532.5698,W,9.29,116,040722,12.1,E,A,V*62
20220704 140418+00:00 $WIMWV,97.49,R,1.98,N,A*10
20220704 140419+00:00 $IIMDA,29.9,I,1.012,B,12.3,C,,C,93.2,,,C,,T,,M,,N,,M*22
20220704 140419+00:00 $HCHDT,113.1,T*2B
20220704 140420+00:00 $GPRMC,140416,A,4845.6798,N,12532.5596,W,9.29,116,040722,12.1,E,A,V*6B
20220704 140420+00:00 $WIMWV,150.89,R,1.5,N,A*12
20220704 140421+00:00 $IIMDA,29.9,I,1.012,B,12.3,C,,C,93.1,,,C,,T,,M,,N,,M*21
20220704 140421+00:00 $HCHDT,113.3,T*29
20220704 140422+00:00 $GPRMC,140418,A,4845.6798,N,12532.5500,W,9.19,116,040722,12.1,E,A,V*69
20220704 140422+00:00 $WIMWV,232.19,R,0.8,N,A*10
20220704 140423+00:00 $IIMDA,29.9,I,1.012,B,12.3,C,,C,93.2,,,C,,T,,M,,N,,M*22
20220704 140423+00:00 $HCHDT,113,T*34
20220704 140424+00:00 $GPRMC,140420,A,4845.6798,N,12532.5500,W,9.19,116,040722,12.1,E,A,V*62
20220704 140424+00:00 $WIMWV,319.19,R,1.28,N,A*2B
20220704 140425+00:00 $IIMDA,29.9,I,1.011,B,12.3,C,,C,93.2,,,C,,T,,M,,N,,M*21
20220704 140425+00:00 $HCHDT,112.5,T*2E
20220704 140426+00:00 $GPRMC,140422,A,4845.6696,N,12532.5398,W,9.19,116,040722,12.1,E,A,V*68
20220704 140426+00:00 $WIMWV,302.29,R,1.89,N,A*29
20220704 140427+00:00 $IIMDA,29.9,I,1.012,B,12.3,C,,C,93.2,,,C,,T,,M,,N,,M*22
20220704 140427+00:00 $HCHDT,112.3,T*28
20220704 140428+00:00 $GPRMC,140424,A,4845.6696,N,12532.5296,W,9.19,116,040722,12.1,E,A,V*61
20220704 140428+00:00 $WIMWV,242.4,R,0.8,N,A*2B
20220704 140429+00:00 $IIMDA,29.9,I,1.012,B,12.3,C,,C,93.2,,,C,,T,,M,,N,,M*22
20220704 140429+00:00 $HCHDT,112,T*35
20220704 140430+00:00 $GPRMC,140424,A,4845.6696,N,12532.5296,W,9.29,115,040722,12.1,E,A,V*61
20220704 140430+00:00 $WIMWV,330.49,R,0.58,N,A*23
20220704 140431+00:00 $IIMDA,29.9,I,1.012,B,12.3,C,,C,93.2,,,C,,T,,M,,N,,M*22
20220704 140431+00:00 $HCHDT,112.4,T*2F
20220704 140432+00:00 $GPRMC,140428,A,4845.6696,N,12532.5200,W,9.29,115,040722,12.1,E,A,V*62
20220704 140432+00:00 $WIMWV,32.7,R,1.59,N,A*28
20220704 140433+00:00 $IIMDA,29.9,I,1.012,B,12.3,C,,C,93.2,,,C,,T,,M,,N,,M*22
20220704 140433+00:00 $HCHDT,113.1,T*2B
20220704 140434+00:00 $GPRMC,140430,A,4845.6696,N,12532.5098,W,9.29,115,040722,12.1,E,A,V*68
20220704 140434+00:00 $WIMWV,327.69,R,1.19,N,A*23
20220704 140435+00:00 $IIMDA,29.9,I,1.012,B,12.3,C,,C,93.2,,,C,,T,,M,,N,,M*22
20220704 140435+00:00 $HCHDT,113.1,T*2B
20220704 140436+00:00 $GPRMC,140432,A,4845.6600,N,12532.4996,W,9.29,115,040722,12.1,E,A,V*63
20220704 140436+00:00 $WIMWV,317.79,R,0.58,N,A*25
20220704 140437+00:00 $IIMDA,29.9,I,1.012,B,12.3,C,,C,93.2,,,C,,T,,M,,N,,M*22
20220704 140437+00:00 $HCHDT,112.5,T*2E
20220704 140438+00:00 $GPRMC,140434,A,4845.6600,N,12532.4996,W,9.29,115,040722,12.1,E,A,V*65
20220704 140438+00:00 $WIMWV,311.49,R,1.09,N,A*25
20220704 140439+00:00 $IIMDA,29.9,I,1.012,B,12.3,C,,C,93.2,,,C,,T,,M,,N,,M*22
20220704 140439+00:00 $HCHDT,112.5,T*2E
20220704 140440+00:00 $GPRMC,140436,A,4845.6600,N,12532.4900,W,9.19,115,040722,12.1,E,A,V*6B
20220704 140440+00:00 $WIMWV,337.59,R,0.89,N,A*29
20220704 140441+00:00 $IIMDA,29.9,I,1.012,B,12.3,C,,C,93.1,,,C,,T,,M,,N,,M*21
20220704 140441+00:00 $HCHDT,112.9,T*22
20220704 140442+00:00 $GPRMC,140438,A,4845.6600,N,12532.4798,W,9.19,115,040722,12.1,E,A,V*6A
20220704 140442+00:00 $WIMWV,315.39,R,1.19,N,A*27
20220704 140443+00:00 $IIMDA,29.9,I,1.012,B,12.3,C,,C,93.2,,,C,,T,,M,,N,,M*22
20220704 140443+00:00 $HCHDT,113.7,T*2D
20220704 140444+00:00 $GPRMC,140440,A,4845.6498,N,12532.4798,W,9.19,115,040722,12.1,E,A,V*66
20220704 140444+00:00 $WIMWV,300.39,R,1.28,N,A*21
20220704 140445+00:00 $IIMDA,29.9,I,1.012,B,12.3,C,,C,93.2,,,C,,T,,M,,N,,M*22
20220704 140445+00:00 $HCHDT,114.1,T*2C
20220704 140446+00:00 $GPRMC,140442,A,4845.6498,N,12532.4696,W,9.29,115,040722,12.1,E,A,V*68
20220704 140446+00:00 $WIMWV,217.79,R,0.89,N,A*28
20220704 140447+00:00 $IIMDA,29.9,I,1.012,B,12.3,C,,C,93.2,,,C,,T,,M,,N,,M*22
20220704 140447+00:00 $HCHDT,114.3,T*2E
20220704 140448+00:00 $GPRMC,140444,A,4845.6498,N,12532.4600,W,9.29,115,040722,12.1,E,A,V*61
20220704 140448+00:00 $WIMWV,22,R,1.5,N,A*09
20220704 140449+00:00 $IIMDA,29.9,I,1.012,B,12.3,C,,C,93.2,,,C,,T,,M,,N,,M*22
20220704 140449+00:00 $HCHDT,113.9,T*23
20220704 140450+00:00 $GPRMC,140446,A,4845.6498,N,12532.4600,W,9.29,116,040722,12.1,E,A,V*60
20220704 140450+00:00 $WIMWV,128.19,R,3.38,N,A*28
20220704 140451+00:00 $IIMDA,29.9,I,1.012,B,12.3,C,,C,93.2,,,C,,T,,M,,N,,M*22
20220704 140451+00:00 $HCHDT,113.6,T*2C
20220704 140452+00:00 $GPRMC,140448,A,4845.6498,N,12532.4498,W,9.19,116,040722,12.1,E,A,V*6E
20220704 140452+00:00 $WIMWV,86.1,R,2.1,N,A*1F
20220704 140453+00:00 $IIMDA,29.9,I,1.012,B,12.3,C,,C,93.2,,,C,,T,,M,,N,,M*22
20220704 140453+00:00 $HCHDT,113.1,T*2B
20220704 140454+00:00 $GPRMC,140450,A,4845.6396,N,12532.4396,W,9.19,116,040722,12.1,E,A,V*67
20220704 140454+00:00 $WIMWV,121.99,R,2.39,N,A*29
20220704 140455+00:00 $IIMDA,29.9,I,1.012,B,12.2,C,,C,93.2,,,C,,T,,M,,N,,M*23
20220704 140455+00:00 $HCHDT,113,T*34
20220704 140456+00:00 $GPRMC,140452,A,4845.6396,N,12532.4300,W,9.19,116,040722,12.1,E,A,V*6A
20220704 140456+00:00 $WIMWV,62.8,R,0.58,N,A*22
20220704 140457+00:00 $IIMDA,29.9,I,1.012,B,12.2,C,,C,93.2,,,C,,T,,M,,N,,M*23
20220704 140457+00:00 $HCHDT,113.3,T*29
20220704 140458+00:00 $GPRMC,140454,A,4845.6396,N,12532.4300,W,9.19,115,040722,12.1,E,A,V*6F
20220704 140458+00:00 $WIMWV,97.9,R,1.69,N,A*2A
20220704 140459+00:00 $IIMDA,29.9,I,1.012,B,12.2,C,,C,93.2,,,C,,T,,M,,N,,M*23
20220704 140459+00:00 $HCHDT,113.8,T*22
20220704 140500+00:00 $GPRMC,140456,A,4845.6396,N,12532.4198,W,9.19,115,040722,12.1,E,A,V*6E
20220704 140500+00:00 $WIMWV,128.39,R,3.6,N,A*17
20220704 140501+00:00 $IIMDA,29.9,I,1.012,B,12.2,C,,C,93.2,,,C,,T,,M,,N,,M*23
20220704 140501+00:00 $HCHDT,113.7,T*2D
20220704 140502+00:00 $GPRMC,140458,A,4845.6300,N,12532.4096,W,9.19,115,040722,12.1,E,A,V*60
20220704 140502+00:00 $WIMWV,96.1,R,1.79,N,A*22
20220704 140503+00:00 $IIMDA,29.9,I,1.012,B,12.2,C,,C,93.2,,,C,,T,,M,,N,,M*23
20220704 140503+00:00 $HCHDT,113.6,T*2C
20220704 140504+00:00 $GPRMC,140500,A,4845.6300,N,12532.4096,W,9.19,115,040722,12.1,E,A,V*6C
20220704 140504+00:00 $WIMWV,27.99,R,0.8,N,A*2E
20220704 140505+00:00 $IIMDA,29.9,I,1.012,B,12.2,C,,C,93.1,,,C,,T,,M,,N,,M*20
20220704 140505+00:00 $HCHDT,113.9,T*23
20220704 140506+00:00 $GPRMC,140502,A,4845.6300,N,12532.4000,W,9.19,116,040722,12.1,E,A,V*62
20220704 140506+00:00 $WIMWV,325.09,R,1.98,N,A*2E
20220704 140507+00:00 $IIMDA,29.9,I,1.011,B,12.2,C,,C,93.2,,,C,,T,,M,,N,,M*20
20220704 140507+00:00 $HCHDT,114.1,T*2C
20220704 140508+00:00 $GPRMC,140504,A,4845.6300,N,12532.3898,W,9.19,116,040722,12.1,E,A,V*6A
20220704 140508+00:00 $WIMWV,333.99,R,1.28,N,A*2B
20220704 140509+00:00 $IIMDA,29.9,I,1.012,B,12.2,C,,C,93.1,,,C,,T,,M,,N,,M*20
20220704 140509+00:00 $HCHDT,113.7,T*2D
20220704 140510+00:00 $GPRMC,140506,A,4845.6300,N,12532.3898,W,9.19,115,040722,12.1,E,A,V*6B
20220704 140510+00:00 $WIMWV,10.1,R,0.8,N,A*1B
20220704 140511+00:00 $IIMDA,29.9,I,1.012,B,12.2,C,,C,93.1,,,C,,T,,M,,N,,M*20
20220704 140511+00:00 $HCHDT,113.6,T*2C
20220704 140512+00:00 $GPRMC,140508,A,4845.6198,N,12532.3796,W,9.19,115,040722,12.1,E,A,V*67
20220704 140512+00:00 $WIMWV,123.4,R,3.38,N,A*1F
20220704 140513+00:00 $IIMDA,29.9,I,1.012,B,12.2,C,,C,93.1,,,C,,T,,M,,N,,M*20
20220704 140513+00:00 $HCHDT,113.6,T*2C
20220704 140514+00:00 $GPRMC,140510,A,4845.6198,N,12532.3700,W,9.19,116,040722,12.1,E,A,V*62
20220704 140514+00:00 $WIMWV,117.9,R,2.39,N,A*15
20220704 140515+00:00 $IIMDA,29.9,I,1.012,B,12.2,C,,C,93.1,,,C,,T,,M,,N,,M*20
20220704 140515+00:00 $HCHDT,113.6,T*2C
20220704 140516+00:00 $GPRMC,140512,A,4845.6198,N,12532.3598,W,9.19,116,040722,12.1,E,A,V*63
20220704 140516+00:00 $WIMWV,127.49,R,4.08,N,A*26
20220704 140517+00:00 $IIMDA,29.9,I,1.012,B,12.2,C,,C,93.1,,,C,,T,,M,,N,,M*20
20220704 140517+00:00 $HCHDT,113.6,T*2C
20220704 140518+00:00 $GPRMC,140514,A,4845.6198,N,12532.3598,W,9.19,116,040722,12.1,E,A,V*65
20220704 140518+00:00 $WIMWV,127.99,R,3.69,N,A*2B
20220704 140519+00:00 $IIMDA,29.9,I,1.012,B,12.2,C,,C,93.1,,,C,,T,,M,,N,,M*20
20220704 140519+00:00 $HCHDT,113.7,T*2D
20220704 140520+00:00 $GPRMC,140516,A,4845.6198,N,12532.3496,W,9.19,116,040722,12.1,E,A,V*68
20220704 140520+00:00 $WIMWV,124.39,R,2.2,N,A*1E
20220704 140521+00:00 $IIMDA,29.9,I,1.012,B,12.2,C,,C,93.1,,,C,,T,,M,,N,,M*20
20220704 140521+00:00 $HCHDT,113.8,T*22
20220704 140522+00:00 $GPRMC,140518,A,4845.6096,N,12532.3400,W,9.19,116,040722,12.1,E,A,V*66
20220704 140522+00:00 $WIMWV,127.4,R,2.99,N,A*11
20220704 140523+00:00 $IIMDA,29.9,I,1.012,B,12.2,C,,C,93.1,,,C,,T,,M,,N,,M*20
20220704 140523+00:00 $HCHDT,113.5,T*2F
20220704 140524+00:00 $GPRMC,140520,A,4845.6096,N,12532.3400,W,9.19,116,040722,12.1,E,A,V*6D
20220704 140524+00:00 $WIMWV,117.3,R,1.89,N,A*17
20220704 140525+00:00 $IIMDA,29.9,I,1.012,B,12.2,C,,C,93.1,,,C,,T,,M,,N,,M*20
20220704 140525+00:00 $HCHDT,113.3,T*29
20220704 140526+00:00 $GPRMC,140522,A,4845.6096,N,12532.3298,W,9.19,116,040722,12.1,E,A,V*68
20220704 140526+00:00 $WIMWV,114.2,R,1.5,N,A*21
20220704 140527+00:00 $IIMDA,29.9,I,1.012,B,12.2,C,,C,93.1,,,C,,T,,M,,N,,M*20
20220704 140527+00:00 $HCHDT,113.7,T*2D
20220704 140528+00:00 $GPRMC,140524,A,4845.6096,N,12532.3196,W,9.19,115,040722,12.1,E,A,V*60
20220704 140528+00:00 $WIMWV,120.29,R,1.28,N,A*20
20220704 140529+00:00 $IIMDA,29.9,I,1.012,B,12.2,C,,C,93.1,,,C,,T,,M,,N,,M*20
20220704 140529+00:00 $HCHDT,113.8,T*22
20220704 140530+00:00 $GPRMC,140526,A,4845.6000,N,12532.3196,W,9.19,115,040722,12.1,E,A,V*6D
20220704 140530+00:00 $WIMWV,75.4,R,1.69,N,A*2B
20220704 140531+00:00 $IIMDA,29.9,I,1.012,B,12.2,C,,C,93.1,,,C,,T,,M,,N,,M*20
20220704 140531+00:00 $HCHDT,113.2,T*28
20220704 140532+00:00 $GPRMC,140528,A,4845.6000,N,12532.3100,W,9.19,116,040722,12.1,E,A,V*6F
20220704 140532+00:00 $WIMWV,285.89,R,0.89,N,A*2C
20220704 140533+00:00 $IIMDA,29.9,I,1.012,B,12.2,C,,C,93.1,,,C,,T,,M,,N,,M*20
20220704 140533+00:00 $HCHDT,112.8,T*23
20220704 140534+00:00 $GPRMC,140530,A,4845.6000,N,12532.2998,W,9.19,116,040722,12.1,E,A,V*6E
20220704 140534+00:00 $WIMWV,303.79,R,1.79,N,A*22
20220704 140535+00:00 $IIMDA,29.9,I,1.012,B,12.2,C,,C,93,,,C,,T,,M,,N,,M*3F
20220704 140535+00:00 $HCHDT,112.4,T*2F
20220704 140536+00:00 $GPRMC,140532,A,4845.6000,N,12532.2896,W,9.19,116,040722,12.1,E,A,V*63
20220704 140536+00:00 $WIMWV,287.2,R,1.09,N,A*14
20220704 140537+00:00 $IIMDA,29.9,I,1.012,B,12.2,C,,C,93.1,,,C,,T,,M,,N,,M*20
20220704 140537+00:00 $HCHDT,112.4,T*2F
20220704 140538+00:00 $GPRMC,140534,A,4845.6000,N,12532.2896,W,9.19,115,040722,12.1,E,A,V*66
20220704 140538+00:00 $WIMWV,283.59,R,0.58,N,A*2B
20220704 140539+00:00 $IIMDA,29.9,I,1.012,B,12.2,C,,C,93.1,,,C,,T,,M,,N,,M*20
20220704 140539+00:00 $HCHDT,112.5,T*2E
20220704 140540+00:00 $GPRMC,140536,A,4845.5898,N,12532.2800,W,9.19,115,040722,12.1,E,A,V*61
20220704 140540+00:00 $WIMWV,110.2,R,0.8,N,A*29
20220704 140541+00:00 $IIMDA,29.9,I,1.012,B,12.2,C,,C,93.1,,,C,,T,,M,,N,,M*20
20220704 140541+00:00 $HCHDT,112.8,T*23
20220704 140542+00:00 $GPRMC,140538,A,4845.5898,N,12532.2698,W,9.19,115,040722,12.1,E,A,V*60
20220704 140542+00:00 $WIMWV,147.39,R,0.99,N,A*2B
20220704 140543+00:00 $IIMDA,29.9,I,1.012,B,12.2,C,,C,93.1,,,C,,T,,M,,N,,M*20
20220704 140543+00:00 $HCHDT,113.1,T*2B
20220704 140544+00:00 $GPRMC,140540,A,4845.5898,N,12532.2698,W,9.19,115,040722,12.1,E,A,V*6F
20220704 140544+00:00 $WIMWV,91.7,R,1.09,N,A*24
20220704 140545+00:00 $IIMDA,29.9,I,1.012,B,12.2,C,,C,93.1,,,C,,T,,M,,N,,M*20
20220704 140545+00:00 $HCHDT,113.5,T*2F
20220704 140546+00:00 $GPRMC,140542,A,4845.5898,N,12532.2596,W,9.19,115,040722,12.1,E,A,V*60
20220704 140546+00:00 $WIMWV,39.4,R,0.8,N,A*15
20220704 140547+00:00 $IIMDA,29.9,I,1.012,B,12.2,C,,C,93.1,,,C,,T,,M,,N,,M*20
20220704 140547+00:00 $HCHDT,112.9,T*22
20220704 140548+00:00 $GPRMC,140544,A,4845.5796,N,12532.2500,W,9.19,115,040722,12.1,E,A,V*68
20220704 140548+00:00 $WIMWV,336.89,R,0.89,N,A*25
20220704 140549+00:00 $IIMDA,29.9,I,1.012,B,12.2,C,,C,93.1,,,C,,T,,M,,N,,M*20
20220704 140549+00:00 $HCHDT,112.8,T*23
20220704 140550+00:00 $GPRMC,140546,A,4845.5796,N,12532.2500,W,9.19,115,040722,12.1,E,A,V*6A
20220704 140550+00:00 $WIMWV,128.39,R,1.4,N,A*17
20220704 140551+00:00 $IIMDA,29.9,I,1.012,B,12.2,C,,C,93.1,,,C,,T,,M,,N,,M*20
20220704 140551+00:00 $HCHDT,113,T*34
20220704 140552+00:00 $GPRMC,140548,A,4845.5796,N,12532.2398,W,9.19,115,040722,12.1,E,A,V*63
20220704 140552+00:00 $WIMWV,0.19,R,0.49,N,A*26
20220704 140553+00:00 $IIMDA,29.9,I,1.012,B,12.2,C,,C,93.2,,,C,,T,,M,,N,,M*23
20220704 140553+00:00 $HCHDT,113.2,T*28
20220704 140554+00:00 $GPRMC,140550,A,4845.5796,N,12532.2296,W,9.19,115,040722,12.1,E,A,V*65
20220704 140554+00:00 $WIMWV,48.99,R,0.49,N,A*12
20220704 140555+00:00 $IIMDA,29.9,I,1.012,B,12.2,C,,C,93.1,,,C,,T,,M,,N,,M*20
20220704 140555+00:00 $HCHDT,113.5,T*2F
20220704 140556+00:00 $GPRMC,140552,A,4845.5796,N,12532.2200,W,9.19,115,040722,12.1,E,A,V*68
20220704 140556+00:00 $WIMWV,32.6,R,1.19,N,A*2D
20220704 140557+00:00 $IIMDA,29.9,I,1.012,B,12.2,C,,C,93.2,,,C,,T,,M,,N,,M*23
20220704 140557+00:00 $HCHDT,113.8,T*22
20220704 140558+00:00 $GPRMC,140554,A,4845.5700,N,12532.2200,W,9.19,115,040722,12.1,E,A,V*61
20220704 140558+00:00 $WIMWV,180.6,R,0.7,N,A*2B
20220704 140559+00:00 $IIMDA,29.9,I,1.012,B,12.2,C,,C,93.2,,,C,,T,,M,,N,,M*23
20220704 140559+00:00 $HCHDT,113.4,T*2E
20220704 140600+00:00 $GPRMC,140556,A,4845.5700,N,12532.2098,W,9.19,115,040722,12.1,E,A,V*60
20220704 140600+00:00 $WIMWV,149.19,R,0.58,N,A*2A
20220704 140601+00:00 $IIMDA,29.9,I,1.012,B,12.2,C,,C,93.2,,,C,,T,,M,,N,,M*23
20220704 140601+00:00 $HCHDT,113.2,T*28
20220704 140602+00:00 $GPRMC,140558,A,4845.5700,N,12532.1996,W,9.19,115,040722,12.1,E,A,V*6A
20220704 140602+00:00 $WIMWV,189.49,R,1.28,N,A*25
20220704 140603+00:00 $IIMDA,29.9,I,1.012,B,12.2,C,,C,93.2,,,C,,T,,M,,N,,M*23
20220704 140603+00:00 $HCHDT,113.4,T*2E
20220704 140604+00:00 $GPRMC,140600,A,4845.5700,N,12532.1996,W,9.19,115,040722,12.1,E,A,V*64
20220704 140604+00:00 $WIMWV,217.29,R,0.29,N,A*27
20220704 140605+00:00 $IIMDA,29.9,I,1.012,B,12.2,C,,C,93.2,,,C,,T,,M,,N,,M*23
20220704 140605+00:00 $HCHDT,114,T*33
20220704 140606+00:00 $GPRMC,140602,A,4845.5598,N,12532.1900,W,9.19,115,040722,12.1,E,A,V*6A
20220704 140606+00:00 $WIMWV,0.19,R,0.7,N,A*1C
20220704 140607+00:00 $IIMDA,29.9,I,1.012,B,12.2,C,,C,93.3,,,C,,T,,M,,N,,M*22
20220704 140607+00:00 $HCHDT,114.5,T*28
20220704 140608+00:00 $GPRMC,140604,A,4845.5598,N,12532.1798,W,9.19,115,040722,12.1,E,A,V*63
20220704 140608+00:00 $WIMWV,329.29,R,1.98,N,A*20
20220704 140609+00:00 $IIMDA,29.9,I,1.012,B,12.2,C,,C,93.3,,,C,,T,,M,,N,,M*22
20220704 140609+00:00 $HCHDT,114,T*33
20220704 140610+00:00 $GPRMC,140606,A,4845.5598,N,12532.1798,W,9.29,116,040722,12.1,E,A,V*61
20220704 140610+00:00 $WIMWV,339.49,R,0.7,N,A*10
20220704 140611+00:00 $IIMDA,29.9,I,1.012,B,12.2,C,,C,93.3,,,C,,T,,M,,N,,M*22
20220704 140611+00:00 $HCHDT,113.8,T*22
20220704 140612+00:00 $GPRMC,140608,A,4845.5598,N,12532.1696,W,9.29,115,040722,12.1,E,A,V*63
20220704 140612+00:00 $WIMWV,130.39,R,2.49,N,A*24
20220704 140613+00:00 $IIMDA,29.9,I,1.012,B,12.2,C,,C,93.2,,,C,,T,,M,,N,,M*23
20220704 140613+00:00 $HCHDT,113.8,T*22
20220704 140614+00:00 $GPRMC,140610,A,4845.5598,N,12532.1600,W,9.19,115,040722,12.1,E,A,V*66
20220704 140614+00:00 $WIMWV,134.9,R,3.09,N,A*16
20220704 140615+00:00 $IIMDA,29.9,I,1.012,B,12.2,C,,C,93.3,,,C,,T,,M,,N,,M*22
20220704 140615+00:00 $HCHDT,113.8,T*22
20220704 140616+00:00 $GPRMC,140612,A,4845.5496,N,12532.1600,W,9.19,115,040722,12.1,E,A,V*6B
20220704 140616+00:00 $WIMWV,127.99,R,3.09,N,A*2D
20220704 140617+00:00 $IIMDA,29.9,I,1.012,B,12.2,C,,C,93.3,,,C,,T,,M,,N,,M*22
20220704 140617+00:00 $HCHDT,113.9,T*23
20220704 140618+00:00 $GPRMC,140614,A,4845.5496,N,12532.1498,W,9.19,116,040722,12.1,E,A,V*6D
20220704 140618+00:00 $WIMWV,128.39,R,2.68,N,A*2E
20220704 140619+00:00 $IIMDA,29.9,I,1.012,B,12.2,C,,C,93.3,,,C,,T,,M,,N,,M*22
20220704 140619+00:00 $HCHDT,114,T*33
20220704 140620+00:00 $GPRMC,140616,A,4845.5496,N,12532.1396,W,9.1,116,040722,12.1,E,A,V*5F
20220704 140620+00:00 $WIMWV,112.7,R,1.98,N,A*16
20220704 140621+00:00 $IIMDA,29.9,I,1.012,B,12.2,C,,C,93.3,,,C,,T,,M,,N,,M*22
20220704 140621+00:00 $HCHDT,113.8,T*22
20220704 140622+00:00 $GPRMC,140618,A,4845.5496,N,12532.1300,W,9.1,116,040722,12.1,E,A,V*5E
20220704 140622+00:00 $WIMWV,118.29,R,1.59,N,A*2D
20220704 140623+00:00 $IIMDA,29.9,I,1.012,B,12.2,C,,C,93.3,,,C,,T,,M,,N,,M*22
20220704 140623+00:00 $HCHDT,113.6,T*2C
20220704 140624+00:00 $GPRMC,140620,A,4845.5496,N,12532.1300,W,9.1,115,040722,12.1,E,A,V*56
20220704 140624+00:00 $WIMWV,114.8,R,2.29,N,A*16
20220704 140625+00:00 $IIMDA,29.9,I,1.011,B,12.2,C,,C,93.3,,,C,,T,,M,,N,,M*21
20220704 140625+00:00 $HCHDT,113.9,T*23
20220704 140626+00:00 $GPRMC,140622,A,4845.5400,N,12532.1198,W,9.19,115,040722,12.1,E,A,V*61
20220704 140626+00:00 $WIMWV,101.4,R,1.5,N,A*23
20220704 140627+00:00 $IIMDA,29.9,I,1.012,B,12.2,C,,C,93.3,,,C,,T,,M,,N,,M*22
20220704 140627+00:00 $HCHDT,113.7,T*2D
20220704 140628+00:00 $GPRMC,140624,A,4845.5400,N,12532.1096,W,9.19,115,040722,12.1,E,A,V*68
20220704 140628+00:00 $WIMWV,133.4,R,2.2,N,A*26
20220704 140629+00:00 $IIMDA,29.9,I,1.012,B,12.2,C,,C,93.3,,,C,,T,,M,,N,,M*22
20220704 140629+00:00 $HCHDT,113.1,T*2B
20220704 140630+00:00 $GPRMC,140626,A,4845.5400,N,12532.1096,W,9.19,115,040722,12.1,E,A,V*6A
20220704 140630+00:00 $WIMWV,59.3,R,0.8,N,A*14
20220704 140631+00:00 $IIMDA,29.9,I,1.012,B,12.2,C,,C,93.3,,,C,,T,,M,,N,,M*22
20220704 140631+00:00 $HCHDT,112.8,T*23
20220704 140632+00:00 $GPRMC,140628,A,4845.5400,N,12532.1000,W,9.1,115,040722,12.1,E,A,V*52
20220704 140632+00:00 $WIMWV,12.5,R,0.99,N,A*25
20220704 140633+00:00 $IIMDA,29.9,I,1.012,B,12.2,C,,C,93.3,,,C,,T,,M,,N,,M*22
20220704 140633+00:00 $HCHDT,112.8,T*23
20220704 140634+00:00 $GPRMC,140630,A,4845.5298,N,12532.0898,W,9.1,115,040722,12.1,E,A,V*54
20220704 140634+00:00 $WIMWV,19.9,R,0.49,N,A*2F
20220704 140635+00:00 $IIMDA,29.9,I,1.011,B,12.2,C,,C,93.2,,,C,,T,,M,,N,,M*20
20220704 140635+00:00 $HCHDT,113.3,T*29
20220704 140636+00:00 $GPRMC,140632,A,4845.5298,N,12532.0898,W,9.1,115,040722,12.1,E,A,V*56
20220704 140636+00:00 $WIMWV,45.7,R,1.4,N,A*10
20220704 140637+00:00 $IIMDA,29.9,I,1.012,B,12.2,C,,C,93.3,,,C,,T,,M,,N,,M*22
20220704 140637+00:00 $HCHDT,113.6,T*2C
20220704 140638+00:00 $GPRMC,140634,A,4845.5298,N,12532.0796,W,9.1,115,040722,12.1,E,A,V*51
20220704 140638+00:00 $WIMWV,55,R,1.89,N,A*3D
20220704 140639+00:00 $IIMDA,29.9,I,1.012,B,12.2,C,,C,93.2,,,C,,T,,M,,N,,M*23
20220704 140639+00:00 $HCHDT,113.7,T*2D
20220704 140640+00:00 $GPRMC,140636,A,4845.5298,N,12532.0700,W,9.1,115,040722,12.1,E,A,V*5C
20220704 140640+00:00 $WIMWV,124.89,R,0.7,N,A*12
20220704 140641+00:00 $IIMDA,29.9,I,1.012,B,12.2,C,,C,93.2,,,C,,T,,M,,N,,M*23
20220704 140641+00:00 $HCHDT,113.6,T*2C
20220704 140642+00:00 $GPRMC,140638,A,4845.5298,N,12532.0598,W,9.19,115,040722,12.1,E,A,V*68
20220704 140642+00:00 $WIMWV,159.2,R,0.49,N,A*11
20220704 140643+00:00 $IIMDA,29.9,I,1.012,B,12.2,C,,C,93.2,,,C,,T,,M,,N,,M*23
20220704 140643+00:00 $HCHDT,113.3,T*29
20220704 140644+00:00 $GPRMC,140640,A,4845.5196,N,12532.0598,W,9.19,115,040722,12.1,E,A,V*6A
20220704 140644+00:00 $WIMWV,11.5,R,0.89,N,A*27
20220704 140645+00:00 $IIMDA,29.9,I,1.012,B,12.2,C,,C,93.3,,,C,,T,,M,,N,,M*22
20220704 140645+00:00 $HCHDT,113.3,T*29
20220704 140646+00:00 $GPRMC,140642,A,4845.5196,N,12532.0496,W,9.1,115,040722,12.1,E,A,V*5E
20220704 140646+00:00 $WIMWV,335.79,R,1.28,N,A*23
20220704 140647+00:00 $IIMDA,29.9,I,1.012,B,12.2,C,,C,93.3,,,C,,T,,M,,N,,M*22
20220704 140647+00:00 $HCHDT,113.5,T*2F
20220704 140648+00:00 $GPRMC,140644,A,4845.5196,N,12532.0400,W,9.1,115,040722,12.1,E,A,V*57
20220704 140648+00:00 $WIMWV,221.09,R,0.39,N,A*21
20220704 140649+00:00 $IIMDA,29.9,I,1.012,B,12.2,C,,C,93.3,,,C,,T,,M,,N,,M*22
20220704 140649+00:00 $HCHDT,114,T*33
20220704 140650+00:00 $GPRMC,140646,A,4845.5196,N,12532.0400,W,9.1,115,040722,12.1,E,A,V*55
20220704 140650+00:00 $WIMWV,140.09,R,0.49,N,A*22
20220704 140651+00:00 $IIMDA,29.9,I,1.012,B,12.2,C,,C,93.3,,,C,,T,,M,,N,,M*22
20220704 140651+00:00 $HCHDT,114.7,T*2A
20220704 140652+00:00 $GPRMC,140648,A,4845.5100,N,12532.0298,W,9.19,115,040722,12.1,E,A,V*6A
20220704 140652+00:00 $WIMWV,32.3,R,0.7,N,A*16
20220704 140653+00:00 $IIMDA,29.9,I,1.012,B,12.2,C,,C,93.3,,,C,,T,,M,,N,,M*22
20220704 140653+00:00 $HCHDT,114.3,T*2E
20220704 140654+00:00 $GPRMC,140650,A,4845.5100,N,12532.0196,W,9.19,116,040722,12.1,E,A,V*6D
20220704 140654+00:00 $WIMWV,283.59,R,0.99,N,A*26
20220704 140655+00:00 $IIMDA,29.9,I,1.012,B,12.2,C,,C,93.3,,,C,,T,,M,,N,,M*22
20220704 140655+00:00 $HCHDT,113.3,T*29
20220704 140656+00:00 $GPRMC,140652,A,4845.5100,N,12532.0196,W,9.19,116,040722,12.1,E,A,V*6F
20220704 140656+00:00 $WIMWV,316.49,R,0.7,N,A*1D
20220704 140657+00:00 $IIMDA,29.9,I,1.012,B,12.2,C,,C,93.3,,,C,,T,,M,,N,,M*22
20220704 140657+00:00 $HCHDT,112.6,T*2D
20220704 140658+00:00 $GPRMC,140654,A,4845.5100,N,12532.0100,W,9.1,116,040722,12.1,E,A,V*5F
20220704 140658+00:00 $WIMWV,246.29,R,0.99,N,A*28
20220704 140659+00:00 $IIMDA,29.9,I,1.012,B,12.2,C,,C,93.3,,,C,,T,,M,,N,,M*22
20220704 140659+00:00 $HCHDT,112.8,T*23
20220704 140700+00:00 $GPRMC,140656,A,4845.5100,N,12531.9998,W,9.1,116,040722,12.1,E,A,V*5E
20220704 140700+00:00 $WIMWV,8,R,2.39,N,A*0D
20220704 140701+00:00 $IIMDA,29.9,I,1.012,B,12.2,C,,C,93.3,,,C,,T,,M,,N,,M*22
20220704 140701+00:00 $HCHDT,113.7,T*2D
20220704 140702+00:00 $GPRMC,140658,A,4845.4998,N,12531.9998,W,9.1,116,040722,12.1,E,A,V*58
20220704 140702+00:00 $WIMWV,300.89,R,2.49,N,A*2E
20220704 140703+00:00 $IIMDA,29.9,I,1.012,B,12.2,C,,C,93.3,,,C,,T,,M,,N,,M*22
20220704 140703+00:00 $HCHDT,114.4,T*29
20220704 140704+00:00 $GPRMC,140700,A,4845.4998,N,12531.9896,W,9.1,116,040722,12.1,E,A,V*5B
20220704 140704+00:00 $WIMWV,349.29,R,2.29,N,A*2F
20220704 140705+00:00 $IIMDA,29.9,I,1.012,B,12.2,C,,C,93.3,,,C,,T,,M,,N,,M*22
20220704 140705+00:00 $HCHDT,113.7,T*2D
20220704 140706+00:00 $GPRMC,140702,A,4845.4998,N,12531.9800,W,9.1,116,040722,12.1,E,A,V*56
20220704 140706+00:00 $WIMWV,269.99,R,1.4,N,A*1B
20220704 140707+00:00 $IIMDA,29.9,I,1.012,B,12.2,C,,C,93.3,,,C,,T,,M,,N,,M*22
20220704 140707+00:00 $HCHDT,112.6,T*2D
20220704 140708+00:00 $GPRMC,140704,A,4845.4998,N,12531.9698,W,9.1,116,040722,12.1,E,A,V*5F
20220704 140708+00:00 $WIMWV,314.39,R,0.29,N,A*24
20220704 140709+00:00 $IIMDA,29.9,I,1.012,B,12.2,C,,C,93.3,,,C,,T,,M,,N,,M*22
20220704 140709+00:00 $HCHDT,112.4,T*2F
20220704 140710+00:00 $GPRMC,140706,A,4845.4998,N,12531.9698,W,9.1,116,040722,12.1,E,A,V*5D
20220704 140710+00:00 $WIMWV,292.39,R,1.19,N,A*29
20220704 140711+00:00 $IIMDA,29.9,I,1.012,B,12.2,C,,C,93.4,,,C,,T,,M,,N,,M*25
20220704 140711+00:00 $HCHDT,112.5,T*2E
20220704 140712+00:00 $GPRMC,140708,A,4845.4896,N,12531.9596,W,9.1,115,040722,12.1,E,A,V*52
20220704 140712+00:00 $WIMWV,321.59,R,0.7,N,A*18
20220704 140713+00:00 $IIMDA,29.9,I,1.012,B,12.2,C,,C,93.4,,,C,,T,,M,,N,,M*25
20220704 140713+00:00 $HCHDT,113.1,T*2B
20220704 140714+00:00 $GPRMC,140710,A,4845.4896,N,12531.9500,W,9.1,115,040722,12.1,E,A,V*54
20220704 140714+00:00 $WIMWV,118.6,R,1.59,N,A*10
20220704 140715+00:00 $IIMDA,29.9,I,1.012,B,12.2,C,,C,93.4,,,C,,T,,M,,N,,M*25
20220704 140715+00:00 $HCHDT,113.1,T*2B
20220704 140716+00:00 $GPRMC,140712,A,4845.4896,N,12531.9500,W,9.1,115,040722,12.1,E,A,V*56
20220704 140716+00:00 $WIMWV,124.8,R,2.29,N,A*15
20220704 140717+00:00 $IIMDA,29.9,I,1.012,B,12.2,C,,C,93.4,,,C,,T,,M,,N,,M*25
20220704 140717+00:00 $HCHDT,112.6,T*2D
20220704 140718+00:00 $GPRMC,140714,A,4845.4896,N,12531.9398,W,9,116,040722,12.1,E,A,V*4B
20220704 140718+00:00 $WIMWV,168.19,R,1.09,N,A*2C
20220704 140719+00:00 $IIMDA,29.9,I,1.012,B,12.2,C,,C,93.3,,,C,,T,,M,,N,,M*22
20220704 140719+00:00 $HCHDT,112.6,T*2D
20220704 140720+00:00 $GPRMC,140716,A,4845.4800,N,12531.9296,W,9.1,115,040722,12.1,E,A,V*55
20220704 140720+00:00 $WIMWV,246.19,R,1.4,N,A*1E
20220704 140721+00:00 $IIMDA,29.9,I,1.012,B,12.2,C,,C,93.3,,,C,,T,,M,,N,,M*22
20220704 140721+00:00 $HCHDT,112.6,T*2D
20220704 140722+00:00 $GPRMC,140718,A,4845.4800,N,12531.9296,W,9.1,115,040722,12.1,E,A,V*5B
20220704 140722+00:00 $WIMWV,117.9,R,0.49,N,A*10
20220704 140723+00:00 $IIMDA,29.9,I,1.012,B,12.2,C,,C,93.4,,,C,,T,,M,,N,,M*25
20220704 140723+00:00 $HCHDT,112.9,T*22
20220704 140724+00:00 $GPRMC,140720,A,4845.4800,N,12531.9200,W,9.1,115,040722,12.1,E,A,V*5F
20220704 140724+00:00 $WIMWV,333.19,R,1.98,N,A*28
20220704 140725+00:00 $IIMDA,29.9,I,1.012,B,12.2,C,,C,93.3,,,C,,T,,M,,N,,M*22
20220704 140725+00:00 $HCHDT,113.6,T*2C
20220704 140726+00:00 $GPRMC,140722,A,4845.4800,N,12531.9098,W,9.19,115,040722,12.1,E,A,V*67
20220704 140726+00:00 $WIMWV,152.19,R,0.39,N,A*27
20220704 140727+00:00 $IIMDA,29.9,I,1.012,B,12.2,C,,C,93.4,,,C,,T,,M,,N,,M*25
20220704 140727+00:00 $HCHDT,113.9,T*23
20220704 140728+00:00 $GPRMC,140724,A,4845.4800,N,12531.9098,W,9.1,115,040722,12.1,E,A,V*58
20220704 140728+00:00 $WIMWV,47.4,R,1.69,N,A*2A
20220704 140729+00:00 $IIMDA,29.9,I,1.012,B,12.2,C,,C,93.4,,,C,,T,,M,,N,,M*25
20220704 140729+00:00 $HCHDT,114,T*33
20220704 140730+00:00 $GPRMC,140726,A,4845.4698,N,12531.8996,W,9.1,115,040722,12.1,E,A,V*53
20220704 140730+00:00 $WIMWV,76.09,R,1.98,N,A*1B
20220704 140731+00:00 $IIMDA,29.9,I,1.012,B,12.2,C,,C,93.3,,,C,,T,,M,,N,,M*22
20220704 140731+00:00 $HCHDT,114.2,T*2F
20220704 140732+00:00 $GPRMC,140728,A,4845.4698,N,12531.8900,W,9,115,040722,12.1,E,A,V*4D
20220704 140732+00:00 $WIMWV,138.39,R,1.09,N,A*2B
20220704 140733+00:00 $IIMDA,29.9,I,1.012,B,12.2,C,,C,93.3,,,C,,T,,M,,N,,M*22
20220704 140733+00:00 $HCHDT,114.1,T*2C
20220704 140734+00:00 $GPRMC,140730,A,4845.4698,N,12531.8900,W,9,116,040722,12.1,E,A,V*47
20220704 140734+00:00 $WIMWV,67.7,R,0.39,N,A*2F
20220704 140735+00:00 $IIMDA,29.9,I,1.011,B,12.2,C,,C,93.3,,,C,,T,,M,,N,,M*21
20220704 140735+00:00 $HCHDT,114,T*33
20220704 140736+00:00 $GPRMC,140732,A,4845.4698,N,12531.8798,W,9,116,040722,12.1,E,A,V*4A
20220704 140736+00:00 $WIMWV,317.89,R,0.89,N,A*26
20220704 140737+00:00 $IIMDA,29.9,I,1.012,B,12.2,C,,C,93.3,,,C,,T,,M,,N,,M*22
20220704 140737+00:00 $HCHDT,113.4,T*2E
20220704 140738+00:00 $GPRMC,140734,A,4845.4698,N,12531.8696,W,9.1,116,040722,12.1,E,A,V*5C
20220704 140738+00:00 $WIMWV,294.19,R,0.49,N,A*29
20220704 140739+00:00 $IIMDA,29.9,I,1.012,B,12.2,C,,C,93.3,,,C,,T,,M,,N,,M*22
20220704 140739+00:00 $HCHDT,113.6,T*2C
20220704 140740+00:00 $GPRMC,140736,A,4845.4596,N,12531.8600,W,9.1,115,040722,12.1,E,A,V*5F
20220704 140740+00:00 $WIMWV,68,R,0.39,N,A*39
20220704 140741+00:00 $IIMDA,29.9,I,1.011,B,12.2,C,,C,93.3,,,C,,T,,M,,N,,M*21
20220704 140741+00:00 $HCHDT,113.6,T*2C
