20220704 130001+00:00 $IIMDA,29.9,I,1.011,B,12.2,C,,C,92.8,,,C,,T,,M,,N,,M*2B
20220704 130001+00:00 $HCHDT,123.7,T*2E
20220704 130001+00:00 $GPRMC,125956,A,4850.3598,N,12545.4296,W,9.19,129,040722,12.1,E,A,V*6B
20220704 130001+00:00 $WIMWV,118.8,R,2.68,N,A*1F
20220704 130003+00:00 $IIMDA,29.9,I,1.011,B,12.2,C,,C,92.7,,,C,,T,,M,,N,,M*24
20220704 130003+00:00 $HCHDT,123.9,T*20
20220704 130003+00:00 $GPRMC,125958,A,4850.3598,N,12545.4296,W,9.19,129,040722,12.1,E,A,V*65
20220704 130003+00:00 $WIMWV,142.79,R,2.59,N,A*24
20220704 130005+00:00 $IIMDA,29.9,I,1.011,B,12.2,C,,C,92.7,,,C,,T,,M,,N,,M*24
20220704 130005+00:00 $HCHDT,124.2,T*2C
20220704 130005+00:00 $GPRMC,130000,A,4850.3496,N,12545.4200,W,9.19,129,040722,12.1,E,A,V*65
20220704 130005+00:00 $WIMWV,180.6,R,1.19,N,A*15
20220704 130007+00:00 $IIMDA,29.9,I,1.011,B,12.2,C,,C,92.7,,,C,,T,,M,,N,,M*24
20220704 130007+00:00 $HCHDT,124.2,T*2C
20220704 130007+00:00 $GPRMC,130002,A,4850.3496,N,12545.4098,W,9.19,128,040722,12.1,E,A,V*65
20220704 130007+00:00 $WIMWV,174.59,R,1.98,N,A*2D
20220704 130009+00:00 $IIMDA,29.9,I,1.011,B,12.2,C,,C,92.7,,,C,,T,,M,,N,,M*24
20220704 130009+00:00 $HCHDT,124.1,T*2F
20220704 130009+00:00 $GPRMC,130004,A,4850.3496,N,12545.4098,W,9.1,128,040722,12.1,E,A,V*5A
20220704 130009+00:00 $WIMWV,176.99,R,2.1,N,A*10
20220704 130011+00:00 $IIMDA,29.9,I,1.011,B,12.2,C,,C,92.7,,,C,,T,,M,,N,,M*24
20220704 130011+00:00 $HCHDT,124.4,T*2A
20220704 130011+00:00 $GPRMC,130006,A,4850.3400,N,12545.3996,W,9.1,128,040722,12.1,E,A,V*57
20220704 130011+00:00 $WIMWV,118.6,R,1.98,N,A*1D
20220704 130013+00:00 $IIMDA,29.9,I,1.011,B,12.3,C,,C,92.7,,,C,,T,,M,,N,,M*25
20220704 130013+00:00 $HCHDT,124.7,T*29
20220704 130013+00:00 $GPRMC,130008,A,4850.3400,N,12545.3996,W,9.1,128,040722,12.1,E,A,V*59
20220704 130013+00:00 $WIMWV,128.3,R,1.79,N,A*14
20220704 130015+00:00 $IIMDA,29.9,I,1.011,B,12.3,C,,C,92.7,,,C,,T,,M,,N,,M*25
20220704 130015+00:00 $HCHDT,124.6,T*28
20220704 130015+00:00 $GPRMC,130010,A,4850.3400,N,12545.3900,W,9.1,128,040722,12.1,E,A,V*5F
20220704 130015+00:00 $WIMWV,75.3,R,1.5,N,A*16
20220704 130017+00:00 $IIMDA,29.9,I,1.011,B,12.3,C,,C,92.7,,,C,,T,,M,,N,,M*25
20220704 130017+00:00 $HCHDT,124.8,T*26
20220704 130017+00:00 $GPRMC,130012,A,4850.3400,N,12545.3798,W,9.19,128,040722,12.1,E,A,V*6B
20220704 130017+00:00 $WIMWV,143.69,R,2.49,N,A*25
20220704 130019+00:00 $IIMDA,29.9,I,1.011,B,12.3,C,,C,92.7,,,C,,T,,M,,N,,M*25
20220704 130019+00:00 $HCHDT,125.2,T*2D
20220704 130019+00:00 $GPRMC,130014,A,4850.3298,N,12545.3798,W,9.19,128,040722,12.1,E,A,V*6A
20220704 130019+00:00 $WIMWV,120.8,R,2.1,N,A*2B
20220704 130021+00:00 $IIMDA,29.9,I,1.011,B,12.3,C,,C,92.7,,,C,,T,,M,,N,,M*25
20220704 130021+00:00 $HCHDT,125.2,T*2D
20220704 130021+00:00 $GPRMC,130016,A,4850.3298,N,12545.3696,W,9.19,128,040722,12.1,E,A,V*67
20220704 130021+00:00 $WIMWV,126.5,R,1.19,N,A*1A
20220704 130023+00:00 $IIMDA,29.9,I,1.011,B,12.3,C,,C,92.7,,,C,,T,,M,,N,,M*25
20220704 130023+00:00 $HCHDT,125.2,T*2D
20220704 130023+00:00 $GPRMC,130018,A,4850.3298,N,12545.3696,W,9.19,128,040722,12.1,E,A,V*69
20220704 130023+00:00 $WIMWV,180.6,R,1.69,N,A*12
20220704 130025+00:00 $IIMDA,29.9,I,1.011,B,12.3,C,,C,92.8,,,C,,T,,M,,N,,M*2A
20220704 130025+00:00 $HCHDT,124.8,T*26
20220704 130025+00:00 $GPRMC,130020,A,4850.3196,N,12545.3600,W,9.19,129,040722,12.1,E,A,V*61
20220704 130025+00:00 $WIMWV,189.39,R,2.59,N,A*27
20220704 130027+00:00 $IIMDA,29.9,I,1.011,B,12.3,C,,C,92.7,,,C,,T,,M,,N,,M*25
20220704 130027+00:00 $HCHDT,123.9,T*20
20220704 130027+00:00 $GPRMC,130022,A,4850.3196,N,12545.3498,W,9.19,129,040722,12.1,E,A,V*60
20220704 130027+00:00 $WIMWV,87.59,R,2.39,N,A*18
20220704 130029+00:00 $IIMDA,29.9,I,1.011,B,12.3,C,,C,92.7,,,C,,T,,M,,N,,M*25
20220704 130029+00:00 $HCHDT,123.8,T*21
20220704 130029+00:00 $GPRMC,130024,A,4850.3196,N,12545.3498,W,9.19,129,040722,12.1,E,A,V*66
20220704 130029+00:00 $WIMWV,111.8,R,1.19,N,A*13
20220704 130031+00:00 $IIMDA,29.9,I,1.011,B,12.3,C,,C,92.8,,,C,,T,,M,,N,,M*2A
20220704 130031+00:00 $HCHDT,124.1,T*2F
20220704 130031+00:00 $GPRMC,130026,A,4850.3100,N,12545.3396,W,9.19,128,040722,12.1,E,A,V*63
20220704 130031+00:00 $WIMWV,138.2,R,1.5,N,A*2F
20220704 130033+00:00 $IIMDA,29.9,I,1.011,B,12.3,C,,C,92.8,,,C,,T,,M,,N,,M*2A
20220704 130033+00:00 $HCHDT,124.6,T*28
20220704 130033+00:00 $GPRMC,130028,A,4850.3100,N,12545.3396,W,9.19,128,040722,12.1,E,A,V*6D
20220704 130033+00:00 $WIMWV,95.6,R,2.1,N,A*1A
20220704 130035+00:00 $IIMDA,29.9,I,1.011,B,12.3,C,,C,92.8,,,C,,T,,M,,N,,M*2A
20220704 130035+00:00 $HCHDT,125.3,T*2C
20220704 130035+00:00 $GPRMC,130030,A,4850.3100,N,12545.3300,W,9.19,128,040722,12.1,E,A,V*6B
20220704 130035+00:00 $WIMWV,191.2,R,1.19,N,A*11
20220704 130037+00:00 $IIMDA,29.9,I,1.011,B,12.3,C,,C,92.8,,,C,,T,,M,,N,,M*2A
20220704 130037+00:00 $HCHDT,125.1,T*2E
20220704 130037+00:00 $GPRMC,130032,A,4850.2998,N,12545.3198,W,9.19,128,040722,12.1,E,A,V*62
20220704 130037+00:00 $WIMWV,159.49,R,0.7,N,A*14
20220704 130039+00:00 $IIMDA,29.9,I,1.011,B,12.3,C,,C,92.8,,,C,,T,,M,,N,,M*2A
20220704 130039+00:00 $HCHDT,124.8,T*26
20220704 130039+00:00 $GPRMC,130034,A,4850.2998,N,12545.3198,W,9.19,129,040722,12.1,E,A,V*65
20220704 130039+00:00 $WIMWV,172.7,R,1.09,N,A*18
20220704 130041+00:00 $IIMDA,29.9,I,1.011,B,12.3,C,,C,92.8,,,C,,T,,M,,N,,M*2A
20220704 130041+00:00 $HCHDT,124.7,T*29
20220704 130041+00:00 $GPRMC,130036,A,4850.2998,N,12545.3096,W,9.19,129,040722,12.1,E,A,V*68
20220704 130041+00:00 $WIMWV,116.8,R,1.79,N,A*12
20220704 130043+00:00 $IIMDA,29.9,I,1.011,B,12.3,C,,C,92.8,,,C,,T,,M,,N,,M*2A
20220704 130043+00:00 $HCHDT,125,T*31
20220704 130043+00:00 $GPRMC,130038,A,4850.2896,N,12545.3096,W,9.19,129,040722,12.1,E,A,V*69
20220704 130043+00:00 $WIMWV,132.9,R,1.4,N,A*2F
20220704 130045+00:00 $IIMDA,29.9,I,1.011,B,12.3,C,,C,92.9,,,C,,T,,M,,N,,M*2B
20220704 130045+00:00 $HCHDT,125.3,T*2C
20220704 130045+00:00 $GPRMC,130040,A,4850.2896,N,12545.3000,W,9.19,129,040722,12.1,E,A,V*69
20220704 130045+00:00 $WIMWV,137.69,R,0.58,N,A*24
20220704 130047+00:00 $IIMDA,29.9,I,1.011,B,12.3,C,,C,92.9,,,C,,T,,M,,N,,M*2B
20220704 130047+00:00 $HCHDT,125.2,T*2D
20220704 130047+00:00 $GPRMC,130042,A,4850.2896,N,12545.2898,W,9.19,129,040722,12.1,E,A,V*63
20220704 130047+00:00 $WIMWV,292.49,R,0.7,N,A*10
20220704 130049+00:00 $IIMDA,29.9,I,1.011,B,12.3,C,,C,92.9,,,C,,T,,M,,N,,M*2B
20220704 130049+00:00 $HCHDT,125.3,T*2C
20220704 130049+00:00 $GPRMC,130044,A,4850.2800,N,12545.2898,W,9.19,129,040722,12.1,E,A,V*6A
20220704 130049+00:00 $WIMWV,122.4,R,1.28,N,A*1D
20220704 130051+00:00 $IIMDA,29.9,I,1.011,B,12.3,C,,C,92.9,,,C,,T,,M,,N,,M*2B
20220704 130051+00:00 $HCHDT,124.5,T*2B
20220704 130051+00:00 $GPRMC,130046,A,4850.2800,N,12545.2796,W,9.19,129,040722,12.1,E,A,V*69
20220704 130051+00:00 $WIMWV,117.3,R,1.79,N,A*18
20220704 130053+00:00 $IIMDA,29.9,I,1.011,B,12.3,C,,C,92.9,,,C,,T,,M,,N,,M*2B
20220704 130053+00:00 $HCHDT,124.3,T*2D
20220704 130053+00:00 $GPRMC,130048,A,4850.2800,N,12545.2796,W,9.19,129,040722,12.1,E,A,V*67
20220704 130053+00:00 $WIMWV,256.3,R,1.19,N,A*18
20220704 130055+00:00 $IIMDA,29.9,I,1.011,B,12.3,C,,C,92.9,,,C,,T,,M,,N,,M*2B
20220704 130055+00:00 $HCHDT,125,T*31
20220704 130055+00:00 $GPRMC,130050,A,4850.2698,N,12545.2700,W,9.19,129,040722,12.1,E,A,V*6E
20220704 130055+00:00 $WIMWV,0.19,R,0.39,N,A*21
20220704 130057+00:00 $IIMDA,29.9,I,1.011,B,12.3,C,,C,92.9,,,C,,T,,M,,N,,M*2B
20220704 130057+00:00 $HCHDT,125.3,T*2C
20220704 130057+00:00 $GPRMC,130052,A,4850.2698,N,12545.2598,W,9.19,129,040722,12.1,E,A,V*6F
20220704 130057+00:00 $WIMWV,331.59,R,0.58,N,A*23
20220704 130059+00:00 $IIMDA,29.9,I,1.011,B,12.3,C,,C,92.9,,,C,,T,,M,,N,,M*2B
20220704 130059+00:00 $HCHDT,125.5,T*2A
20220704 130059+00:00 $GPRMC,130054,A,4850.2698,N,12545.2598,W,9.19,129,040722,12.1,E,A,V*69
20220704 130059+00:00 $WIMWV,180.6,R,0.1,N,A*2D
20220704 130101+00:00 $IIMDA,29.9,I,1.011,B,12.3,C,,C,92.9,,,C,,T,,M,,N,,M*2B
20220704 130101+00:00 $HCHDT,125.3,T*2C
20220704 130101+00:00 $GPRMC,130056,A,4850.2596,N,12545.2496,W,9.19,129,040722,12.1,E,A,V*69
20220704 130101+00:00 $WIMWV,209.79,R,0.89,N,A*27
20220704 130103+00:00 $IIMDA,29.9,I,1.011,B,12.3,C,,C,93,,,C,,T,,M,,N,,M*3D
20220704 130103+00:00 $HCHDT,124.7,T*29
20220704 130103+00:00 $GPRMC,130058,A,4850.2596,N,12545.2496,W,9.19,129,040722,12.1,E,A,V*67
20220704 130103+00:00 $WIMWV,207.59,R,0.99,N,A*2A
20220704 130105+00:00 $IIMDA,29.9,I,1.011,B,12.3,C,,C,93,,,C,,T,,M,,N,,M*3D
20220704 130105+00:00 $HCHDT,124.5,T*2B
20220704 130105+00:00 $GPRMC,130100,A,4850.2596,N,12545.2400,W,9.19,129,040722,12.1,E,A,V*64
20220704 130105+00:00 $WIMWV,141.6,R,1.69,N,A*1F
20220704 130107+00:00 $IIMDA,29.9,I,1.011,B,12.3,C,,C,93,,,C,,T,,M,,N,,M*3D
20220704 130107+00:00 $HCHDT,124.4,T*2A
20220704 130107+00:00 $GPRMC,130102,A,4850.2596,N,12545.2298,W,9.19,129,040722,12.1,E,A,V*61
20220704 130107+00:00 $WIMWV,167.4,R,2.99,N,A*15
20220704 130109+00:00 $IIMDA,29.9,I,1.011,B,12.3,C,,C,93,,,C,,T,,M,,N,,M*3D
20220704 130109+00:00 $HCHDT,124.5,T*2B
20220704 130109+00:00 $GPRMC,130104,A,4850.2500,N,12545.2298,W,9.19,129,040722,12.1,E,A,V*68
20220704 130109+00:00 $WIMWV,180.6,R,3.09,N,A*16
20220704 130111+00:00 $IIMDA,29.9,I,1.011,B,12.3,C,,C,93.1,,,C,,T,,M,,N,,M*22
20220704 130111+00:00 $HCHDT,125,T*31
20220704 130111+00:00 $GPRMC,130106,A,4850.2500,N,12545.2196,W,9.19,129,040722,12.1,E,A,V*67
20220704 130111+00:00 $WIMWV,138.39,R,1.79,N,A*2C
20220704 130113+00:00 $IIMDA,29.9,I,1.011,B,12.3,C,,C,93.2,,,C,,T,,M,,N,,M*21
20220704 130113+00:00 $HCHDT,125,T*31
20220704 130113+00:00 $GPRMC,130108,A,4850.2500,N,12545.2196,W,9.19,129,040722,12.1,E,A,V*69
20220704 130113+00:00 $WIMWV,158.59,R,0.49,N,A*2E
20220704 130115+00:00 $IIMDA,29.9,I,1.011,B,12.3,C,,C,93.2,,,C,,T,,M,,N,,M*21
20220704 130115+00:00 $HCHDT,124.5,T*2B
20220704 130115+00:00 $GPRMC,130110,A,4850.2398,N,12545.2100,W,9.19,129,040722,12.1,E,A,V*68
20220704 130115+00:00 $WIMWV,207.89,R,0.7,N,A*10
20220704 130117+00:00 $IIMDA,29.9,I,1.011,B,12.3,C,,C,93.3,,,C,,T,,M,,N,,M*20
20220704 130117+00:00 $HCHDT,124.1,T*2F
20220704 130117+00:00 $GPRMC,130112,A,4850.2398,N,12545.1998,W,9.19,129,040722,12.1,E,A,V*60
20220704 130117+00:00 $WIMWV,235.69,R,0.7,N,A*1F
20220704 130119+00:00 $IIMDA,29.9,I,1.011,B,12.3,C,,C,93.3,,,C,,T,,M,,N,,M*20
20220704 130119+00:00 $HCHDT,123.9,T*20
20220704 130119+00:00 $GPRMC,130114,A,4850.2398,N,12545.1998,W,9.19,129,040722,12.1,E,A,V*66
20220704 130119+00:00 $WIMWV,332.29,R,1.59,N,A*27
20220704 130121+00:00 $IIMDA,29.9,I,1.011,B,12.3,C,,C,93.4,,,C,,T,,M,,N,,M*27
20220704 130121+00:00 $HCHDT,124,T*30
20220704 130121+00:00 $GPRMC,130116,A,4850.2296,N,12545.1896,W,9.19,129,040722,12.1,E,A,V*64
20220704 130121+00:00 $WIMWV,91.7,R,0.19,N,A*24
20220704 130123+00:00 $IIMDA,29.9,I,1.011,B,12.3,C,,C,93.4,,,C,,T,,M,,N,,M*27
20220704 130123+00:00 $HCHDT,124.3,T*2D
20220704 130123+00:00 $GPRMC,130118,A,4850.2296,N,12545.1896,W,9.19,128,040722,12.1,E,A,V*6B
20220704 130123+00:00 $WIMWV,134.19,R,0.8,N,A*15
20220704 130125+00:00 $IIMDA,29.9,I,1.011,B,12.3,C,,C,93.4,,,C,,T,,M,,N,,M*27
20220704 130125+00:00 $HCHDT,124.7,T*29
20220704 130125+00:00 $GPRMC,130120,A,4850.2296,N,12545.1800,W,9.19,128,040722,12.1,E,A,V*6F
20220704 130125+00:00 $WIMWV,114,R,0.8,N,A*31
20220704 130127+00:00 $IIMDA,29.9,I,1.011,B,12.3,C,,C,93.4,,,C,,T,,M,,N,,M*27
20220704 130127+00:00 $HCHDT,124,T*30
20220704 130127+00:00 $GPRMC,130122,A,4850.2200,N,12545.1698,W,9.19,129,040722,12.1,E,A,V*6C
20220704 130127+00:00 $WIMWV,208.59,R,0.58,N,A*28
20220704 130129+00:00 $IIMDA,29.9,I,1.011,B,12.3,C,,C,93.5,,,C,,T,,M,,N,,M*26
20220704 130129+00:00 $HCHDT,123.6,T*2F
20220704 130129+00:00 $GPRMC,130124,A,4850.2200,N,12545.1698,W,9.19,129,040722,12.1,E,A,V*6A
20220704 130129+00:00 $WIMWV,91.7,R,1.79,N,A*23
20220704 130131+00:00 $IIMDA,29.9,I,1.011,B,12.3,C,,C,93.5,,,C,,T,,M,,N,,M*26
20220704 130131+00:00 $HCHDT,123.6,T*2F
20220704 130131+00:00 $GPRMC,130126,A,4850.2200,N,12545.1596,W,9.19,128,040722,12.1,E,A,V*64
20220704 130131+00:00 $WIMWV,136.19,R,3.19,N,A*24
20220704 130133+00:00 $IIMDA,29.9,I,1.011,B,12.3,C,,C,93.4,,,C,,T,,M,,N,,M*27
20220704 130133+00:00 $HCHDT,124.2,T*2C
20220704 130133+00:00 $GPRMC,130128,A,4850.2098,N,12545.1596,W,9.19,128,040722,12.1,E,A,V*69
20220704 130133+00:00 $WIMWV,162.3,R,1.69,N,A*1B
20220704 130135+00:00 $IIMDA,29.9,I,1.011,B,12.3,C,,C,93.5,,,C,,T,,M,,N,,M*26
20220704 130135+00:00 $HCHDT,124.4,T*2A
20220704 130135+00:00 $GPRMC,130130,A,4850.2098,N,12545.1500,W,9.19,128,040722,12.1,E,A,V*6F
20220704 130135+00:00 $WIMWV,94.19,R,3.69,N,A*1A
20220704 130137+00:00 $IIMDA,29.9,I,1.011,B,12.3,C,,C,93.5,,,C,,T,,M,,N,,M*26
20220704 130137+00:00 $HCHDT,124.9,T*27
20220704 130137+00:00 $GPRMC,130132,A,4850.2098,N,12545.1398,W,9.19,128,040722,12.1,E,A,V*6A
20220704 130137+00:00 $WIMWV,129,R,3.5,N,A*31
20220704 130139+00:00 $IIMDA,29.9,I,1.011,B,12.3,C,,C,93.5,,,C,,T,,M,,N,,M*26
20220704 130139+00:00 $HCHDT,124.9,T*27
20220704 130139+00:00 $GPRMC,130134,A,4850.1996,N,12545.1398,W,9.19,128,040722,12.1,E,A,V*68
20220704 130139+00:00 $WIMWV,118.4,R,3.19,N,A*14
20220704 130141+00:00 $IIMDA,29.9,I,1.011,B,12.3,C,,C,93.5,,,C,,T,,M,,N,,M*26
20220704 130141+00:00 $HCHDT,124.3,T*2D
20220704 130141+00:00 $GPRMC,130136,A,4850.1996,N,12545.1296,W,9.19,128,040722,12.1,E,A,V*65
20220704 130141+00:00 $WIMWV,126.89,R,4.78,N,A*2C
20220704 130143+00:00 $IIMDA,29.9,I,1.011,B,12.3,C,,C,93.4,,,C,,T,,M,,N,,M*27
20220704 130143+00:00 $HCHDT,124.1,T*2F
20220704 130143+00:00 $GPRMC,130138,A,4850.1996,N,12545.1200,W,9.19,128,040722,12.1,E,A,V*64
20220704 130143+00:00 $WIMWV,167.09,R,2.1,N,A*19
20220704 130145+00:00 $IIMDA,29.9,I,1.011,B,12.3,C,,C,93.5,,,C,,T,,M,,N,,M*26
20220704 130145+00:00 $HCHDT,124.6,T*28
20220704 130145+00:00 $GPRMC,130140,A,4850.1900,N,12545.1200,W,9.19,128,040722,12.1,E,A,V*64
20220704 130145+00:00 $WIMWV,130.7,R,2.99,N,A*14
20220704 130147+00:00 $IIMDA,29.9,I,1.011,B,12.3,C,,C,93.4,,,C,,T,,M,,N,,M*27
20220704 130147+00:00 $HCHDT,125,T*31
20220704 130147+00:00 $GPRMC,130142,A,4850.1900,N,12545.1098,W,9.19,128,040722,12.1,E,A,V*65
20220704 130147+00:00 $WIMWV,123.09,R,2.68,N,A*26
20220704 130149+00:00 $IIMDA,29.9,I,1.011,B,12.3,C,,C,93.4,,,C,,T,,M,,N,,M*27
20220704 130149+00:00 $HCHDT,124.9,T*27
20220704 130149+00:00 $GPRMC,130144,A,4850.1900,N,12545.1098,W,9.19,128,040722,12.1,E,A,V*63
20220704 130149+00:00 $WIMWV,147.19,R,1.59,N,A*24
20220704 130151+00:00 $IIMDA,29.9,I,1.011,B,12.3,C,,C,93.4,,,C,,T,,M,,N,,M*27
20220704 130151+00:00 $HCHDT,124.7,T*29
20220704 130151+00:00 $GPRMC,130146,A,4850.1900,N,12545.0996,W,9.19,129,040722,12.1,E,A,V*66
20220704 130151+00:00 $WIMWV,136.39,R,1.59,N,A*20
20220704 130153+00:00 $IIMDA,29.9,I,1.011,B,12.3,C,,C,93.4,,,C,,T,,M,,N,,M*27
20220704 130153+00:00 $HCHDT,124.1,T*2F
20220704 130153+00:00 $GPRMC,130148,A,4850.1798,N,12545.0900,W,9.19,128,040722,12.1,E,A,V*69
20220704 130153+00:00 $WIMWV,123.4,R,1.98,N,A*17
20220704 130155+00:00 $IIMDA,29.9,I,1.011,B,12.3,C,,C,93.4,,,C,,T,,M,,N,,M*27
20220704 130155+00:00 $HCHDT,124.3,T*2D
20220704 130155+00:00 $GPRMC,130150,A,4850.1798,N,12545.0900,W,9.19,128,040722,12.1,E,A,V*60
20220704 130155+00:00 $WIMWV,128.8,R,2.9,N,A*2B
20220704 130157+00:00 $IIMDA,29.9,I,1.011,B,12.3,C,,C,93.4,,,C,,T,,M,,N,,M*27
20220704 130157+00:00 $HCHDT,124.4,T*2A
20220704 130157+00:00 $GPRMC,130152,A,4850.1798,N,12545.0798,W,9.19,128,040722,12.1,E,A,V*6D
20220704 130157+00:00 $WIMWV,110.4,R,1.79,N,A*18
20220704 130159+00:00 $IIMDA,29.9,I,1.011,B,12.3,C,,C,93.4,,,C,,T,,M,,N,,M*27
20220704 130159+00:00 $HCHDT,124.9,T*27
20220704 130159+00:00 $GPRMC,130154,A,4850.1696,N,12545.0798,W,9.19,128,040722,12.1,E,A,V*64
20220704 130159+00:00 $WIMWV,95.9,R,1.89,N,A*26
20220704 130201+00:00 $IIMDA,29.9,I,1.011,B,12.3,C,,C,93.3,,,C,,T,,M,,N,,M*20
20220704 130201+00:00 $HCHDT,125.3,T*2C
20220704 130201+00:00 $GPRMC,130156,A,4850.1696,N,12545.0696,W,9.19,129,040722,12.1,E,A,V*68
20220704 130201+00:00 $WIMWV,125.99,R,2.59,N,A*2B
20220704 130203+00:00 $IIMDA,29.9,I,1.011,B,12.3,C,,C,93.3,,,C,,T,,M,,N,,M*20
20220704 130203+00:00 $HCHDT,125.2,T*2D
20220704 130203+00:00 $GPRMC,130158,A,4850.1696,N,12545.0600,W,9.19,129,040722,12.1,E,A,V*69
20220704 130203+00:00 $WIMWV,34.6,R,0.89,N,A*23
20220704 130205+00:00 $IIMDA,29.9,I,1.011,B,12.3,C,,C,93.3,,,C,,T,,M,,N,,M*20
20220704 130205+00:00 $HCHDT,125.6,T*29
20220704 130205+00:00 $GPRMC,130200,A,4850.1600,N,12545.0600,W,9.19,129,040722,12.1,E,A,V*68
20220704 130205+00:00 $WIMWV,101.6,R,1.19,N,A*1C
20220704 130207+00:00 $IIMDA,29.9,I,1.011,B,12.3,C,,C,93.3,,,C,,T,,M,,N,,M*20
20220704 130207+00:00 $HCHDT,125.8,T*27
20220704 130207+00:00 $GPRMC,130202,A,4850.1600,N,12545.0498,W,9.19,129,040722,12.1,E,A,V*69
20220704 130207+00:00 $WIMWV,132.7,R,2.29,N,A*1D
20220704 130209+00:00 $IIMDA,29.9,I,1.011,B,12.3,C,,C,93.2,,,C,,T,,M,,N,,M*21
20220704 130209+00:00 $HCHDT,124.8,T*26
20220704 130209+00:00 $GPRMC,130204,A,4850.1600,N,12545.0498,W,9.19,129,040722,12.1,E,A,V*6F
20220704 130209+00:00 $WIMWV,83.8,R,1.5,N,A*14
20220704 130211+00:00 $IIMDA,29.9,I,1.011,B,12.3,C,,C,93.2,,,C,,T,,M,,N,,M*21
20220704 130211+00:00 $HCHDT,125.2,T*2D
20220704 130211+00:00 $GPRMC,130206,A,4850.1498,N,12545.0396,W,9.19,129,040722,12.1,E,A,V*67
20220704 130211+00:00 $WIMWV,24.4,R,1.5,N,A*15
20220704 130213+00:00 $IIMDA,29.9,I,1.011,B,12.3,C,,C,93.2,,,C,,T,,M,,N,,M*21
20220704 130213+00:00 $HCHDT,125.5,T*2A
20220704 130213+00:00 $GPRMC,130208,A,4850.1498,N,12545.0300,W,9.19,129,040722,12.1,E,A,V*66
20220704 130213+00:00 $WIMWV,26.69,R,0.49,N,A*15
20220704 130215+00:00 $IIMDA,29.9,I,1.011,B,12.3,C,,C,93.2,,,C,,T,,M,,N,,M*21
20220704 130215+00:00 $HCHDT,125.3,T*2C
20220704 130215+00:00 $GPRMC,130210,A,4850.1498,N,12545.0300,W,9.19,129,040722,12.1,E,A,V*6F
20220704 130215+00:00 $WIMWV,123.59,R,3.38,N,A*27
20220704 130217+00:00 $IIMDA,29.9,I,1.011,B,12.3,C,,C,93.2,,,C,,T,,M,,N,,M*21
20220704 130217+00:00 $HCHDT,125,T*31
20220704 130217+00:00 $GPRMC,130212,A,4850.1396,N,12545.0198,W,9.19,129,040722,12.1,E,A,V*67
20220704 130217+00:00 $WIMWV,144.4,R,2.49,N,A*19
20220704 130219+00:00 $IIMDA,29.9,I,1.011,B,12.3,C,,C,93.1,,,C,,T,,M,,N,,M*22
20220704 130219+00:00 $HCHDT,124.7,T*29
20220704 130219+00:00 $GPRMC,130214,A,4850.1396,N,12545.0198,W,9.19,129,040722,12.1,E,A,V*61
20220704 130219+00:00 $WIMWV,131,R,2.59,N,A*00
20220704 130221+00:00 $IIMDA,29.9,I,1.011,B,12.3,C,,C,93.1,,,C,,T,,M,,N,,M*22
20220704 130221+00:00 $HCHDT,124.5,T*2B
20220704 130221+00:00 $GPRMC,130216,A,4850.1396,N,12545.0096,W,9.19,129,040722,12.1,E,A,V*6C
20220704 130221+00:00 $WIMWV,109.69,R,0.99,N,A*24
20220704 130223+00:00 $IIMDA,29.9,I,1.011,B,12.3,C,,C,93.1,,,C,,T,,M,,N,,M*22
20220704 130223+00:00 $HCHDT,124.8,T*26
20220704 130223+00:00 $GPRMC,130218,A,4850.1300,N,12545.0000,W,9.19,129,040722,12.1,E,A,V*62
20220704 130223+00:00 $WIMWV,67.7,R,0.99,N,A*25
20220704 130225+00:00 $IIMDA,29.9,I,1.011,B,12.3,C,,C,93.1,,,C,,T,,M,,N,,M*22
20220704 130225+00:00 $HCHDT,124.9,T*27
20220704 130225+00:00 $GPRMC,130220,A,4850.1300,N,12545.0000,W,9.19,129,040722,12.1,E,A,V*69
20220704 130225+00:00 $WIMWV,119.5,R,1.98,N,A*1F
20220704 130227+00:00 $IIMDA,29.9,I,1.011,B,12.3,C,,C,93.1,,,C,,T,,M,,N,,M*22
20220704 130227+00:00 $HCHDT,124.5,T*2B
20220704 130227+00:00 $GPRMC,130222,A,4850.1300,N,12544.9898,W,9.19,129,040722,12.1,E,A,V*6A
20220704 130227+00:00 $WIMWV,127.6,R,4.3,N,A*26
20220704 130229+00:00 $IIMDA,29.9,I,1.011,B,12.3,C,,C,93,,,C,,T,,M,,N,,M*3D
20220704 130229+00:00 $HCHDT,124.7,T*29
20220704 130229+00:00 $GPRMC,130224,A,4850.1198,N,12544.9898,W,9.19,129,040722,12.1,E,A,V*6F
20220704 130229+00:00 $WIMWV,117.79,R,1.98,N,A*2A
20220704 130231+00:00 $IIMDA,29.9,I,1.011,B,12.3,C,,C,93,,,C,,T,,M,,N,,M*3D
20220704 130231+00:00 $HCHDT,124.8,T*26
20220704 130231+00:00 $GPRMC,130226,A,4850.1198,N,12544.9796,W,9.19,128,040722,12.1,E,A,V*6D
20220704 130231+00:00 $WIMWV,101.8,R,1.89,N,A*1B
20220704 130233+00:00 $IIMDA,29.9,I,1.011,B,12.3,C,,C,93,,,C,,T,,M,,N,,M*3D
20220704 130233+00:00 $HCHDT,124.7,T*29
20220704 130233+00:00 $GPRMC,130228,A,4850.1198,N,12544.9700,W,9.19,128,040722,12.1,E,A,V*6C
20220704 130233+00:00 $WIMWV,68.9,R,1.19,N,A*2D
20220704 130235+00:00 $IIMDA,29.9,I,1.011,B,12.3,C,,C,93,,,C,,T,,M,,N,,M*3D
20220704 130235+00:00 $HCHDT,124.7,T*29
20220704 130235+00:00 $GPRMC,130230,A,4850.1096,N,12544.9700,W,9.19,128,040722,12.1,E,A,V*6A
20220704 130235+00:00 $WIMWV,21.5,R,1.59,N,A*28
20220704 130237+00:00 $IIMDA,29.9,I,1.011,B,12.3,C,,C,92.9,,,C,,T,,M,,N,,M*2B
20220704 130237+00:00 $HCHDT,124.6,T*28
20220704 130237+00:00 $GPRMC,130232,A,4850.1096,N,12544.9598,W,9.19,128,040722,12.1,E,A,V*6B
20220704 130237+00:00 $WIMWV,115.79,R,2.68,N,A*24
20220704 130239+00:00 $IIMDA,29.9,I,1.011,B,12.3,C,,C,93,,,C,,T,,M,,N,,M*3D
20220704 130239+00:00 $HCHDT,124.8,T*26
20220704 130239+00:00 $GPRMC,130234,A,4850.1096,N,12544.9598,W,9.19,128,040722,12.1,E,A,V*6D
20220704 130239+00:00 $WIMWV,125.49,R,4.9,N,A*15
20220704 130241+00:00 $IIMDA,29.9,I,1.011,B,12.3,C,,C,92.9,,,C,,T,,M,,N,,M*2B
20220704 130241+00:00 $HCHDT,124.8,T*26
20220704 130241+00:00 $GPRMC,130236,A,4850.1096,N,12544.9496,W,9.19,128,040722,12.1,E,A,V*60
20220704 130241+00:00 $WIMWV,114.8,R,2.59,N,A*11
20220704 130243+00:00 $IIMDA,29.9,I,1.011,B,12.3,C,,C,92.9,,,C,,T,,M,,N,,M*2B
20220704 130243+00:00 $HCHDT,124.8,T*26
20220704 130243+00:00 $GPRMC,130238,A,4850.1000,N,12544.9400,W,9.19,128,040722,12.1,E,A,V*6E
20220704 130243+00:00 $WIMWV,130.89,R,4.08,N,A*2C
20220704 130245+00:00 $IIMDA,29.9,I,1.011,B,12.3,C,,C,92.9,,,C,,T,,M,,N,,M*2B
20220704 130245+00:00 $HCHDT,124.8,T*26
20220704 130245+00:00 $GPRMC,130240,A,4850.1000,N,12544.9400,W,9.19,128,040722,12.1,E,A,V*61
20220704 130245+00:00 $WIMWV,123.79,R,3.89,N,A*2F
20220704 130247+00:00 $IIMDA,29.9,I,1.011,B,12.2,C,,C,92.9,,,C,,T,,M,,N,,M*2A
20220704 130247+00:00 $HCHDT,124.9,T*27
20220704 130247+00:00 $GPRMC,130242,A,4850.1000,N,12544.9298,W,9.19,128,040722,12.1,E,A,V*64
20220704 130247+00:00 $WIMWV,99.69,R,1.59,N,A*11
20220704 130249+00:00 $IIMDA,29.9,I,1.011,B,12.2,C,,C,92.9,,,C,,T,,M,,N,,M*2A
20220704 130249+00:00 $HCHDT,125.2,T*2D
20220704 130249+00:00 $GPRMC,130244,A,4850.0898,N,12544.9298,W,9.19,128,040722,12.1,E,A,V*6A
20220704 130249+00:00 $WIMWV,80.7,R,1.89,N,A*2C
20220704 130251+00:00 $IIMDA,29.9,I,1.011,B,12.2,C,,C,92.9,,,C,,T,,M,,N,,M*2A
20220704 130251+00:00 $HCHDT,125.6,T*29
20220704 130251+00:00 $GPRMC,130246,A,4850.0898,N,12544.9196,W,9.19,129,040722,12.1,E,A,V*64
20220704 130251+00:00 $WIMWV,151.9,R,1.28,N,A*14
20220704 130253+00:00 $IIMDA,29.9,I,1.011,B,12.2,C,,C,92.9,,,C,,T,,M,,N,,M*2A
20220704 130253+00:00 $HCHDT,125.3,T*2C
20220704 130253+00:00 $GPRMC,130248,A,4850.0898,N,12544.9100,W,9.19,129,040722,12.1,E,A,V*65
20220704 130253+00:00 $WIMWV,126.19,R,0.8,N,A*16
20220704 130255+00:00 $IIMDA,29.9,I,1.011,B,12.2,C,,C,92.8,,,C,,T,,M,,N,,M*2B
20220704 130255+00:00 $HCHDT,124.8,T*26
20220704 130255+00:00 $GPRMC,130250,A,4850.0796,N,12544.9100,W,9.19,129,040722,12.1,E,A,V*6D
20220704 130255+00:00 $WIMWV,116,R,1.59,N,A*06
20220704 130257+00:00 $IIMDA,29.9,I,1.011,B,12.2,C,,C,92.9,,,C,,T,,M,,N,,M*2A
20220704 130257+00:00 $HCHDT,123.9,T*20
20220704 130257+00:00 $GPRMC,130252,A,4850.0796,N,12544.8998,W,9.19,129,040722,12.1,E,A,V*67
20220704 130257+00:00 $WIMWV,60.6,R,1.69,N,A*2D
20220704 130259+00:00 $IIMDA,29.9,I,1.011,B,12.2,C,,C,92.8,,,C,,T,,M,,N,,M*2B
20220704 130259+00:00 $HCHDT,123.9,T*20
20220704 130259+00:00 $GPRMC,130254,A,4850.0796,N,12544.8998,W,9.19,128,040722,12.1,E,A,V*60
20220704 130259+00:00 $WIMWV,124.69,R,5,N,A*00
20220704 130301+00:00 $IIMDA,29.9,I,1.011,B,12.2,C,,C,92.8,,,C,,T,,M,,N,,M*2B
20220704 130301+00:00 $HCHDT,124.3,T*2D
20220704 130301+00:00 $GPRMC,130256,A,4850.0700,N,12544.8896,W,9.19,129,040722,12.1,E,A,V*63
20220704 130301+00:00 $WIMWV,127.49,R,2.49,N,A*25
20220704 130303+00:00 $IIMDA,29.9,I,1.011,B,12.2,C,,C,92.8,,,C,,T,,M,,N,,M*2B
20220704 130303+00:00 $HCHDT,125,T*31
20220704 130303+00:00 $GPRMC,130258,A,4850.0700,N,12544.8800,W,9.19,129,040722,12.1,E,A,V*62
20220704 130303+00:00 $WIMWV,37.1,R,1.19,N,A*2F
20220704 130305+00:00 $IIMDA,29.9,I,1.011,B,12.2,C,,C,92.8,,,C,,T,,M,,N,,M*2B
20220704 130305+00:00 $HCHDT,125.6,T*29
20220704 130305+00:00 $GPRMC,130300,A,4850.0700,N,12544.8800,W,9.19,128,040722,12.1,E,A,V*6F
20220704 130305+00:00 $WIMWV,118.29,R,4.08,N,A*2C
20220704 130307+00:00 $IIMDA,29.9,I,1.011,B,12.2,C,,C,92.8,,,C,,T,,M,,N,,M*2B
20220704 130307+00:00 $HCHDT,125.6,T*29
20220704 130307+00:00 $GPRMC,130302,A,4850.0598,N,12544.8698,W,9.19,128,040722,12.1,E,A,V*61
20220704 130307+00:00 $WIMWV,123.2,R,4.3,N,A*26
20220704 130309+00:00 $IIMDA,29.9,I,1.011,B,12.2,C,,C,92.8,,,C,,T,,M,,N,,M*2B
20220704 130309+00:00 $HCHDT,125.1,T*2E
20220704 130309+00:00 $GPRMC,130304,A,4850.0598,N,12544.8698,W,9.19,128,040722,12.1,E,A,V*67
20220704 130309+00:00 $WIMWV,127.99,R,4.78,N,A*2C
20220704 130311+00:00 $IIMDA,29.9,I,1.011,B,12.2,C,,C,92.8,,,C,,T,,M,,N,,M*2B
20220704 130311+00:00 $HCHDT,124.5,T*2B
20220704 130311+00:00 $GPRMC,130306,A,4850.0598,N,12544.8596,W,9.19,128,040722,12.1,E,A,V*68
20220704 130311+00:00 $WIMWV,108.4,R,2.2,N,A*2E
20220704 130313+00:00 $IIMDA,29.9,I,1.011,B,12.2,C,,C,92.7,,,C,,T,,M,,N,,M*24
20220704 130313+00:00 $HCHDT,125,T*31
20220704 130313+00:00 $GPRMC,130308,A,4850.0496,N,12544.8500,W,9.1,128,040722,12.1,E,A,V*5F
20220704 130313+00:00 $WIMWV,25.7,R,0.39,N,A*29
20220704 130315+00:00 $IIMDA,29.9,I,1.011,B,12.2,C,,C,92.7,,,C,,T,,M,,N,,M*24
20220704 130315+00:00 $HCHDT,126.1,T*2D
20220704 130315+00:00 $GPRMC,130310,A,4850.0496,N,12544.8500,W,9.19,128,040722,12.1,E,A,V*6F
20220704 130315+00:00 $WIMWV,121.09,R,3.5,N,A*1E
20220704 130317+00:00 $IIMDA,29.9,I,1.011,B,12.2,C,,C,92.7,,,C,,T,,M,,N,,M*24
20220704 130317+00:00 $HCHDT,125.9,T*26
20220704 130317+00:00 $GPRMC,130312,A,4850.0496,N,12544.8398,W,9.19,129,040722,12.1,E,A,V*6B
20220704 130317+00:00 $WIMWV,119.5,R,2.59,N,A*11
20220704 130319+00:00 $IIMDA,29.9,I,1.011,B,12.2,C,,C,92.7,,,C,,T,,M,,N,,M*24
20220704 130319+00:00 $HCHDT,125.1,T*2E
20220704 130319+00:00 $GPRMC,130314,A,4850.0496,N,12544.8296,W,9.19,129,040722,12.1,E,A,V*62
20220704 130319+00:00 $WIMWV,120.49,R,2.9,N,A*16
20220704 130321+00:00 $IIMDA,29.9,I,1.011,B,12.2,C,,C,92.6,,,C,,T,,M,,N,,M*25
20220704 130321+00:00 $HCHDT,124.7,T*29
20220704 130321+00:00 $GPRMC,130316,A,4850.0400,N,12544.8296,W,9.19,129,040722,12.1,E,A,V*6F
20220704 130321+00:00 $WIMWV,123.29,R,2.2,N,A*18
20220704 130323+00:00 $IIMDA,29.9,I,1.011,B,12.2,C,,C,92.6,,,C,,T,,M,,N,,M*25
20220704 130323+00:00 $HCHDT,124.7,T*29
20220704 130323+00:00 $GPRMC,130318,A,4850.0400,N,12544.8200,W,9.19,129,040722,12.1,E,A,V*6E
20220704 130323+00:00 $WIMWV,29.3,R,0.8,N,A*13
20220704 130325+00:00 $IIMDA,29.9,I,1.011,B,12.2,C,,C,92.6,,,C,,T,,M,,N,,M*25
20220704 130325+00:00 $HCHDT,124.8,T*26
20220704 130325+00:00 $GPRMC,130320,A,4850.0400,N,12544.8200,W,9.19,128,040722,12.1,E,A,V*64
20220704 130325+00:00 $WIMWV,133.6,R,0.58,N,A*19
20220704 130327+00:00 $IIMDA,29.9,I,1.011,B,12.2,C,,C,92.5,,,C,,T,,M,,N,,M*26
20220704 130327+00:00 $HCHDT,124.4,T*2A
20220704 130327+00:00 $GPRMC,130322,A,4850.0298,N,12544.8098,W,9.29,128,040722,12.1,E,A,V*61
20220704 130327+00:00 $WIMWV,127.6,R,1.79,N,A*1E
20220704 130329+00:00 $IIMDA,29.9,I,1.011,B,12.2,C,,C,92.5,,,C,,T,,M,,N,,M*26
20220704 130329+00:00 $HCHDT,124.1,T*2F
20220704 130329+00:00 $GPRMC,130324,A,4850.0298,N,12544.7996,W,9.29,128,040722,12.1,E,A,V*6F
20220704 130329+00:00 $WIMWV,47.7,R,0.39,N,A*2D
20220704 130331+00:00 $IIMDA,29.9,I,1.011,B,12.2,C,,C,92.6,,,C,,T,,M,,N,,M*25
20220704 130331+00:00 $HCHDT,123.9,T*20
20220704 130331+00:00 $GPRMC,130326,A,4850.0298,N,12544.7996,W,9.29,128,040722,12.1,E,A,V*6D
20220704 130331+00:00 $WIMWV,116,R,1.59,N,A*06
20220704 130333+00:00 $IIMDA,29.9,I,1.011,B,12.2,C,,C,92.5,,,C,,T,,M,,N,,M*26
20220704 130333+00:00 $HCHDT,123.8,T*21
20220704 130333+00:00 $GPRMC,130328,A,4850.0196,N,12544.7900,W,9.19,128,040722,12.1,E,A,V*62
20220704 130333+00:00 $WIMWV,56.69,R,1.5,N,A*2B
20220704 130335+00:00 $IIMDA,29.9,I,1.011,B,12.2,C,,C,92.5,,,C,,T,,M,,N,,M*26
20220704 130335+00:00 $HCHDT,123.9,T*20
20220704 130335+00:00 $GPRMC,130330,A,4850.0196,N,12544.7900,W,9.19,128,040722,12.1,E,A,V*6B
20220704 130335+00:00 $WIMWV,77.5,R,1.28,N,A*2D
20220704 130337+00:00 $IIMDA,29.9,I,1.011,B,12.2,C,,C,92.5,,,C,,T,,M,,N,,M*26
20220704 130337+00:00 $HCHDT,123.9,T*20
20220704 130337+00:00 $GPRMC,130332,A,4850.0196,N,12544.7798,W,9.19,128,040722,12.1,E,A,V*66
20220704 130337+00:00 $WIMWV,115.59,R,0.58,N,A*27
20220704 130339+00:00 $IIMDA,29.9,I,1.011,B,12.2,C,,C,92.5,,,C,,T,,M,,N,,M*26
20220704 130339+00:00 $HCHDT,123.9,T*20
20220704 130339+00:00 $GPRMC,130334,A,4850.0100,N,12544.7696,W,9.19,128,040722,12.1,E,A,V*60
20220704 130339+00:00 $WIMWV,30.3,R,1.69,N,A*2D
20220704 130341+00:00 $IIMDA,29.9,I,1.011,B,12.2,C,,C,92.5,,,C,,T,,M,,N,,M*26
20220704 130341+00:00 $HCHDT,124.2,T*2C
20220704 130341+00:00 $GPRMC,130336,A,4850.0100,N,12544.7696,W,9.19,127,040722,12.1,E,A,V*6D
20220704 130341+00:00 $WIMWV,314.89,R,0.49,N,A*29
20220704 130343+00:00 $IIMDA,29.9,I,1.011,B,12.2,C,,C,92.5,,,C,,T,,M,,N,,M*26
20220704 130343+00:00 $HCHDT,124.5,T*2B
20220704 130343+00:00 $GPRMC,130338,A,4850.0100,N,12544.7600,W,9.19,127,040722,12.1,E,A,V*6C
20220704 130343+00:00 $WIMWV,82.9,R,1.59,N,A*2D
20220704 130345+00:00 $IIMDA,29.9,I,1.011,B,12.2,C,,C,92.5,,,C,,T,,M,,N,,M*26
20220704 130345+00:00 $HCHDT,124.4,T*2A
20220704 130345+00:00 $GPRMC,130340,A,4849.9998,N,12544.7600,W,9.19,128,040722,12.1,E,A,V*64
20220704 130345+00:00 $WIMWV,114.09,R,0.99,N,A*2E
20220704 130347+00:00 $IIMDA,29.9,I,1.011,B,12.2,C,,C,92.5,,,C,,T,,M,,N,,M*26
20220704 130347+00:00 $HCHDT,124.1,T*2F
20220704 130347+00:00 $GPRMC,130342,A,4849.9998,N,12544.7498,W,9.19,128,040722,12.1,E,A,V*65
20220704 130347+00:00 $WIMWV,127.9,R,3.79,N,A*13
20220704 130349+00:00 $IIMDA,29.9,I,1.011,B,12.2,C,,C,92.5,,,C,,T,,M,,N,,M*26
20220704 130349+00:00 $HCHDT,124.3,T*2D
20220704 130349+00:00 $GPRMC,130344,A,4849.9998,N,12544.7396,W,9.19,127,040722,12.1,E,A,V*65
20220704 130349+00:00 $WIMWV,113.39,R,1.79,N,A*25
20220704 130351+00:00 $IIMDA,29.9,I,1.011,B,12.2,C,,C,92.5,,,C,,T,,M,,N,,M*26
20220704 130351+00:00 $HCHDT,124.8,T*26
20220704 130351+00:00 $GPRMC,130346,A,4849.9998,N,12544.7396,W,9.19,127,040722,12.1,E,A,V*67
20220704 130351+00:00 $WIMWV,137.19,R,0.99,N,A*2E
20220704 130353+00:00 $IIMDA,29.9,I,1.011,B,12.2,C,,C,92.6,,,C,,T,,M,,N,,M*25
20220704 130353+00:00 $HCHDT,124.7,T*29
20220704 130353+00:00 $GPRMC,130348,A,4849.9896,N,12544.7300,W,9.19,128,040722,12.1,E,A,V*66
20220704 130353+00:00 $WIMWV,333.59,R,0.7,N,A*1B
20220704 130355+00:00 $IIMDA,29.9,I,1.011,B,12.1,C,,C,92.6,,,C,,T,,M,,N,,M*26
20220704 130355+00:00 $HCHDT,124.3,T*2D
20220704 130355+00:00 $GPRMC,130350,A,4849.9896,N,12544.7198,W,9.29,128,040722,12.1,E,A,V*6F
20220704 130355+00:00 $WIMWV,119.1,R,2.39,N,A*13
20220704 130357+00:00 $IIMDA,29.9,I,1.011,B,12.1,C,,C,92.6,,,C,,T,,M,,N,,M*26
20220704 130357+00:00 $HCHDT,124.2,T*2C
20220704 130357+00:00 $GPRMC,130352,A,4849.9896,N,12544.7198,W,9.29,128,040722,12.1,E,A,V*6D
20220704 130357+00:00 $WIMWV,129.79,R,2.99,N,A*25
20220704 130359+00:00 $IIMDA,29.9,I,1.011,B,12.1,C,,C,92.6,,,C,,T,,M,,N,,M*26
20220704 130359+00:00 $HCHDT,124.6,T*28
20220704 130359+00:00 $GPRMC,130354,A,4849.9800,N,12544.7096,W,9.29,128,040722,12.1,E,A,V*6B
20220704 130359+00:00 $WIMWV,112,R,2.49,N,A*00
20220704 130401+00:00 $IIMDA,29.9,I,1.011,B,12.1,C,,C,92.6,,,C,,T,,M,,N,,M*26
20220704 130401+00:00 $HCHDT,124.8,T*26
20220704 130401+00:00 $GPRMC,130356,A,4849.9800,N,12544.7096,W,9.19,128,040722,12.1,E,A,V*6A
20220704 130401+00:00 $WIMWV,112.6,R,2.39,N,A*1F
20220704 130403+00:00 $IIMDA,29.9,I,1.011,B,12.1,C,,C,92.7,,,C,,T,,M,,N,,M*27
20220704 130403+00:00 $HCHDT,124.7,T*29
20220704 130403+00:00 $GPRMC,130358,A,4849.9800,N,12544.7000,W,9.19,128,040722,12.1,E,A,V*6B
20220704 130403+00:00 $WIMWV,176.9,R,2.29,N,A*13
20220704 130405+00:00 $IIMDA,29.9,I,1.011,B,12.1,C,,C,92.7,,,C,,T,,M,,N,,M*27
20220704 130405+00:00 $HCHDT,124.9,T*27
20220704 130405+00:00 $GPRMC,130400,A,4849.9698,N,12544.6898,W,9.29,128,040722,12.1,E,A,V*65
20220704 130405+00:00 $WIMWV,192.69,R,2.49,N,A*29
20220704 130407+00:00 $IIMDA,29.9,I,1.011,B,12.1,C,,C,92.7,,,C,,T,,M,,N,,M*27
20220704 130407+00:00 $HCHDT,125,T*31
20220704 130407+00:00 $GPRMC,130402,A,4849.9698,N,12544.6898,W,9.29,128,040722,12.1,E,A,V*67
20220704 130407+00:00 $WIMWV,180.6,R,2.29,N,A*15
20220704 130409+00:00 $IIMDA,29.9,I,1.011,B,12.2,C,,C,92.8,,,C,,T,,M,,N,,M*2B
20220704 130409+00:00 $HCHDT,125,T*31
20220704 130409+00:00 $GPRMC,130404,A,4849.9698,N,12544.6796,W,9.29,128,040722,12.1,E,A,V*60
20220704 130409+00:00 $WIMWV,152.8,R,2.49,N,A*12
20220704 130411+00:00 $IIMDA,29.9,I,1.011,B,12.2,C,,C,92.9,,,C,,T,,M,,N,,M*2A
20220704 130411+00:00 $HCHDT,124.9,T*27
20220704 130411+00:00 $GPRMC,130406,A,4849.9596,N,12544.6796,W,9.29,128,040722,12.1,E,A,V*6F
20220704 130411+00:00 $WIMWV,91.7,R,2.39,N,A*24
20220704 130413+00:00 $IIMDA,29.9,I,1.011,B,12.2,C,,C,93,,,C,,T,,M,,N,,M*3C
20220704 130413+00:00 $HCHDT,124.6,T*28
20220704 130413+00:00 $GPRMC,130408,A,4849.9596,N,12544.6700,W,9.29,128,040722,12.1,E,A,V*6E
20220704 130413+00:00 $WIMWV,71.29,R,0.58,N,A*13
20220704 130415+00:00 $IIMDA,29.9,I,1.011,B,12.2,C,,C,93,,,C,,T,,M,,N,,M*3C
20220704 130415+00:00 $HCHDT,124.8,T*26
20220704 130415+00:00 $GPRMC,130410,A,4849.9596,N,12544.6598,W,9.19,128,040722,12.1,E,A,V*67
20220704 130415+00:00 $WIMWV,345.79,R,1.09,N,A*27
20220704 130417+00:00 $IIMDA,29.9,I,1.011,B,12.2,C,,C,93.1,,,C,,T,,M,,N,,M*23
20220704 130417+00:00 $HCHDT,125.5,T*2A
20220704 130417+00:00 $GPRMC,130412,A,4849.9500,N,12544.6598,W,9.19,128,040722,12.1,E,A,V*6A
20220704 130417+00:00 $WIMWV,91.7,R,0.7,N,A*1B
20220704 130419+00:00 $IIMDA,29.9,I,1.011,B,12.2,C,,C,93.2,,,C,,T,,M,,N,,M*20
20220704 130419+00:00 $HCHDT,125.3,T*2C
20220704 130419+00:00 $GPRMC,130414,A,4849.9500,N,12544.6496,W,9.29,128,040722,12.1,E,A,V*60
20220704 130419+00:00 $WIMWV,115.59,R,0.7,N,A*1D
20220704 130421+00:00 $IIMDA,29.9,I,1.011,B,12.2,C,,C,93.2,,,C,,T,,M,,N,,M*20
20220704 130421+00:00 $HCHDT,124.1,T*2F
20220704 130421+00:00 $GPRMC,130416,A,4849.9500,N,12544.6400,W,9.19,129,040722,12.1,E,A,V*6F
20220704 130421+00:00 $WIMWV,269.99,R,1.5,N,A*1A
20220704 130423+00:00 $IIMDA,29.9,I,1.011,B,12.2,C,,C,93.2,,,C,,T,,M,,N,,M*20
20220704 130423+00:00 $HCHDT,123.7,T*2E
20220704 130423+00:00 $GPRMC,130418,A,4849.9398,N,12544.6400,W,9.19,128,040722,12.1,E,A,V*67
20220704 130423+00:00 $WIMWV,77.4,R,1.19,N,A*2E
20220704 130425+00:00 $IIMDA,29.9,I,1.011,B,12.2,C,,C,93.3,,,C,,T,,M,,N,,M*21
20220704 130425+00:00 $HCHDT,124.4,T*2A
20220704 130425+00:00 $GPRMC,130420,A,4849.9398,N,12544.6298,W,9.19,128,040722,12.1,E,A,V*6B
20220704 130425+00:00 $WIMWV,49.8,R,1.4,N,A*13
20220704 130427+00:00 $IIMDA,29.9,I,1.011,B,12.2,C,,C,93.3,,,C,,T,,M,,N,,M*21
20220704 130427+00:00 $HCHDT,124.5,T*2B
20220704 130427+00:00 $GPRMC,130422,A,4849.9398,N,12544.6298,W,9.19,128,040722,12.1,E,A,V*69
20220704 130427+00:00 $WIMWV,327.89,R,0.49,N,A*29
20220704 130429+00:00 $IIMDA,29.9,I,1.011,B,12.2,C,,C,93.3,,,C,,T,,M,,N,,M*21
20220704 130429+00:00 $HCHDT,123.9,T*20
20220704 130429+00:00 $GPRMC,130424,A,4849.9296,N,12544.6196,W,9.29,128,040722,12.1,E,A,V*6E
20220704 130429+00:00 $WIMWV,238.29,R,0.8,N,A*19
20220704 130431+00:00 $IIMDA,29.9,I,1.011,B,12.2,C,,C,93.3,,,C,,T,,M,,N,,M*21
20220704 130431+00:00 $HCHDT,123.6,T*2F
20220704 130431+00:00 $GPRMC,130426,A,4849.9296,N,12544.6100,W,9.29,128,040722,12.1,E,A,V*63
20220704 130431+00:00 $WIMWV,306.39,R,1.59,N,A*21
20220704 130433+00:00 $IIMDA,29.9,I,1.011,B,12.2,C,,C,93.2,,,C,,T,,M,,N,,M*20
20220704 130433+00:00 $HCHDT,123.2,T*2B
20220704 130433+00:00 $GPRMC,130428,A,4849.9296,N,12544.6100,W,9.19,128,040722,12.1,E,A,V*6E
20220704 130433+00:00 $WIMWV,33.9,R,0.58,N,A*27
20220704 130435+00:00 $IIMDA,29.9,I,1.011,B,12.2,C,,C,93.3,,,C,,T,,M,,N,,M*21
20220704 130435+00:00 $HCHDT,123.3,T*2A
20220704 130435+00:00 $GPRMC,130430,A,4849.9296,N,12544.5998,W,9.19,127,040722,12.1,E,A,V*62
20220704 130435+00:00 $WIMWV,72.2,R,0.7,N,A*13
20220704 130437+00:00 $IIMDA,29.9,I,1.011,B,12.2,C,,C,93.3,,,C,,T,,M,,N,,M*21
20220704 130437+00:00 $HCHDT,123.7,T*2E
20220704 130437+00:00 $GPRMC,130432,A,4849.9200,N,12544.5998,W,9.19,127,040722,12.1,E,A,V*6F
20220704 130437+00:00 $WIMWV,72.39,R,0.7,N,A*2B
20220704 130439+00:00 $IIMDA,29.9,I,1.011,B,12.2,C,,C,93.3,,,C,,T,,M,,N,,M*21
20220704 130439+00:00 $HCHDT,124.1,T*2F
20220704 130439+00:00 $GPRMC,130434,A,4849.9200,N,12544.5896,W,9.19,127,040722,12.1,E,A,V*66
20220704 130439+00:00 $WIMWV,74.5,R,0.49,N,A*28
20220704 130441+00:00 $IIMDA,29.9,I,1.011,B,12.2,C,,C,93.3,,,C,,T,,M,,N,,M*21
20220704 130441+00:00 $HCHDT,124.1,T*2F
20220704 130441+00:00 $GPRMC,130436,A,4849.9200,N,12544.5800,W,9.19,127,040722,12.1,E,A,V*6B
20220704 130441+00:00 $WIMWV,64.19,R,0.49,N,A*14
20220704 130443+00:00 $IIMDA,29.9,I,1.011,B,12.2,C,,C,93.3,,,C,,T,,M,,N,,M*21
20220704 130443+00:00 $HCHDT,124.5,T*2B
20220704 130443+00:00 $GPRMC,130438,A,4849.9098,N,12544.5800,W,9.19,127,040722,12.1,E,A,V*66
20220704 130443+00:00 $WIMWV,309.49,R,0.29,N,A*2F
20220704 130445+00:00 $IIMDA,29.9,I,1.011,B,12.2,C,,C,93.3,,,C,,T,,M,,N,,M*21
20220704 130445+00:00 $HCHDT,124.7,T*29
20220704 130445+00:00 $GPRMC,130440,A,4849.9098,N,12544.5698,W,9.19,127,040722,12.1,E,A,V*66
20220704 130445+00:00 $WIMWV,23.79,R,0.7,N,A*2B
20220704 130447+00:00 $IIMDA,29.9,I,1.011,B,12.2,C,,C,93.2,,,C,,T,,M,,N,,M*20
20220704 130447+00:00 $HCHDT,124.8,T*26
20220704 130447+00:00 $GPRMC,130442,A,4849.9098,N,12544.5698,W,9.19,128,040722,12.1,E,A,V*6B
20220704 130447+00:00 $WIMWV,61.7,R,0.58,N,A*2E
20220704 130449+00:00 $IIMDA,29.9,I,1.011,B,12.2,C,,C,93.3,,,C,,T,,M,,N,,M*21
20220704 130449+00:00 $HCHDT,125.4,T*2B
20220704 130449+00:00 $GPRMC,130444,A,4849.8996,N,12544.5596,W,9.19,128,040722,12.1,E,A,V*66
20220704 130449+00:00 $WIMWV,91.7,R,0.39,N,A*26
20220704 130451+00:00 $IIMDA,29.9,I,1.011,B,12.2,C,,C,93.2,,,C,,T,,M,,N,,M*20
20220704 130451+00:00 $HCHDT,125.5,T*2A
20220704 130451+00:00 $GPRMC,130446,A,4849.8996,N,12544.5500,W,9.19,128,040722,12.1,E,A,V*6B
20220704 130451+00:00 $WIMWV,149.79,R,0.58,N,A*2C
20220704 130453+00:00 $IIMDA,29.9,I,1.011,B,12.2,C,,C,93.3,,,C,,T,,M,,N,,M*21
20220704 130453+00:00 $HCHDT,125,T*31
20220704 130453+00:00 $GPRMC,130448,A,4849.8996,N,12544.5500,W,9.29,128,040722,12.1,E,A,V*66
20220704 130453+00:00 $WIMWV,0.19,R,0.19,N,A*23
20220704 130455+00:00 $IIMDA,29.9,I,1.011,B,12.2,C,,C,93.3,,,C,,T,,M,,N,,M*21
20220704 130455+00:00 $HCHDT,124.6,T*28
20220704 130455+00:00 $GPRMC,130450,A,4849.8900,N,12544.5398,W,9.29,128,040722,12.1,E,A,V*67
20220704 130455+00:00 $WIMWV,119,R,2.68,N,A*08
20220704 130457+00:00 $IIMDA,29.9,I,1.011,B,12.2,C,,C,93.2,,,C,,T,,M,,N,,M*20
20220704 130457+00:00 $HCHDT,124.3,T*2D
20220704 130457+00:00 $GPRMC,130452,A,4849.8900,N,12544.5296,W,9.29,128,040722,12.1,E,A,V*6A
20220704 130457+00:00 $WIMWV,99.49,R,1.79,N,A*11
20220704 130459+00:00 $IIMDA,29.9,I,1.011,B,12.2,C,,C,93.3,,,C,,T,,M,,N,,M*21
20220704 130459+00:00 $HCHDT,124.7,T*29
20220704 130459+00:00 $GPRMC,130454,A,4849.8900,N,12544.5296,W,9.29,128,040722,12.1,E,A,V*6C
20220704 130459+00:00 $WIMWV,109.3,R,2.39,N,A*10
20220704 130501+00:00 $IIMDA,29.9,I,1.011,B,12.2,C,,C,93.2,,,C,,T,,M,,N,,M*20
20220704 130501+00:00 $HCHDT,125.3,T*2C
20220704 130501+00:00 $GPRMC,130456,A,4849.8798,N,12544.5200,W,9.29,128,040722,12.1,E,A,V*6E
20220704 130502+00:00 $WIMWV,30.1,R,0.89,N,A*20
20220704 130503+00:00 $IIMDA,29.9,I,1.011,B,12.2,C,,C,93.2,,,C,,T,,M,,N,,M*20
20220704 130503+00:00 $HCHDT,125.8,T*27
20220704 130503+00:00 $GPRMC,130458,A,4849.8798,N,12544.5200,W,9.19,129,040722,12.1,E,A,V*62
20220704 130503+00:00 $WIMWV,31.5,R,1.19,N,A*2D
20220704 130505+00:00 $IIMDA,29.9,I,1.011,B,12.2,C,,C,93.2,,,C,,T,,M,,N,,M*20
20220704 130505+00:00 $HCHDT,125.3,T*2C
20220704 130505+00:00 $GPRMC,130500,A,4849.8798,N,12544.5098,W,9.29,129,040722,12.1,E,A,V*6E
20220704 130505+00:00 $WIMWV,296.19,R,0.99,N,A*26
20220704 130507+00:00 $IIMDA,29.9,I,1.011,B,12.2,C,,C,93.2,,,C,,T,,M,,N,,M*20
20220704 130507+00:00 $HCHDT,124.5,T*2B
20220704 130507+00:00 $GPRMC,130502,A,4849.8696,N,12544.4996,W,9.29,129,040722,12.1,E,A,V*65
20220704 130507+00:00 $WIMWV,233.8,R,1.28,N,A*12
20220704 130509+00:00 $IIMDA,29.9,I,1.011,B,12.2,C,,C,93.2,,,C,,T,,M,,N,,M*20
20220704 130509+00:00 $HCHDT,124.5,T*2B
20220704 130509+00:00 $GPRMC,130504,A,4849.8696,N,12544.4996,W,9.29,129,040722,12.1,E,A,V*63
20220704 130509+00:00 $WIMWV,117.7,R,0.8,N,A*2B
20220704 130511+00:00 $IIMDA,29.9,I,1.011,B,12.2,C,,C,93.2,,,C,,T,,M,,N,,M*20
20220704 130511+00:00 $HCHDT,124.8,T*26
20220704 130511+00:00 $GPRMC,130506,A,4849.8696,N,12544.4900,W,9.19,128,040722,12.1,E,A,V*6C
20220704 130511+00:00 $WIMWV,105.3,R,1.59,N,A*19
20220704 130513+00:00 $IIMDA,29.9,I,1.011,B,12.2,C,,C,93.2,,,C,,T,,M,,N,,M*20
20220704 130513+00:00 $HCHDT,124.8,T*26
20220704 130513+00:00 $GPRMC,130508,A,4849.8696,N,12544.4900,W,9.19,128,040722,12.1,E,A,V*62
20220704 130513+00:00 $WIMWV,118.6,R,1.69,N,A*13
20220704 130515+00:00 $IIMDA,29.9,I,1.011,B,12.2,C,,C,93.2,,,C,,T,,M,,N,,M*20
20220704 130515+00:00 $HCHDT,124.7,T*29
20220704 130515+00:00 $GPRMC,130510,A,4849.8600,N,12544.4798,W,9.19,128,040722,12.1,E,A,V*6B
20220704 130515+00:00 $WIMWV,180.6,R,0.19,N,A*14
20220704 130517+00:00 $IIMDA,29.9,I,1.011,B,12.2,C,,C,93.2,,,C,,T,,M,,N,,M*20
20220704 130517+00:00 $HCHDT,124.5,T*2B
20220704 130517+00:00 $GPRMC,130512,A,4849.8600,N,12544.4696,W,9.19,128,040722,12.1,E,A,V*66
20220704 130517+00:00 $WIMWV,234.49,R,1.28,N,A*20
20220704 130519+00:00 $IIMDA,29.9,I,1.011,B,12.2,C,,C,93.2,,,C,,T,,M,,N,,M*20
20220704 130519+00:00 $HCHDT,124,T*30
20220704 130519+00:00 $GPRMC,130514,A,4849.8600,N,12544.4696,W,9.19,128,040722,12.1,E,A,V*60
20220704 130519+00:00 $WIMWV,279.29,R,1.28,N,A*2F
20220704 130521+00:00 $IIMDA,29.9,I,1.011,B,12.2,C,,C,93.2,,,C,,T,,M,,N,,M*20
20220704 130521+00:00 $HCHDT,123.5,T*2C
20220704 130521+00:00 $GPRMC,130516,A,4849.8498,N,12544.4600,W,9.19,128,040722,12.1,E,A,V*6E
20220704 130521+00:00 $WIMWV,314.19,R,0.8,N,A*15
20220704 130523+00:00 $IIMDA,29.9,I,1.011,B,12.2,C,,C,93.2,,,C,,T,,M,,N,,M*20
20220704 130523+00:00 $HCHDT,123.6,T*2F
20220704 130523+00:00 $GPRMC,130518,A,4849.8498,N,12544.4600,W,9.19,128,040722,12.1,E,A,V*60
20220704 130523+00:00 $WIMWV,293.49,R,0.58,N,A*2B
20220704 130525+00:00 $IIMDA,29.9,I,1.011,B,12.2,C,,C,93.2,,,C,,T,,M,,N,,M*20
20220704 130525+00:00 $HCHDT,124.4,T*2A
20220704 130525+00:00 $GPRMC,130520,A,4849.8498,N,12544.4498,W,9.19,128,040722,12.1,E,A,V*68
20220704 130525+00:00 $WIMWV,247.09,R,1.09,N,A*23
20220704 130527+00:00 $IIMDA,29.9,I,1.011,B,12.2,C,,C,93.2,,,C,,T,,M,,N,,M*20
20220704 130527+00:00 $HCHDT,125,T*31
20220704 130527+00:00 $GPRMC,130522,A,4849.8396,N,12544.4396,W,9.19,128,040722,12.1,E,A,V*6A
20220704 130527+00:00 $WIMWV,119.9,R,2.9,N,A*28
20220704 130529+00:00 $IIMDA,29.9,I,1.011,B,12.2,C,,C,93.2,,,C,,T,,M,,N,,M*20
20220704 130529+00:00 $HCHDT,125,T*31
20220704 130529+00:00 $GPRMC,130524,A,4849.8396,N,12544.4396,W,9.19,128,040722,12.1,E,A,V*6C
20220704 130529+00:00 $WIMWV,116.69,R,4.08,N,A*26
20220704 130531+00:00 $IIMDA,29.9,I,1.011,B,12.2,C,,C,93.2,,,C,,T,,M,,N,,M*20
20220704 130531+00:00 $HCHDT,124.3,T*2D
20220704 130531+00:00 $GPRMC,130526,A,4849.8396,N,12544.4300,W,9.19,128,040722,12.1,E,A,V*61
20220704 130531+00:00 $WIMWV,125.2,R,5.6,N,A*24
20220704 130533+00:00 $IIMDA,29.9,I,1.011,B,12.2,C,,C,93.2,,,C,,T,,M,,N,,M*20
20220704 130533+00:00 $HCHDT,124.2,T*2C
20220704 130533+00:00 $GPRMC,130528,A,4849.8300,N,12544.4198,W,9.19,128,040722,12.1,E,A,V*63
20220704 130533+00:00 $WIMWV,109.69,R,3.69,N,A*28
20220704 130535+00:00 $IIMDA,29.9,I,1.011,B,12.2,C,,C,93.2,,,C,,T,,M,,N,,M*20
20220704 130535+00:00 $HCHDT,124.6,T*28
20220704 130535+00:00 $GPRMC,130530,A,4849.8300,N,12544.4198,W,9.19,128,040722,12.1,E,A,V*6A
20220704 130535+00:00 $WIMWV,123.5,R,4.49,N,A*1F
20220704 130537+00:00 $IIMDA,29.9,I,1.011,B,12.1,C,,C,93.2,,,C,,T,,M,,N,,M*23
20220704 130537+00:00 $HCHDT,125.4,T*2B
20220704 130537+00:00 $GPRMC,130532,A,4849.8300,N,12544.4096,W,9.19,128,040722,12.1,E,A,V*67
20220704 130537+00:00 $WIMWV,114.69,R,3.6,N,A*1D
20220704 130539+00:00 $IIMDA,29.9,I,1.011,B,12.1,C,,C,93.2,,,C,,T,,M,,N,,M*23
20220704 130539+00:00 $HCHDT,125.9,T*26
20220704 130539+00:00 $GPRMC,130534,A,4849.8198,N,12544.4096,W,9.19,128,040722,12.1,E,A,V*62
20220704 130539+00:00 $WIMWV,119.3,R,2.68,N,A*15
20220704 130541+00:00 $IIMDA,29.9,I,1.011,B,12.1,C,,C,93.1,,,C,,T,,M,,N,,M*20
20220704 130541+00:00 $HCHDT,125.5,T*2A
20220704 130541+00:00 $GPRMC,130536,A,4849.8198,N,12544.4000,W,9.19,128,040722,12.1,E,A,V*6F
20220704 130541+00:00 $WIMWV,126.3,R,5,N,A*3E
20220704 130543+00:00 $IIMDA,29.9,I,1.011,B,12.1,C,,C,93.1,,,C,,T,,M,,N,,M*20
20220704 130543+00:00 $HCHDT,124.4,T*2A
20220704 130543+00:00 $GPRMC,130538,A,4849.8198,N,12544.3898,W,9.19,129,040722,12.1,E,A,V*6E
20220704 130543+00:00 $WIMWV,119.3,R,2.39,N,A*11
20220704 130545+00:00 $IIMDA,29.9,I,1.011,B,12.1,C,,C,93.1,,,C,,T,,M,,N,,M*20
20220704 130545+00:00 $HCHDT,123.5,T*2C
20220704 130545+00:00 $GPRMC,130540,A,4849.8096,N,12544.3898,W,9.19,129,040722,12.1,E,A,V*6E
20220704 130545+00:00 $WIMWV,111.89,R,1.5,N,A*17
20220704 130547+00:00 $IIMDA,29.9,I,1.011,B,12.1,C,,C,93.1,,,C,,T,,M,,N,,M*20
20220704 130547+00:00 $HCHDT,123.7,T*2E
20220704 130547+00:00 $GPRMC,130542,A,4849.8096,N,12544.3796,W,9.19,128,040722,12.1,E,A,V*6C
20220704 130547+00:00 $WIMWV,124.3,R,3.79,N,A*1A
20220704 130549+00:00 $IIMDA,29.9,I,1.011,B,12.1,C,,C,93.1,,,C,,T,,M,,N,,M*20
20220704 130549+00:00 $HCHDT,124.7,T*29
20220704 130549+00:00 $GPRMC,130544,A,4849.8096,N,12544.3796,W,9.19,128,040722,12.1,E,A,V*6A
20220704 130549+00:00 $WIMWV,348.39,R,0.58,N,A*2B
20220704 130551+00:00 $IIMDA,29.9,I,1.011,B,12.1,C,,C,93.1,,,C,,T,,M,,N,,M*20
20220704 130551+00:00 $HCHDT,124.9,T*27
20220704 130551+00:00 $GPRMC,130546,A,4849.8096,N,12544.3700,W,9.19,128,040722,12.1,E,A,V*67
20220704 130551+00:00 $WIMWV,129.49,R,2.39,N,A*2C
20220704 130553+00:00 $IIMDA,29.9,I,1.011,B,12.1,C,,C,93,,,C,,T,,M,,N,,M*3F
20220704 130553+00:00 $HCHDT,124.7,T*29
20220704 130553+00:00 $GPRMC,130548,A,4849.8000,N,12544.3598,W,9.19,128,040722,12.1,E,A,V*65
20220704 130553+00:00 $WIMWV,104.5,R,0.99,N,A*13
20220704 130555+00:00 $IIMDA,29.9,I,1.011,B,12.1,C,,C,93,,,C,,T,,M,,N,,M*3F
20220704 130555+00:00 $HCHDT,124.3,T*2D
20220704 130555+00:00 $GPRMC,130550,A,4849.8000,N,12544.3598,W,9.19,128,040722,12.1,E,A,V*6C
20220704 130555+00:00 $WIMWV,98.5,R,2.8,N,A*1D
20220704 130557+00:00 $IIMDA,29.9,I,1.011,B,12.1,C,,C,93,,,C,,T,,M,,N,,M*3F
20220704 130557+00:00 $HCHDT,125,T*31
20220704 130557+00:00 $GPRMC,130552,A,4849.8000,N,12544.3496,W,9.19,128,040722,12.1,E,A,V*61
20220704 130557+00:00 $WIMWV,118.29,R,2.99,N,A*22
20220704 130559+00:00 $IIMDA,29.9,I,1.011,B,12.1,C,,C,93,,,C,,T,,M,,N,,M*3F
20220704 130559+00:00 $HCHDT,125.6,T*29
20220704 130559+00:00 $GPRMC,130554,A,4849.7898,N,12544.3496,W,9.19,128,040722,12.1,E,A,V*61
20220704 130559+00:00 $WIMWV,72,R,1.59,N,A*35
20220704 130601+00:00 $IIMDA,29.9,I,1.011,B,12.1,C,,C,93,,,C,,T,,M,,N,,M*3F
20220704 130601+00:00 $HCHDT,125.8,T*27
20220704 130601+00:00 $GPRMC,130556,A,4849.7898,N,12544.3400,W,9.19,128,040722,12.1,E,A,V*6C
20220704 130602+00:00 $WIMWV,0.19,R,0.8,N,A*13
20220704 130603+00:00 $IIMDA,29.9,I,1.011,B,12.1,C,,C,93,,,C,,T,,M,,N,,M*3F
20220704 130603+00:00 $HCHDT,125.5,T*2A
20220704 130603+00:00 $GPRMC,130558,A,4849.7898,N,12544.3298,W,9.19,129,040722,12.1,E,A,V*64
20220704 130603+00:00 $WIMWV,325.89,R,1.28,N,A*2D
20220704 130605+00:00 $IIMDA,29.9,I,1.011,B,12.1,C,,C,92.9,,,C,,T,,M,,N,,M*29
20220704 130605+00:00 $HCHDT,125.3,T*2C
20220704 130605+00:00 $GPRMC,130600,A,4849.7796,N,12544.3298,W,9.19,129,040722,12.1,E,A,V*6B
20220704 130605+00:00 $WIMWV,130.39,R,2.59,N,A*25
20220704 130607+00:00 $IIMDA,29.9,I,1.011,B,12.1,C,,C,93,,,C,,T,,M,,N,,M*3F
20220704 130607+00:00 $HCHDT,124.8,T*26
20220704 130607+00:00 $GPRMC,130602,A,4849.7796,N,12544.3196,W,9.29,129,040722,12.1,E,A,V*67
20220704 130607+00:00 $WIMWV,0.19,R,0.49,N,A*26
20220704 130609+00:00 $IIMDA,29.9,I,1.011,B,12.1,C,,C,93,,,C,,T,,M,,N,,M*3F
20220704 130609+00:00 $HCHDT,124.3,T*2D
20220704 130609+00:00 $GPRMC,130604,A,4849.7796,N,12544.3196,W,9.29,129,040722,12.1,E,A,V*61
20220704 130609+00:00 $WIMWV,0.19,R,0.19,N,A*23
20220704 130611+00:00 $IIMDA,29.9,I,1.011,B,12.1,C,,C,92.9,,,C,,T,,M,,N,,M*29
20220704 130611+00:00 $HCHDT,123.7,T*2E
20220704 130611+00:00 $GPRMC,130606,A,4849.7700,N,12544.3100,W,9.29,128,040722,12.1,E,A,V*62
20220704 130611+00:00 $WIMWV,117.99,R,1.79,N,A*2B
20220704 130613+00:00 $IIMDA,29.9,I,1.011,B,12.1,C,,C,92.9,,,C,,T,,M,,N,,M*29
20220704 130613+00:00 $HCHDT,124.2,T*2C
20220704 130613+00:00 $GPRMC,130608,A,4849.7700,N,12544.2998,W,9.29,128,040722,12.1,E,A,V*64
20220704 130613+00:00 $WIMWV,119.7,R,1.59,N,A*10
20220704 130615+00:00 $IIMDA,29.9,I,1.011,B,12.1,C,,C,93,,,C,,T,,M,,N,,M*3F
20220704 130615+00:00 $HCHDT,125.1,T*2E
20220704 130615+00:00 $GPRMC,130610,A,4849.7700,N,12544.2998,W,9.29,128,040722,12.1,E,A,V*6D
20220704 130615+00:00 $WIMWV,91.7,R,0.8,N,A*14
20220704 130617+00:00 $IIMDA,29.9,I,1.011,B,12.1,C,,C,92.9,,,C,,T,,M,,N,,M*29
20220704 130617+00:00 $HCHDT,125.3,T*2C
20220704 130617+00:00 $GPRMC,130612,A,4849.7598,N,12544.2896,W,9.29,128,040722,12.1,E,A,V*63
20220704 130617+00:00 $WIMWV,324.89,R,1.09,N,A*2F
20220704 130619+00:00 $IIMDA,29.9,I,1.011,B,12.1,C,,C,93,,,C,,T,,M,,N,,M*3F
20220704 130619+00:00 $HCHDT,125.1,T*2E
20220704 130619+00:00 $GPRMC,130614,A,4849.7598,N,12544.2800,W,9.29,128,040722,12.1,E,A,V*6A
20220704 130619+00:00 $WIMWV,304.09,R,0.29,N,A*26
20220704 130621+00:00 $IIMDA,29.9,I,1.011,B,12.1,C,,C,92.9,,,C,,T,,M,,N,,M*29
20220704 130621+00:00 $HCHDT,124.9,T*27
20220704 130621+00:00 $GPRMC,130616,A,4849.7598,N,12544.2800,W,9.29,128,040722,12.1,E,A,V*68
20220704 130621+00:00 $WIMWV,71,R,0.49,N,A*36
20220704 130623+00:00 $IIMDA,29.9,I,1.011,B,12.1,C,,C,93,,,C,,T,,M,,N,,M*3F
20220704 130623+00:00 $HCHDT,125.5,T*2A
20220704 130623+00:00 $GPRMC,130618,A,4849.7496,N,12544.2698,W,9.19,128,040722,12.1,E,A,V*65
20220704 130623+00:00 $WIMWV,121.59,R,3.79,N,A*20
20220704 130625+00:00 $IIMDA,29.9,I,1.011,B,12.1,C,,C,93,,,C,,T,,M,,N,,M*3F
20220704 130625+00:00 $HCHDT,126.5,T*29
20220704 130625+00:00 $GPRMC,130620,A,4849.7496,N,12544.2698,W,9.19,128,040722,12.1,E,A,V*6E
20220704 130625+00:00 $WIMWV,117.3,R,0.7,N,A*20
20220704 130627+00:00 $IIMDA,29.9,I,1.011,B,12.1,C,,C,93,,,C,,T,,M,,N,,M*3F
20220704 130627+00:00 $HCHDT,126.4,T*28
20220704 130627+00:00 $GPRMC,130622,A,4849.7496,N,12544.2596,W,9.19,129,040722,12.1,E,A,V*60
20220704 130627+00:00 $WIMWV,123.29,R,2.8,N,A*12
20220704 130629+00:00 $IIMDA,29.9,I,1.011,B,12.1,C,,C,93,,,C,,T,,M,,N,,M*3F
20220704 130629+00:00 $HCHDT,125.3,T*2C
20220704 130629+00:00 $GPRMC,130624,A,4849.7400,N,12544.2500,W,9.19,129,040722,12.1,E,A,V*66
20220704 130629+00:00 $WIMWV,134.9,R,3.19,N,A*17
20220704 130631+00:00 $IIMDA,29.9,I,1.011,B,12.1,C,,C,93,,,C,,T,,M,,N,,M*3F
20220704 130631+00:00 $HCHDT,125.2,T*2D
20220704 130631+00:00 $GPRMC,130626,A,4849.7400,N,12544.2500,W,9.19,129,040722,12.1,E,A,V*64
20220704 130631+00:00 $WIMWV,121.5,R,2.59,N,A*1A
20220704 130633+00:00 $IIMDA,29.9,I,1.011,B,12.1,C,,C,93,,,C,,T,,M,,N,,M*3F
20220704 130633+00:00 $HCHDT,125.7,T*28
20220704 130633+00:00 $GPRMC,130628,A,4849.7400,N,12544.2398,W,9.19,129,040722,12.1,E,A,V*6D
20220704 130633+00:00 $WIMWV,120.2,R,3.6,N,A*27
20220704 130635+00:00 $IIMDA,29.9,I,1.011,B,12.1,C,,C,93.1,,,C,,T,,M,,N,,M*20
20220704 130635+00:00 $HCHDT,126.1,T*2D
20220704 130635+00:00 $GPRMC,130630,A,4849.7400,N,12544.2398,W,9.29,129,040722,12.1,E,A,V*67
20220704 130635+00:00 $WIMWV,233.29,R,0.58,N,A*27
20220704 130637+00:00 $IIMDA,29.9,I,1.011,B,12.1,C,,C,93.1,,,C,,T,,M,,N,,M*20
20220704 130637+00:00 $HCHDT,125.8,T*27
20220704 130637+00:00 $GPRMC,130632,A,4849.7298,N,12544.2296,W,9.19,129,040722,12.1,E,A,V*6E
20220704 130637+00:00 $WIMWV,10,R,0.99,N,A*3C
20220704 130639+00:00 $IIMDA,29.9,I,1.011,B,12.1,C,,C,93.1,,,C,,T,,M,,N,,M*20
20220704 130639+00:00 $HCHDT,124.9,T*27
20220704 130639+00:00 $GPRMC,130634,A,4849.7298,N,12544.2200,W,9.19,129,040722,12.1,E,A,V*67
20220704 130639+00:00 $WIMWV,59.59,R,2.39,N,A*1B
20220704 130641+00:00 $IIMDA,29.9,I,1.011,B,12.1,C,,C,93.1,,,C,,T,,M,,N,,M*20
20220704 130641+00:00 $HCHDT,124.4,T*2A
20220704 130641+00:00 $GPRMC,130636,A,4849.7298,N,12544.2200,W,9.19,129,040722,12.1,E,A,V*65
20220704 130641+00:00 $WIMWV,0.19,R,0.99,N,A*2B
20220704 130643+00:00 $IIMDA,29.9,I,1.011,B,12.1,C,,C,93.1,,,C,,T,,M,,N,,M*20
20220704 130643+00:00 $HCHDT,124.1,T*2F
20220704 130643+00:00 $GPRMC,130638,A,4849.7196,N,12544.2098,W,9.19,129,040722,12.1,E,A,V*65
20220704 130643+00:00 $WIMWV,104.59,R,0.89,N,A*2B
20220704 130645+00:00 $IIMDA,29.9,I,1.011,B,12.1,C,,C,93.1,,,C,,T,,M,,N,,M*20
20220704 130645+00:00 $HCHDT,123.8,T*21
20220704 130645+00:00 $GPRMC,130640,A,4849.7196,N,12544.2098,W,9.19,129,040722,12.1,E,A,V*6A
20220704 130645+00:00 $WIMWV,100,R,1.4,N,A*39
20220704 130647+00:00 $IIMDA,29.9,I,1.011,B,12.1,C,,C,93.1,,,C,,T,,M,,N,,M*20
20220704 130647+00:00 $HCHDT,124.4,T*2A
20220704 130647+00:00 $GPRMC,130642,A,4849.7196,N,12544.1996,W,9.19,128,040722,12.1,E,A,V*6D
20220704 130647+00:00 $WIMWV,29.7,R,0.49,N,A*22
20220704 130649+00:00 $IIMDA,29.9,I,1.011,B,12.1,C,,C,93.1,,,C,,T,,M,,N,,M*20
20220704 130649+00:00 $HCHDT,125.1,T*2E
20220704 130649+00:00 $GPRMC,130644,A,4849.7100,N,12544.1900,W,9.29,128,040722,12.1,E,A,V*68
20220704 130649+00:00 $WIMWV,143.69,R,1.09,N,A*22
20220704 130651+00:00 $IIMDA,29.9,I,1.011,B,12.1,C,,C,93.2,,,C,,T,,M,,N,,M*23
20220704 130651+00:00 $HCHDT,125.1,T*2E
20220704 130651+00:00 $GPRMC,130646,A,4849.7100,N,12544.1900,W,9.29,128,040722,12.1,E,A,V*6A
20220704 130651+00:00 $WIMWV,184.09,R,3.09,N,A*2D
20220704 130653+00:00 $IIMDA,29.9,I,1.011,B,12.1,C,,C,93.2,,,C,,T,,M,,N,,M*23
20220704 130653+00:00 $HCHDT,124.6,T*28
20220704 130653+00:00 $GPRMC,130648,A,4849.7100,N,12544.1798,W,9.29,128,040722,12.1,E,A,V*6B
20220704 130653+00:00 $WIMWV,125.79,R,4.78,N,A*20
20220704 130655+00:00 $IIMDA,29.9,I,1.011,B,12.1,C,,C,93.2,,,C,,T,,M,,N,,M*23
20220704 130655+00:00 $HCHDT,124.5,T*2B
20220704 130655+00:00 $GPRMC,130650,A,4849.6998,N,12544.1798,W,9.29,128,040722,12.1,E,A,V*6A
20220704 130655+00:00 $WIMWV,115.59,R,2.59,N,A*24
20220704 130657+00:00 $IIMDA,29.9,I,1.011,B,12.1,C,,C,93.2,,,C,,T,,M,,N,,M*23
20220704 130657+00:00 $HCHDT,125.3,T*2C
20220704 130657+00:00 $GPRMC,130652,A,4849.6998,N,12544.1696,W,9.29,128,040722,12.1,E,A,V*67
20220704 130657+00:00 $WIMWV,116.8,R,1.28,N,A*16
20220704 130659+00:00 $IIMDA,29.9,I,1.011,B,12.1,C,,C,93.1,,,C,,T,,M,,N,,M*20
20220704 130659+00:00 $HCHDT,125.6,T*29
20220704 130659+00:00 $GPRMC,130654,A,4849.6998,N,12544.1600,W,9.29,128,040722,12.1,E,A,V*6E
20220704 130659+00:00 $WIMWV,328.99,R,1.19,N,A*23
20220704 130701+00:00 $IIMDA,29.9,I,1.011,B,12.1,C,,C,93.1,,,C,,T,,M,,N,,M*20
20220704 130701+00:00 $HCHDT,125.5,T*2A
20220704 130701+00:00 $GPRMC,130656,A,4849.6896,N,12544.1600,W,9.29,129,040722,12.1,E,A,V*62
20220704 130701+00:00 $WIMWV,159.59,R,1.59,N,A*2F
20220704 130703+00:00 $IIMDA,29.9,I,1.011,B,12.1,C,,C,93.1,,,C,,T,,M,,N,,M*20
20220704 130703+00:00 $HCHDT,125.1,T*2E
20220704 130703+00:00 $GPRMC,130658,A,4849.6896,N,12544.1498,W,9.41,129,040722,12.1,E,A,V*61
20220704 130703+00:00 $WIMWV,115.9,R,1.59,N,A*12
20220704 130705+00:00 $IIMDA,29.9,I,1.011,B,12.1,C,,C,93.1,,,C,,T,,M,,N,,M*20
20220704 130705+00:00 $HCHDT,125.1,T*2E
20220704 130705+00:00 $GPRMC,130700,A,4849.6896,N,12544.1396,W,9.41,128,040722,12.1,E,A,V*65
20220704 130705+00:00 $WIMWV,121.99,R,4.78,N,A*2A
20220704 130707+00:00 $IIMDA,29.9,I,1.011,B,12.1,C,,C,93.1,,,C,,T,,M,,N,,M*20
20220704 130707+00:00 $HCHDT,125.1,T*2E
20220704 130707+00:00 $GPRMC,130702,A,4849.6800,N,12544.1396,W,9.29,128,040722,12.1,E,A,V*66
20220704 130707+00:00 $WIMWV,125.59,R,5.29,N,A*27
20220704 130709+00:00 $IIMDA,29.9,I,1.011,B,12.1,C,,C,93.1,,,C,,T,,M,,N,,M*20
20220704 130709+00:00 $HCHDT,124.5,T*2B
20220704 130709+00:00 $GPRMC,130704,A,4849.6800,N,12544.1300,W,9.29,128,040722,12.1,E,A,V*6F
20220704 130709+00:00 $WIMWV,121.09,R,4.2,N,A*1E
20220704 130711+00:00 $IIMDA,29.9,I,1.011,B,12.1,C,,C,93.1,,,C,,T,,M,,N,,M*20
20220704 130711+00:00 $HCHDT,123.9,T*20
20220704 130711+00:00 $GPRMC,130706,A,4849.6800,N,12544.1300,W,9.29,128,040722,12.1,E,A,V*6D
20220704 130711+00:00 $WIMWV,127.4,R,3.69,N,A*1F
20220704 130713+00:00 $IIMDA,29.9,I,1.011,B,12.1,C,,C,93.1,,,C,,T,,M,,N,,M*20
20220704 130713+00:00 $HCHDT,124.4,T*2A
20220704 130713+00:00 $GPRMC,130708,A,4849.6698,N,12544.1198,W,9.29,128,040722,12.1,E,A,V*6F
20220704 130713+00:00 $WIMWV,132.9,R,0.39,N,A*10
20220704 130715+00:00 $IIMDA,29.9,I,1.011,B,12.1,C,,C,93.1,,,C,,T,,M,,N,,M*20
20220704 130715+00:00 $HCHDT,124.8,T*26
20220704 130715+00:00 $GPRMC,130710,A,4849.6698,N,12544.1096,W,9.29,128,040722,12.1,E,A,V*69
20220704 130715+00:00 $WIMWV,208.29,R,0.39,N,A*28
20220704 130717+00:00 $IIMDA,29.9,I,1.011,B,12.1,C,,C,93.1,,,C,,T,,M,,N,,M*20
20220704 130717+00:00 $HCHDT,125.5,T*2A
20220704 130717+00:00 $GPRMC,130712,A,4849.6698,N,12544.1096,W,9.29,128,040722,12.1,E,A,V*6B
20220704 130717+00:00 $WIMWV,74.79,R,0.58,N,A*13
20220704 130719+00:00 $IIMDA,29.9,I,1.011,B,12.1,C,,C,93,,,C,,T,,M,,N,,M*3F
20220704 130719+00:00 $HCHDT,125.5,T*2A
20220704 130719+00:00 $GPRMC,130714,A,4849.6698,N,12544.1000,W,9.29,128,040722,12.1,E,A,V*62
20220704 130719+00:00 $WIMWV,109.3,R,1.59,N,A*15
20220704 130721+00:00 $IIMDA,29.9,I,1.011,B,12.1,C,,C,93,,,C,,T,,M,,N,,M*3F
20220704 130721+00:00 $HCHDT,125.2,T*2D
20220704 130721+00:00 $GPRMC,130716,A,4849.6596,N,12544.1000,W,9.29,128,040722,12.1,E,A,V*6D
20220704 130721+00:00 $WIMWV,115.9,R,3.29,N,A*17
20220704 130723+00:00 $IIMDA,29.9,I,1.011,B,12.1,C,,C,93,,,C,,T,,M,,N,,M*3F
20220704 130723+00:00 $HCHDT,124.9,T*27
20220704 130723+00:00 $GPRMC,130718,A,4849.6596,N,12544.0898,W,9.29,128,040722,12.1,E,A,V*6B
20220704 130723+00:00 $WIMWV,117.79,R,3.29,N,A*22
20220704 130725+00:00 $IIMDA,29.9,I,1.011,B,12.1,C,,C,93,,,C,,T,,M,,N,,M*3F
20220704 130725+00:00 $HCHDT,125.2,T*2D
20220704 130725+00:00 $GPRMC,130720,A,4849.6596,N,12544.0796,W,9.29,128,040722,12.1,E,A,V*61
20220704 130725+00:00 $WIMWV,26.3,R,0.58,N,A*29
20220704 130727+00:00 $IIMDA,29.9,I,1.011,B,12.1,C,,C,93,,,C,,T,,M,,N,,M*3F
20220704 130727+00:00 $HCHDT,125,T*31
20220704 130727+00:00 $GPRMC,130722,A,4849.6500,N,12544.0796,W,9.29,129,040722,12.1,E,A,V*6D
20220704 130727+00:00 $WIMWV,67,R,0.8,N,A*04
20220704 130729+00:00 $IIMDA,29.9,I,1.011,B,12.1,C,,C,93,,,C,,T,,M,,N,,M*3F
20220704 130729+00:00 $HCHDT,124.6,T*28
20220704 130729+00:00 $GPRMC,130724,A,4849.6500,N,12544.0700,W,9.29,129,040722,12.1,E,A,V*64
20220704 130729+00:00 $WIMWV,129.6,R,2.2,N,A*2F
20220704 130731+00:00 $IIMDA,29.9,I,1.011,B,12.1,C,,C,93,,,C,,T,,M,,N,,M*3F
20220704 130731+00:00 $HCHDT,124.1,T*2F
20220704 130731+00:00 $GPRMC,130726,A,4849.6500,N,12544.0598,W,9.29,129,040722,12.1,E,A,V*65
20220704 130731+00:00 $WIMWV,102,R,1.89,N,A*0E
20220704 130733+00:00 $IIMDA,29.9,I,1.011,B,12.1,C,,C,93,,,C,,T,,M,,N,,M*3F
20220704 130733+00:00 $HCHDT,124.3,T*2D
20220704 130733+00:00 $GPRMC,130728,A,4849.6398,N,12544.0598,W,9.29,128,040722,12.1,E,A,V*6D
20220704 130733+00:00 $WIMWV,114.49,R,2.1,N,A*19
20220704 130735+00:00 $IIMDA,29.9,I,1.011,B,12.1,C,,C,93,,,C,,T,,M,,N,,M*3F
20220704 130735+00:00 $HCHDT,124.9,T*27
20220704 130735+00:00 $GPRMC,130730,A,4849.6398,N,12544.0496,W,9.29,128,040722,12.1,E,A,V*6B
20220704 130735+00:00 $WIMWV,97.9,R,2.1,N,A*17
20220704 130737+00:00 $IIMDA,29.9,I,1.011,B,12.1,C,,C,93,,,C,,T,,M,,N,,M*3F
20220704 130737+00:00 $HCHDT,124.8,T*26
20220704 130737+00:00 $GPRMC,130732,A,4849.6398,N,12544.0496,W,9.29,128,040722,12.1,E,A,V*69
20220704 130737+00:00 $WIMWV,125.4,R,4.68,N,A*1B
20220704 130739+00:00 $IIMDA,29.9,I,1.011,B,12.1,C,,C,93,,,C,,T,,M,,N,,M*3F
20220704 130739+00:00 $HCHDT,123.9,T*20
20220704 130739+00:00 $GPRMC,130734,A,4849.6296,N,12544.0400,W,9.29,128,040722,12.1,E,A,V*6F
20220704 130739+00:00 $WIMWV,126.39,R,5.19,N,A*21
20220704 130741+00:00 $IIMDA,29.9,I,1.011,B,12.1,C,,C,93,,,C,,T,,M,,N,,M*3F
20220704 130741+00:00 $HCHDT,123.6,T*2F
20220704 130741+00:00 $GPRMC,130736,A,4849.6296,N,12544.0298,W,9.29,128,040722,12.1,E,A,V*6A
20220704 130741+00:00 $WIMWV,143.8,R,2.99,N,A*1F
20220704 130743+00:00 $IIMDA,29.9,I,1.011,B,12.1,C,,C,92.9,,,C,,T,,M,,N,,M*29
