20220705 000000+00:00 $IIMDA,29.9,I,1.014,B,11.9,C,,C,89.1,,,C,,T,,M,,N,,M*25
20220705 000000+00:00 $HCHDT,103.5,T*2E
20220705 000000+00:00 $GPRMC,235956,A,4816.3500,N,12335.3598,W,6.8,101,040722,11.8,E,A,V*5A
20220705 000000+00:00 $WIMWV,244.19,R,4.08,N,A*25
20220705 000002+00:00 $IIMDA,29.9,I,1.014,B,11.9,C,,C,89.1,,,C,,T,,M,,N,,M*25
20220705 000002+00:00 $HCHDT,103.2,T*29
20220705 000002+00:00 $GPRMC,235958,A,4816.3500,N,12335.3496,W,6.8,101,040722,11.8,E,A,V*5B
20220705 000002+00:00 $WIMWV,247.99,R,3.6,N,A*17
20220705 000004+00:00 $IIMDA,29.9,I,1.014,B,11.9,C,,C,89.1,,,C,,T,,M,,N,,M*25
20220705 000004+00:00 $HCHDT,102.9,T*23
20220705 000004+00:00 $GPRMC,000000,A,4816.3500,N,12335.3496,W,6.8,101,050722,11.8,E,A,V*5A
20220705 000004+00:00 $WIMWV,248.69,R,4.49,N,A*2B
20220705 000006+00:00 $IIMDA,29.9,I,1.014,B,11.9,C,,C,89.1,,,C,,T,,M,,N,,M*25
20220705 000006+00:00 $HCHDT,103.1,T*2A
20220705 000006+00:00 $GPRMC,000002,A,4816.3500,N,12335.3400,W,6.8,101,050722,11.8,E,A,V*57
20220705 000006+00:00 $WIMWV,193.2,R,3.29,N,A*12
20220705 000008+00:00 $IIMDA,29.9,I,1.014,B,11.9,C,,C,89.2,,,C,,T,,M,,N,,M*26
20220705 000008+00:00 $HCHDT,103,T*35
20220705 000008+00:00 $GPRMC,000004,A,4816.3500,N,12335.3298,W,6.9,101,050722,11.8,E,A,V*57
20220705 000008+00:00 $WIMWV,207.89,R,3.69,N,A*2B
20220705 000010+00:00 $IIMDA,29.9,I,1.014,B,11.9,C,,C,89.2,,,C,,T,,M,,N,,M*26
20220705 000010+00:00 $HCHDT,102.6,T*2C
20220705 000010+00:00 $GPRMC,000006,A,4816.3500,N,12335.3298,W,6.9,101,050722,11.8,E,A,V*55
20220705 000010+00:00 $WIMWV,231.89,R,4.49,N,A*2B
20220705 000012+00:00 $IIMDA,29.9,I,1.014,B,12,C,,C,89.2,,,C,,T,,M,,N,,M*32
20220705 000012+00:00 $HCHDT,102.7,T*2D
20220705 000012+00:00 $GPRMC,000008,A,4816.3500,N,12335.3196,W,6.9,101,050722,11.8,E,A,V*56
20220705 000012+00:00 $WIMWV,233.69,R,4.68,N,A*24
20220705 000014+00:00 $IIMDA,29.9,I,1.014,B,12,C,,C,89.2,,,C,,T,,M,,N,,M*32
20220705 000014+00:00 $HCHDT,102.8,T*22
20220705 000014+00:00 $GPRMC,000010,A,4816.3500,N,12335.3196,W,6.9,101,050722,11.8,E,A,V*5F
20220705 000014+00:00 $WIMWV,198.9,R,3.6,N,A*2F
20220705 000016+00:00 $IIMDA,29.9,I,1.014,B,12,C,,C,89.1,,,C,,T,,M,,N,,M*31
20220705 000016+00:00 $HCHDT,102.3,T*29
20220705 000016+00:00 $GPRMC,000012,A,4816.3500,N,12335.3100,W,6.9,101,050722,11.8,E,A,V*52
20220705 000016+00:00 $WIMWV,198.09,R,3.5,N,A*1C
20220705 000018+00:00 $IIMDA,29.9,I,1.014,B,12,C,,C,89.1,,,C,,T,,M,,N,,M*31
20220705 000018+00:00 $HCHDT,102.3,T*29
20220705 000018+00:00 $GPRMC,000014,A,4816.3398,N,12335.3100,W,6.9,101,050722,11.8,E,A,V*53
20220705 000018+00:00 $WIMWV,187.59,R,4.2,N,A*17
20220705 000020+00:00 $IIMDA,29.9,I,1.014,B,12,C,,C,89.1,,,C,,T,,M,,N,,M*31
20220705 000020+00:00 $HCHDT,102.7,T*2D
20220705 000020+00:00 $GPRMC,000016,A,4816.3398,N,12335.2998,W,6.9,101,050722,11.8,E,A,V*59
20220705 000020+00:00 $WIMWV,190.69,R,4.08,N,A*28
20220705 000022+00:00 $IIMDA,29.9,I,1.014,B,12,C,,C,89,,,C,,T,,M,,N,,M*2E
20220705 000022+00:00 $HCHDT,102.3,T*29
20220705 000022+00:00 $GPRMC,000018,A,4816.3398,N,12335.2896,W,6.9,101,050722,11.8,E,A,V*58
20220705 000022+00:00 $WIMWV,189.99,R,4.08,N,A*2F
20220705 000024+00:00 $IIMDA,29.9,I,1.014,B,12,C,,C,88.9,,,C,,T,,M,,N,,M*38
20220705 000024+00:00 $HCHDT,101.8,T*21
20220705 000024+00:00 $GPRMC,000020,A,4816.3398,N,12335.2896,W,6.9,101,050722,11.8,E,A,V*53
20220705 000024+00:00 $WIMWV,189.2,R,3.89,N,A*13
20220705 000026+00:00 $IIMDA,29.9,I,1.014,B,12,C,,C,88.8,,,C,,T,,M,,N,,M*39
20220705 000026+00:00 $HCHDT,102.2,T*28
20220705 000026+00:00 $GPRMC,000022,A,4816.3398,N,12335.2800,W,6.9,101,050722,11.8,E,A,V*5E
20220705 000026+00:00 $WIMWV,184.6,R,4.2,N,A*2E
20220705 000028+00:00 $IIMDA,29.9,I,1.014,B,12,C,,C,88.7,,,C,,T,,M,,N,,M*36
20220705 000028+00:00 $HCHDT,102.4,T*2E
20220705 000028+00:00 $GPRMC,000024,A,4816.3398,N,12335.2800,W,6.9,101,050722,11.8,E,A,V*58
20220705 000028+00:00 $WIMWV,197.99,R,3.98,N,A*2E
20220705 000030+00:00 $IIMDA,29.9,I,1.014,B,12,C,,C,88.7,,,C,,T,,M,,N,,M*36
20220705 000030+00:00 $HCHDT,102,T*34
20220705 000030+00:00 $GPRMC,000026,A,4816.3398,N,12335.2698,W,6.9,101,050722,11.8,E,A,V*55
20220705 000030+00:00 $WIMWV,196.19,R,3.89,N,A*27
20220705 000032+00:00 $IIMDA,29.9,I,1.014,B,12,C,,C,88.6,,,C,,T,,M,,N,,M*37
20220705 000032+00:00 $HCHDT,101.8,T*21
20220705 000032+00:00 $GPRMC,000028,A,4816.3398,N,12335.2698,W,7,101,050722,11.8,E,A,V*4D
20220705 000032+00:00 $WIMWV,189.2,R,3.6,N,A*24
20220705 000034+00:00 $IIMDA,29.9,I,1.014,B,12,C,,C,88.5,,,C,,T,,M,,N,,M*34
20220705 000034+00:00 $HCHDT,102.2,T*28
20220705 000034+00:00 $GPRMC,000030,A,4816.3398,N,12335.2596,W,7,101,050722,11.8,E,A,V*49
20220705 000034+00:00 $WIMWV,185,R,4.2,N,A*37
20220705 000036+00:00 $IIMDA,29.9,I,1.014,B,12,C,,C,88.4,,,C,,T,,M,,N,,M*35
20220705 000036+00:00 $HCHDT,102.3,T*29
20220705 000036+00:00 $GPRMC,000032,A,4816.3398,N,12335.2500,W,7,101,050722,11.8,E,A,V*44
20220705 000036+00:00 $WIMWV,196.19,R,3.69,N,A*29
20220705 000038+00:00 $IIMDA,29.9,I,1.014,B,12,C,,C,88.3,,,C,,T,,M,,N,,M*32
20220705 000038+00:00 $HCHDT,101.9,T*20
20220705 000038+00:00 $GPRMC,000034,A,4816.3398,N,12335.2500,W,7,101,050722,11.8,E,A,V*42
20220705 000038+00:00 $WIMWV,201.29,R,3.69,N,A*27
20220705 000040+00:00 $IIMDA,29.9,I,1.014,B,12,C,,C,88.3,,,C,,T,,M,,N,,M*32
20220705 000040+00:00 $HCHDT,101.9,T*20
20220705 000040+00:00 $GPRMC,000036,A,4816.3398,N,12335.2398,W,7,101,050722,11.8,E,A,V*47
20220705 000040+00:00 $WIMWV,198.19,R,3.38,N,A*23
20220705 000042+00:00 $IIMDA,29.9,I,1.014,B,12,C,,C,88.2,,,C,,T,,M,,N,,M*33
20220705 000042+00:00 $HCHDT,102.3,T*29
20220705 000042+00:00 $GPRMC,000038,A,4816.3398,N,12335.2398,W,7,101,050722,11.8,E,A,V*49
20220705 000042+00:00 $WIMWV,197.99,R,3.5,N,A*1A
20220705 000044+00:00 $IIMDA,29.9,I,1.014,B,12,C,,C,88.1,,,C,,T,,M,,N,,M*30
20220705 000044+00:00 $HCHDT,102.3,T*29
20220705 000044+00:00 $GPRMC,000040,A,4816.3398,N,12335.2296,W,7,101,050722,11.8,E,A,V*49
20220705 000044+00:00 $WIMWV,197.99,R,3.98,N,A*2E
20220705 000046+00:00 $IIMDA,29.9,I,1.014,B,12,C,,C,88.1,,,C,,T,,M,,N,,M*30
20220705 000046+00:00 $HCHDT,102.1,T*2B
20220705 000046+00:00 $GPRMC,000042,A,4816.3296,N,12335.2296,W,7,101,050722,11.8,E,A,V*44
20220705 000046+00:00 $WIMWV,184.19,R,4.08,N,A*2A
20220705 000048+00:00 $IIMDA,29.9,I,1.014,B,12,C,,C,88,,,C,,T,,M,,N,,M*2F
20220705 000048+00:00 $HCHDT,102,T*34
20220705 000048+00:00 $GPRMC,000044,A,4816.3296,N,12335.2200,W,7,101,050722,11.8,E,A,V*4D
20220705 000048+00:00 $WIMWV,191.4,R,3.69,N,A*12
20220705 000050+00:00 $IIMDA,29.9,I,1.014,B,12,C,,C,88,,,C,,T,,M,,N,,M*2F
20220705 000050+00:00 $HCHDT,102.3,T*29
20220705 000050+00:00 $GPRMC,000046,A,4816.3296,N,12335.2098,W,7,101,050722,11.8,E,A,V*4C
20220705 000050+00:00 $WIMWV,189.2,R,3.6,N,A*24
20220705 000052+00:00 $IIMDA,29.9,I,1.014,B,12,C,,C,88,,,C,,T,,M,,N,,M*2F
20220705 000052+00:00 $HCHDT,102.4,T*2E
20220705 000052+00:00 $GPRMC,000048,A,4816.3296,N,12335.2098,W,7,101,050722,11.8,E,A,V*42
20220705 000052+00:00 $WIMWV,189.79,R,3.79,N,A*20
20220705 000054+00:00 $IIMDA,29.9,I,1.014,B,12,C,,C,87.9,,,C,,T,,M,,N,,M*37
20220705 000054+00:00 $HCHDT,102.2,T*28
20220705 000054+00:00 $GPRMC,000050,A,4816.3296,N,12335.1996,W,7,101,050722,11.8,E,A,V*4F
20220705 000054+00:00 $WIMWV,199.09,R,3.89,N,A*29
20220705 000056+00:00 $IIMDA,29.9,I,1.014,B,12,C,,C,87.9,,,C,,T,,M,,N,,M*37
20220705 000056+00:00 $HCHDT,102.1,T*2B
20220705 000056+00:00 $GPRMC,000052,A,4816.3296,N,12335.1996,W,7,101,050722,11.8,E,A,V*4D
20220705 000056+00:00 $WIMWV,190.59,R,4.2,N,A*11
20220705 000058+00:00 $IIMDA,29.9,I,1.014,B,12,C,,C,87.9,,,C,,T,,M,,N,,M*37
20220705 000058+00:00 $HCHDT,102.4,T*2E
20220705 000058+00:00 $GPRMC,000054,A,4816.3296,N,12335.1900,W,7,101,050722,11.8,E,A,V*44
20220705 000058+00:00 $WIMWV,190.39,R,3.98,N,A*23
20220705 000100+00:00 $IIMDA,29.9,I,1.014,B,11.9,C,,C,87.9,,,C,,T,,M,,N,,M*23
20220705 000100+00:00 $HCHDT,102.4,T*2E
20220705 000100+00:00 $GPRMC,000056,A,4816.3296,N,12335.1900,W,7,101,050722,11.8,E,A,V*46
20220705 000100+00:00 $WIMWV,187,R,3.89,N,A*01
20220705 000102+00:00 $IIMDA,29.9,I,1.014,B,11.9,C,,C,87.9,,,C,,T,,M,,N,,M*23
20220705 000102+00:00 $HCHDT,102.3,T*29
20220705 000102+00:00 $GPRMC,000058,A,4816.3296,N,12335.1798,W,7,101,050722,11.8,E,A,V*47
20220705 000102+00:00 $WIMWV,192.59,R,3.79,N,A*28
20220705 000104+00:00 $IIMDA,29.9,I,1.014,B,11.9,C,,C,87.9,,,C,,T,,M,,N,,M*23
20220705 000104+00:00 $HCHDT,102.4,T*2E
20220705 000104+00:00 $GPRMC,000100,A,4816.3296,N,12335.1696,W,7,101,050722,11.8,E,A,V*44
20220705 000104+00:00 $WIMWV,183.09,R,4.49,N,A*29
20220705 000106+00:00 $IIMDA,29.9,I,1.014,B,11.9,C,,C,87.9,,,C,,T,,M,,N,,M*23
20220705 000106+00:00 $HCHDT,102.3,T*29
20220705 000106+00:00 $GPRMC,000102,A,4816.3296,N,12335.1696,W,7,101,050722,11.8,E,A,V*46
20220705 000106+00:00 $WIMWV,185.19,R,3.98,N,A*25
20220705 000108+00:00 $IIMDA,29.9,I,1.014,B,11.9,C,,C,87.9,,,C,,T,,M,,N,,M*23
20220705 000108+00:00 $HCHDT,102.2,T*28
20220705 000108+00:00 $GPRMC,000104,A,4816.3296,N,12335.1600,W,7,101,050722,11.8,E,A,V*4F
20220705 000108+00:00 $WIMWV,193.79,R,3.5,N,A*10
20220705 000110+00:00 $IIMDA,29.9,I,1.014,B,11.9,C,,C,87.9,,,C,,T,,M,,N,,M*23
20220705 000110+00:00 $HCHDT,102.3,T*29
20220705 000110+00:00 $GPRMC,000106,A,4816.3296,N,12335.1600,W,7,101,050722,11.8,E,A,V*4D
20220705 000110+00:00 $WIMWV,193,R,3.89,N,A*04
20220705 000112+00:00 $IIMDA,29.9,I,1.014,B,11.9,C,,C,87.9,,,C,,T,,M,,N,,M*23
20220705 000112+00:00 $HCHDT,102.5,T*2F
20220705 000112+00:00 $GPRMC,000108,A,4816.3296,N,12335.1498,W,7,101,050722,11.8,E,A,V*40
20220705 000112+00:00 $WIMWV,183.99,R,4.2,N,A*1F
20220705 000114+00:00 $IIMDA,29.9,I,1.014,B,11.9,C,,C,87.9,,,C,,T,,M,,N,,M*23
20220705 000114+00:00 $HCHDT,102.5,T*2F
20220705 000114+00:00 $GPRMC,000110,A,4816.3200,N,12335.1498,W,7,101,050722,11.8,E,A,V*46
20220705 000114+00:00 $WIMWV,205.19,R,4.08,N,A*20
20220705 000116+00:00 $IIMDA,29.9,I,1.014,B,11.9,C,,C,87.9,,,C,,T,,M,,N,,M*23
20220705 000116+00:00 $HCHDT,102.5,T*2F
20220705 000116+00:00 $GPRMC,000112,A,4816.3200,N,12335.1396,W,7,101,050722,11.8,E,A,V*4D
20220705 000116+00:00 $WIMWV,192.3,R,3.89,N,A*18
20220705 000118+00:00 $IIMDA,29.9,I,1.014,B,11.9,C,,C,87.9,,,C,,T,,M,,N,,M*23
20220705 000118+00:00 $HCHDT,102.4,T*2E
20220705 000118+00:00 $GPRMC,000114,A,4816.3200,N,12335.1300,W,7,101,050722,11.8,E,A,V*44
20220705 000118+00:00 $WIMWV,187.9,R,3.89,N,A*16
20220705 000120+00:00 $IIMDA,29.9,I,1.014,B,11.9,C,,C,87.9,,,C,,T,,M,,N,,M*23
20220705 000120+00:00 $HCHDT,102.4,T*2E
20220705 000120+00:00 $GPRMC,000116,A,4816.3200,N,12335.1300,W,7,101,050722,11.8,E,A,V*46
20220705 000120+00:00 $WIMWV,189.49,R,3.69,N,A*22
20220705 000122+00:00 $IIMDA,29.9,I,1.014,B,11.9,C,,C,87.9,,,C,,T,,M,,N,,M*23
20220705 000122+00:00 $HCHDT,102.6,T*2C
20220705 000122+00:00 $GPRMC,000118,A,4816.3200,N,12335.1198,W,7,101,050722,11.8,E,A,V*4B
20220705 000122+00:00 $WIMWV,185.29,R,3.79,N,A*29
20220705 000124+00:00 $IIMDA,29.9,I,1.014,B,11.9,C,,C,87.9,,,C,,T,,M,,N,,M*23
20220705 000124+00:00 $HCHDT,102.6,T*2C
20220705 000124+00:00 $GPRMC,000120,A,4816.3200,N,12335.1198,W,7,101,050722,11.8,E,A,V*40
20220705 000124+00:00 $WIMWV,183.79,R,4.3,N,A*10
20220705 000126+00:00 $IIMDA,29.9,I,1.014,B,11.9,C,,C,88,,,C,,T,,M,,N,,M*3B
20220705 000126+00:00 $HCHDT,102.4,T*2E
20220705 000126+00:00 $GPRMC,000122,A,4816.3200,N,12335.1096,W,6.9,101,050722,11.8,E,A,V*5B
20220705 000126+00:00 $WIMWV,196.5,R,3.79,N,A*15
20220705 000128+00:00 $IIMDA,29.9,I,1.014,B,11.9,C,,C,87.9,,,C,,T,,M,,N,,M*23
20220705 000128+00:00 $HCHDT,102.5,T*2F
20220705 000128+00:00 $GPRMC,000124,A,4816.3200,N,12335.1096,W,6.9,101,050722,11.8,E,A,V*5D
20220705 000128+00:00 $WIMWV,186.6,R,4.2,N,A*2C
20220705 000130+00:00 $IIMDA,29.9,I,1.014,B,11.9,C,,C,88,,,C,,T,,M,,N,,M*3B
20220705 000130+00:00 $HCHDT,102.6,T*2C
20220705 000130+00:00 $GPRMC,000126,A,4816.3200,N,12335.1000,W,6.9,101,050722,11.8,E,A,V*50
20220705 000130+00:00 $WIMWV,185.09,R,4.08,N,A*2A
20220705 000132+00:00 $IIMDA,29.9,I,1.014,B,11.9,C,,C,88,,,C,,T,,M,,N,,M*3B
20220705 000132+00:00 $HCHDT,102.5,T*2F
20220705 000132+00:00 $GPRMC,000128,A,4816.3200,N,12335.1000,W,6.9,101,050722,11.8,E,A,V*5E
20220705 000132+00:00 $WIMWV,190.39,R,4.08,N,A*2D
20220705 000134+00:00 $IIMDA,29.9,I,1.014,B,11.9,C,,C,88.1,,,C,,T,,M,,N,,M*24
20220705 000134+00:00 $HCHDT,102.5,T*2F
20220705 000134+00:00 $GPRMC,000130,A,4816.3200,N,12335.0898,W,6.9,101,050722,11.8,E,A,V*5F
20220705 000134+00:00 $WIMWV,191,R,3.98,N,A*06
20220705 000136+00:00 $IIMDA,29.9,I,1.014,B,11.9,C,,C,88.2,,,C,,T,,M,,N,,M*27
20220705 000136+00:00 $HCHDT,102.6,T*2C
20220705 000136+00:00 $GPRMC,000132,A,4816.3200,N,12335.0796,W,6.9,101,050722,11.8,E,A,V*5C
20220705 000136+00:00 $WIMWV,186.89,R,3.69,N,A*21
20220705 000138+00:00 $IIMDA,29.9,I,1.014,B,11.9,C,,C,88.2,,,C,,T,,M,,N,,M*27
20220705 000138+00:00 $HCHDT,102.6,T*2C
20220705 000138+00:00 $GPRMC,000134,A,4816.3200,N,12335.0796,W,6.9,101,050722,11.8,E,A,V*5A
20220705 000138+00:00 $WIMWV,188.1,R,3.69,N,A*1F
20220705 000140+00:00 $IIMDA,29.9,I,1.014,B,11.9,C,,C,88.2,,,C,,T,,M,,N,,M*27
20220705 000140+00:00 $HCHDT,102.6,T*2C
20220705 000140+00:00 $GPRMC,000136,A,4816.3098,N,12335.0700,W,6.9,101,050722,11.8,E,A,V*54
20220705 000140+00:00 $WIMWV,183.29,R,4.08,N,A*2E
20220705 000142+00:00 $IIMDA,29.9,I,1.014,B,11.8,C,,C,88.3,,,C,,T,,M,,N,,M*27
20220705 000142+00:00 $HCHDT,102.6,T*2C
20220705 000142+00:00 $GPRMC,000138,A,4816.3098,N,12335.0700,W,6.9,101,050722,11.8,E,A,V*5A
20220705 000142+00:00 $WIMWV,183.9,R,4.08,N,A*1C
20220705 000144+00:00 $IIMDA,29.9,I,1.014,B,11.8,C,,C,88.2,,,C,,T,,M,,N,,M*26
20220705 000144+00:00 $HCHDT,102.7,T*2D
20220705 000144+00:00 $GPRMC,000140,A,4816.3098,N,12335.0598,W,6.8,101,050722,11.8,E,A,V*57
20220705 000144+00:00 $WIMWV,185.29,R,3.89,N,A*26
20220705 000146+00:00 $IIMDA,29.9,I,1.014,B,11.8,C,,C,88.3,,,C,,T,,M,,N,,M*27
20220705 000146+00:00 $HCHDT,102.7,T*2D
20220705 000146+00:00 $GPRMC,000142,A,4816.3098,N,12335.0598,W,6.8,101,050722,11.8,E,A,V*55
20220705 000146+00:00 $WIMWV,183.99,R,3.89,N,A*2B
20220705 000148+00:00 $IIMDA,29.9,I,1.014,B,11.8,C,,C,88.2,,,C,,T,,M,,N,,M*26
20220705 000148+00:00 $HCHDT,102.5,T*2F
20220705 000148+00:00 $GPRMC,000144,A,4816.3098,N,12335.0496,W,6.8,101,050722,11.8,E,A,V*5C
20220705 000148+00:00 $WIMWV,189.99,R,3.69,N,A*2F
20220705 000150+00:00 $IIMDA,29.9,I,1.014,B,11.8,C,,C,88.3,,,C,,T,,M,,N,,M*27
20220705 000150+00:00 $HCHDT,102.6,T*2C
20220705 000150+00:00 $GPRMC,000146,A,4816.3098,N,12335.0496,W,6.8,101,050722,11.8,E,A,V*5E
20220705 000150+00:00 $WIMWV,197.99,R,3.5,N,A*1A
20220705 000152+00:00 $IIMDA,29.9,I,1.014,B,11.8,C,,C,88.2,,,C,,T,,M,,N,,M*26
20220705 000152+00:00 $HCHDT,102.7,T*2D
20220705 000152+00:00 $GPRMC,000148,A,4816.3098,N,12335.0400,W,6.8,101,050722,11.8,E,A,V*5F
20220705 000152+00:00 $WIMWV,183.79,R,4.08,N,A*2B
20220705 000154+00:00 $IIMDA,29.9,I,1.014,B,11.8,C,,C,88.3,,,C,,T,,M,,N,,M*27
20220705 000154+00:00 $HCHDT,102.7,T*2D
20220705 000154+00:00 $GPRMC,000150,A,4816.3098,N,12335.0298,W,6.8,101,050722,11.8,E,A,V*51
20220705 000154+00:00 $WIMWV,183.19,R,4.59,N,A*29
20220705 000156+00:00 $IIMDA,29.9,I,1.014,B,11.8,C,,C,88.2,,,C,,T,,M,,N,,M*26
20220705 000156+00:00 $HCHDT,102.4,T*2E
20220705 000156+00:00 $GPRMC,000152,A,4816.3098,N,12335.0298,W,6.71,101,050722,11.8,E,A,V*6D
20220705 000156+00:00 $WIMWV,184.69,R,4.2,N,A*17
20220705 000158+00:00 $IIMDA,29.9,I,1.014,B,11.8,C,,C,88.3,,,C,,T,,M,,N,,M*27
20220705 000158+00:00 $HCHDT,102.7,T*2D
20220705 000158+00:00 $GPRMC,000154,A,4816.3098,N,12335.0196,W,6.71,101,050722,11.8,E,A,V*66
20220705 000158+00:00 $WIMWV,186.29,R,4.2,N,A*11
20220705 000200+00:00 $IIMDA,29.9,I,1.014,B,11.8,C,,C,88.3,,,C,,T,,M,,N,,M*27
20220705 000200+00:00 $HCHDT,102.7,T*2D
20220705 000200+00:00 $GPRMC,000156,A,4816.3098,N,12335.0196,W,6.71,101,050722,11.8,E,A,V*64
20220705 000200+00:00 $WIMWV,192.39,R,3.79,N,A*2E
20220705 000202+00:00 $IIMDA,29.9,I,1.014,B,11.8,C,,C,88.3,,,C,,T,,M,,N,,M*27
20220705 000202+00:00 $HCHDT,102.6,T*2C
20220705 000202+00:00 $GPRMC,000158,A,4816.3098,N,12335.0100,W,6.71,101,050722,11.8,E,A,V*65
20220705 000202+00:00 $WIMWV,194.99,R,3.79,N,A*22
20220705 000204+00:00 $IIMDA,29.9,I,1.014,B,11.8,C,,C,88.3,,,C,,T,,M,,N,,M*27
20220705 000204+00:00 $HCHDT,102.3,T*29
20220705 000204+00:00 $GPRMC,000200,A,4816.3098,N,12335.0100,W,6.71,101,050722,11.8,E,A,V*6B
20220705 000204+00:00 $WIMWV,199.8,R,3.79,N,A*17
20220705 000206+00:00 $IIMDA,29.9,I,1.014,B,11.8,C,,C,88.3,,,C,,T,,M,,N,,M*27
20220705 000206+00:00 $HCHDT,102.4,T*2E
20220705 000206+00:00 $GPRMC,000202,A,4816.3098,N,12334.9998,W,6.71,101,050722,11.8,E,A,V*68
20220705 000206+00:00 $WIMWV,187.59,R,3.98,N,A*23
20220705 000208+00:00 $IIMDA,29.9,I,1.014,B,11.8,C,,C,88.4,,,C,,T,,M,,N,,M*20
20220705 000208+00:00 $HCHDT,102.2,T*28
20220705 000208+00:00 $GPRMC,000204,A,4816.2996,N,12334.9998,W,6.71,101,050722,11.8,E,A,V*68
20220705 000208+00:00 $WIMWV,184.69,R,4.2,N,A*17
20220705 000210+00:00 $IIMDA,29.9,I,1.014,B,11.8,C,,C,88.4,,,C,,T,,M,,N,,M*20
20220705 000210+00:00 $HCHDT,102,T*34
20220705 000210+00:00 $GPRMC,000206,A,4816.2996,N,12334.9896,W,6.61,101,050722,11.8,E,A,V*64
20220705 000210+00:00 $WIMWV,180.6,R,4.68,N,A*16
20220705 000212+00:00 $IIMDA,29.9,I,1.014,B,11.8,C,,C,88.4,,,C,,T,,M,,N,,M*20
20220705 000212+00:00 $HCHDT,101.8,T*21
20220705 000212+00:00 $GPRMC,000208,A,4816.2996,N,12334.9896,W,6.61,101,050722,11.8,E,A,V*6A
20220705 000212+00:00 $WIMWV,180.6,R,4.59,N,A*14
20220705 000214+00:00 $IIMDA,29.9,I,1.014,B,11.8,C,,C,88.4,,,C,,T,,M,,N,,M*20
20220705 000214+00:00 $HCHDT,101.9,T*20
20220705 000214+00:00 $GPRMC,000210,A,4816.2996,N,12334.9800,W,6.61,101,050722,11.8,E,A,V*6C
20220705 000214+00:00 $WIMWV,187.49,R,4.08,N,A*2C
20220705 000216+00:00 $IIMDA,29.9,I,1.014,B,11.7,C,,C,88.4,,,C,,T,,M,,N,,M*2F
20220705 000216+00:00 $HCHDT,102,T*34
20220705 000216+00:00 $GPRMC,000212,A,4816.2996,N,12334.9698,W,6.61,101,050722,11.8,E,A,V*61
20220705 000216+00:00 $WIMWV,183.5,R,4.39,N,A*12
20220705 000218+00:00 $IIMDA,29.9,I,1.014,B,11.7,C,,C,88.5,,,C,,T,,M,,N,,M*2E
20220705 000218+00:00 $HCHDT,101.6,T*2F
20220705 000218+00:00 $GPRMC,000214,A,4816.2996,N,12334.9698,W,6.61,101,050722,11.8,E,A,V*67
20220705 000218+00:00 $WIMWV,187.2,R,3.89,N,A*1D
20220705 000220+00:00 $IIMDA,29.9,I,1.014,B,11.7,C,,C,88.5,,,C,,T,,M,,N,,M*2E
20220705 000220+00:00 $HCHDT,101.4,T*2D
20220705 000220+00:00 $GPRMC,000216,A,4816.2996,N,12334.9596,W,6.61,101,050722,11.8,E,A,V*68
20220705 000220+00:00 $WIMWV,198.7,R,3.5,N,A*22
20220705 000222+00:00 $IIMDA,29.9,I,1.014,B,11.7,C,,C,88.5,,,C,,T,,M,,N,,M*2E
20220705 000222+00:00 $HCHDT,101.4,T*2D
20220705 000222+00:00 $GPRMC,000218,A,4816.2996,N,12334.9596,W,6.61,101,050722,11.8,E,A,V*66
20220705 000222+00:00 $WIMWV,183.09,R,4.39,N,A*2E
20220705 000224+00:00 $IIMDA,29.9,I,1.014,B,11.7,C,,C,88.5,,,C,,T,,M,,N,,M*2E
20220705 000224+00:00 $HCHDT,101.4,T*2D
20220705 000224+00:00 $GPRMC,000220,A,4816.2996,N,12334.9500,W,6.61,100,050722,11.8,E,A,V*63
20220705 000224+00:00 $WIMWV,189.49,R,3.89,N,A*2C
20220705 000226+00:00 $IIMDA,29.9,I,1.014,B,11.7,C,,C,88.5,,,C,,T,,M,,N,,M*2E
20220705 000226+00:00 $HCHDT,101.3,T*2A
20220705 000226+00:00 $GPRMC,000222,A,4816.2996,N,12334.9500,W,6.61,100,050722,11.8,E,A,V*61
20220705 000226+00:00 $WIMWV,180.6,R,4.08,N,A*10
20220705 000228+00:00 $IIMDA,29.9,I,1.014,B,11.7,C,,C,88.6,,,C,,T,,M,,N,,M*2D
20220705 000228+00:00 $HCHDT,101,T*37
20220705 000228+00:00 $GPRMC,000224,A,4816.2996,N,12334.9398,W,6.61,100,050722,11.8,E,A,V*60
20220705 000228+00:00 $WIMWV,183.5,R,4.3,N,A*2B
20220705 000230+00:00 $IIMDA,29.9,I,1.014,B,11.7,C,,C,88.5,,,C,,T,,M,,N,,M*2E
20220705 000230+00:00 $HCHDT,101,T*37
20220705 000230+00:00 $GPRMC,000226,A,4816.2996,N,12334.9398,W,6.61,100,050722,11.8,E,A,V*62
20220705 000230+00:00 $WIMWV,184.8,R,3.5,N,A*20
20220705 000232+00:00 $IIMDA,29.9,I,1.014,B,11.7,C,,C,88.6,,,C,,T,,M,,N,,M*2D
20220705 000232+00:00 $HCHDT,100.8,T*20
20220705 000232+00:00 $GPRMC,000228,A,4816.2996,N,12334.9296,W,6.61,100,050722,11.8,E,A,V*63
20220705 000232+00:00 $WIMWV,183.7,R,4.08,N,A*12
20220705 000234+00:00 $IIMDA,29.9,I,1.014,B,11.7,C,,C,88.5,,,C,,T,,M,,N,,M*2E
20220705 000234+00:00 $HCHDT,100.7,T*2F
20220705 000234+00:00 $GPRMC,000230,A,4816.2996,N,12334.9296,W,6.49,100,050722,11.8,E,A,V*60
20220705 000234+00:00 $WIMWV,202.19,R,3.69,N,A*27
20220705 000236+00:00 $IIMDA,29.9,I,1.014,B,11.7,C,,C,88.6,,,C,,T,,M,,N,,M*2D
20220705 000236+00:00 $HCHDT,100.7,T*2F
20220705 000236+00:00 $GPRMC,000232,A,4816.2996,N,12334.9200,W,6.49,100,050722,11.8,E,A,V*6D
20220705 000236+00:00 $WIMWV,192.1,R,3.89,N,A*1A
20220705 000238+00:00 $IIMDA,29.9,I,1.014,B,11.7,C,,C,88.6,,,C,,T,,M,,N,,M*2D
20220705 000238+00:00 $HCHDT,100.5,T*2D
20220705 000238+00:00 $GPRMC,000234,A,4816.2996,N,12334.9200,W,6.49,100,050722,11.8,E,A,V*6B
20220705 000238+00:00 $WIMWV,183.29,R,4.3,N,A*15
20220705 000240+00:00 $IIMDA,29.9,I,1.014,B,11.7,C,,C,88.6,,,C,,T,,M,,N,,M*2D
20220705 000240+00:00 $HCHDT,100.3,T*2B
20220705 000240+00:00 $GPRMC,000236,A,4816.2900,N,12334.9098,W,6.49,100,050722,11.8,E,A,V*65
20220705 000240+00:00 $WIMWV,200.59,R,3.6,N,A*18
20220705 000242+00:00 $IIMDA,29.9,I,1.014,B,11.7,C,,C,88.6,,,C,,T,,M,,N,,M*2D
20220705 000242+00:00 $HCHDT,100.4,T*2C
20220705 000242+00:00 $GPRMC,000238,A,4816.2900,N,12334.8996,W,6.49,100,050722,11.8,E,A,V*6D
20220705 000242+00:00 $WIMWV,196.09,R,3.5,N,A*12
20220705 000244+00:00 $IIMDA,29.9,I,1.014,B,11.7,C,,C,88.6,,,C,,T,,M,,N,,M*2D
20220705 000244+00:00 $HCHDT,100.5,T*2D
20220705 000244+00:00 $GPRMC,000240,A,4816.2900,N,12334.8996,W,6.49,100,050722,11.8,E,A,V*62
20220705 000244+00:00 $WIMWV,193.29,R,3.6,N,A*16
20220705 000246+00:00 $IIMDA,29.9,I,1.014,B,11.7,C,,C,88.7,,,C,,T,,M,,N,,M*2C
20220705 000246+00:00 $HCHDT,100.4,T*2C
20220705 000246+00:00 $GPRMC,000242,A,4816.2900,N,12334.8900,W,6.49,100,050722,11.8,E,A,V*6F
20220705 000246+00:00 $WIMWV,185.99,R,4.3,N,A*18
20220705 000248+00:00 $IIMDA,29.9,I,1.014,B,11.7,C,,C,88.7,,,C,,T,,M,,N,,M*2C
20220705 000248+00:00 $HCHDT,100.2,T*2A
20220705 000248+00:00 $GPRMC,000244,A,4816.2900,N,12334.8900,W,6.49,100,050722,11.8,E,A,V*69
20220705 000248+00:00 $WIMWV,193.89,R,3.89,N,A*2B
20220705 000250+00:00 $IIMDA,29.9,I,1.014,B,11.7,C,,C,88.7,,,C,,T,,M,,N,,M*2C
20220705 000250+00:00 $HCHDT,100.2,T*2A
20220705 000250+00:00 $GPRMC,000246,A,4816.2900,N,12334.8798,W,6.49,99,050722,11.8,E,A,V*55
20220705 000250+00:00 $WIMWV,189.2,R,4.3,N,A*26
20220705 000252+00:00 $IIMDA,29.9,I,1.014,B,11.7,C,,C,88.7,,,C,,T,,M,,N,,M*2C
20220705 000252+00:00 $HCHDT,100.5,T*2D
20220705 000252+00:00 $GPRMC,000248,A,4816.2900,N,12334.8798,W,6.49,99,050722,11.8,E,A,V*5B
20220705 000252+00:00 $WIMWV,186.39,R,4.39,N,A*28
20220705 000254+00:00 $IIMDA,29.9,I,1.014,B,11.7,C,,C,88.7,,,C,,T,,M,,N,,M*2C
20220705 000254+00:00 $HCHDT,100.2,T*2A
20220705 000254+00:00 $GPRMC,000250,A,4816.2900,N,12334.8696,W,6.49,99,050722,11.8,E,A,V*5D
20220705 000254+00:00 $WIMWV,188.19,R,4.39,N,A*24
20220705 000256+00:00 $IIMDA,29.9,I,1.014,B,11.7,C,,C,88.8,,,C,,T,,M,,N,,M*23
20220705 000256+00:00 $HCHDT,100.1,T*29
20220705 000256+00:00 $GPRMC,000252,A,4816.2900,N,12334.8696,W,6.49,99,050722,11.8,E,A,V*5F
20220705 000256+00:00 $WIMWV,183.19,R,4.9,N,A*1C
20220705 000258+00:00 $IIMDA,29.9,I,1.014,B,11.7,C,,C,88.7,,,C,,T,,M,,N,,M*2C
20220705 000258+00:00 $HCHDT,100.6,T*2E
20220705 000258+00:00 $GPRMC,000254,A,4816.2900,N,12334.8600,W,6.49,99,050722,11.8,E,A,V*56
20220705 000258+00:00 $WIMWV,180.6,R,4.49,N,A*15
20220705 000300+00:00 $IIMDA,29.9,I,1.014,B,11.7,C,,C,88.8,,,C,,T,,M,,N,,M*23
20220705 000300+00:00 $HCHDT,100.6,T*2E
20220705 000300+00:00 $GPRMC,000256,A,4816.2900,N,12334.8600,W,6.49,99,050722,11.8,E,A,V*54
20220705 000300+00:00 $WIMWV,180.6,R,4.3,N,A*2B
20220705 000302+00:00 $IIMDA,29.9,I,1.014,B,11.7,C,,C,88.8,,,C,,T,,M,,N,,M*23
20220705 000302+00:00 $HCHDT,100.3,T*2B
20220705 000302+00:00 $GPRMC,000258,A,4816.2900,N,12334.8498,W,6.49,99,050722,11.8,E,A,V*59
20220705 000302+00:00 $WIMWV,184.89,R,3.98,N,A*2D
20220705 000304+00:00 $IIMDA,29.9,I,1.014,B,11.7,C,,C,88.8,,,C,,T,,M,,N,,M*23
20220705 000304+00:00 $HCHDT,100.4,T*2C
20220705 000304+00:00 $GPRMC,000300,A,4816.2900,N,12334.8498,W,6.49,99,050722,11.8,E,A,V*55
20220705 000304+00:00 $WIMWV,183.79,R,4.3,N,A*10
20220705 000306+00:00 $IIMDA,29.9,I,1.014,B,11.7,C,,C,88.8,,,C,,T,,M,,N,,M*23
20220705 000306+00:00 $HCHDT,100.8,T*20
20220705 000306+00:00 $GPRMC,000302,A,4816.2900,N,12334.8396,W,6.49,99,050722,11.8,E,A,V*5E
20220705 000306+00:00 $WIMWV,178.69,R,4.78,N,A*29
20220705 000308+00:00 $IIMDA,29.9,I,1.014,B,11.7,C,,C,88.9,,,C,,T,,M,,N,,M*22
20220705 000308+00:00 $HCHDT,101,T*37
20220705 000308+00:00 $GPRMC,000304,A,4816.2900,N,12334.8396,W,6.4,99,050722,11.8,E,A,V*61
20220705 000308+00:00 $WIMWV,185,R,4.3,N,A*36
20220705 000310+00:00 $IIMDA,29.9,I,1.014,B,11.7,C,,C,88.9,,,C,,T,,M,,N,,M*22
20220705 000310+00:00 $HCHDT,100.9,T*21
20220705 000310+00:00 $GPRMC,000306,A,4816.2900,N,12334.8300,W,6.4,99,050722,11.8,E,A,V*6C
20220705 000310+00:00 $WIMWV,187.49,R,4.08,N,A*2C
20220705 000312+00:00 $IIMDA,29.9,I,1.014,B,11.7,C,,C,89,,,C,,T,,M,,N,,M*34
20220705 000312+00:00 $HCHDT,101.1,T*28
20220705 000312+00:00 $GPRMC,000308,A,4816.2900,N,12334.8300,W,6.4,99,050722,11.8,E,A,V*62
20220705 000312+00:00 $WIMWV,191.99,R,4.08,N,A*26
20220705 000314+00:00 $IIMDA,29.9,I,1.014,B,11.7,C,,C,89,,,C,,T,,M,,N,,M*34
20220705 000314+00:00 $HCHDT,101.3,T*2A
20220705 000314+00:00 $GPRMC,000310,A,4816.2798,N,12334.8198,W,6.4,99,050722,11.8,E,A,V*67
20220705 000314+00:00 $WIMWV,182.4,R,4.68,N,A*16
20220705 000316+00:00 $IIMDA,29.9,I,1.014,B,11.7,C,,C,89,,,C,,T,,M,,N,,M*34
20220705 000316+00:00 $HCHDT,101.4,T*2D
20220705 000316+00:00 $GPRMC,000312,A,4816.2798,N,12334.8096,W,6.4,99,050722,11.8,E,A,V*6A
20220705 000316+00:00 $WIMWV,186.89,R,4.49,N,A*24
20220705 000318+00:00 $IIMDA,29.9,I,1.014,B,11.7,C,,C,89,,,C,,T,,M,,N,,M*34
20220705 000318+00:00 $HCHDT,101.3,T*2A
20220705 000318+00:00 $GPRMC,000314,A,4816.2798,N,12334.8096,W,6.4,100,050722,11.8,E,A,V*5D
20220705 000318+00:00 $WIMWV,183.19,R,4.78,N,A*2A
20220705 000320+00:00 $IIMDA,29.9,I,1.014,B,11.7,C,,C,89.1,,,C,,T,,M,,N,,M*2B
20220705 000320+00:00 $HCHDT,101.4,T*2D
20220705 000320+00:00 $GPRMC,000316,A,4816.2798,N,12334.8000,W,6.4,100,050722,11.8,E,A,V*50
20220705 000320+00:00 $WIMWV,183.19,R,4.49,N,A*28
20220705 000322+00:00 $IIMDA,29.9,I,1.014,B,11.7,C,,C,89.1,,,C,,T,,M,,N,,M*2B
20220705 000322+00:00 $HCHDT,101.6,T*2F
20220705 000322+00:00 $GPRMC,000318,A,4816.2798,N,12334.8000,W,6.4,100,050722,11.8,E,A,V*5E
20220705 000322+00:00 $WIMWV,188.39,R,3.98,N,A*2A
20220705 000324+00:00 $IIMDA,29.9,I,1.014,B,11.7,C,,C,89.1,,,C,,T,,M,,N,,M*2B
20220705 000324+00:00 $HCHDT,101.4,T*2D
20220705 000324+00:00 $GPRMC,000320,A,4816.2798,N,12334.7898,W,6.4,100,050722,11.8,E,A,V*53
20220705 000324+00:00 $WIMWV,184.4,R,4.3,N,A*2D
20220705 000326+00:00 $IIMDA,29.9,I,1.014,B,11.7,C,,C,89.2,,,C,,T,,M,,N,,M*28
20220705 000326+00:00 $HCHDT,101.3,T*2A
20220705 000326+00:00 $GPRMC,000322,A,4816.2798,N,12334.7898,W,6.4,100,050722,11.8,E,A,V*51
20220705 000326+00:00 $WIMWV,178.6,R,4.68,N,A*11
20220705 000328+00:00 $IIMDA,29.9,I,1.014,B,11.7,C,,C,89.2,,,C,,T,,M,,N,,M*28
20220705 000328+00:00 $HCHDT,101.3,T*2A
20220705 000328+00:00 $GPRMC,000324,A,4816.2798,N,12334.7796,W,6.4,100,050722,11.8,E,A,V*56
20220705 000328+00:00 $WIMWV,192.89,R,3.38,N,A*20
20220705 000330+00:00 $IIMDA,29.9,I,1.014,B,11.7,C,,C,89.2,,,C,,T,,M,,N,,M*28
20220705 000330+00:00 $HCHDT,101.4,T*2D
20220705 000330+00:00 $GPRMC,000326,A,4816.2798,N,12334.7796,W,6.4,100,050722,11.8,E,A,V*54
20220705 000330+00:00 $WIMWV,194.59,R,3.69,N,A*2F
20220705 000332+00:00 $IIMDA,29.9,I,1.014,B,11.7,C,,C,89.2,,,C,,T,,M,,N,,M*28
20220705 000332+00:00 $HCHDT,101.1,T*28
20220705 000332+00:00 $GPRMC,000328,A,4816.2798,N,12334.7700,W,6.4,100,050722,11.8,E,A,V*55
20220705 000332+00:00 $WIMWV,206.69,R,4.2,N,A*1E
20220705 000334+00:00 $IIMDA,29.9,I,1.014,B,11.7,C,,C,89.2,,,C,,T,,M,,N,,M*28
20220705 000334+00:00 $HCHDT,101.1,T*28
20220705 000334+00:00 $GPRMC,000330,A,4816.2798,N,12334.7700,W,6.4,100,050722,11.8,E,A,V*5C
20220705 000334+00:00 $WIMWV,192.39,R,3.89,N,A*21
20220705 000336+00:00 $IIMDA,29.9,I,1.014,B,11.7,C,,C,89.2,,,C,,T,,M,,N,,M*28
20220705 000336+00:00 $HCHDT,101.2,T*2B
20220705 000336+00:00 $GPRMC,000332,A,4816.2798,N,12334.7598,W,6.3,100,050722,11.8,E,A,V*5A
20220705 000336+00:00 $WIMWV,183.99,R,4.68,N,A*23
20220705 000338+00:00 $IIMDA,29.9,I,1.014,B,11.7,C,,C,89.3,,,C,,T,,M,,N,,M*29
20220705 000338+00:00 $HCHDT,101.2,T*2B
20220705 000338+00:00 $GPRMC,000334,A,4816.2798,N,12334.7598,W,6.3,99,050722,11.8,E,A,V*6D
20220705 000338+00:00 $WIMWV,190.89,R,4.3,N,A*1D
20220705 000340+00:00 $IIMDA,29.9,I,1.014,B,11.7,C,,C,89.2,,,C,,T,,M,,N,,M*28
20220705 000340+00:00 $HCHDT,100.9,T*21
20220705 000340+00:00 $GPRMC,000336,A,4816.2798,N,12334.7496,W,6.3,99,050722,11.8,E,A,V*60
20220705 000340+00:00 $WIMWV,184.49,R,4.2,N,A*15
20220705 000342+00:00 $IIMDA,29.9,I,1.014,B,11.7,C,,C,89.3,,,C,,T,,M,,N,,M*29
20220705 000342+00:00 $HCHDT,101.1,T*28
20220705 000342+00:00 $GPRMC,000338,A,4816.2798,N,12334.7496,W,6.3,99,050722,11.8,E,A,V*6E
20220705 000342+00:00 $WIMWV,187.2,R,4.68,N,A*15
20220705 000344+00:00 $IIMDA,29.9,I,1.014,B,11.7,C,,C,89.3,,,C,,T,,M,,N,,M*29
20220705 000344+00:00 $HCHDT,101.1,T*28
20220705 000344+00:00 $GPRMC,000340,A,4816.2798,N,12334.7400,W,6.3,99,050722,11.8,E,A,V*6E
20220705 000344+00:00 $WIMWV,187,R,4.2,N,A*35
20220705 000346+00:00 $IIMDA,29.9,I,1.014,B,11.7,C,,C,89.3,,,C,,T,,M,,N,,M*29
20220705 000346+00:00 $HCHDT,100.9,T*21
20220705 000346+00:00 $GPRMC,000342,A,4816.2798,N,12334.7400,W,6.3,99,050722,11.8,E,A,V*6C
20220705 000346+00:00 $WIMWV,184.6,R,4.39,N,A*16
20220705 000348+00:00 $IIMDA,29.9,I,1.014,B,11.7,C,,C,89.3,,,C,,T,,M,,N,,M*29
20220705 000348+00:00 $HCHDT,100.8,T*20
20220705 000348+00:00 $GPRMC,000344,A,4816.2798,N,12334.7298,W,6.3,99,050722,11.8,E,A,V*6D
20220705 000348+00:00 $WIMWV,180.6,R,4.3,N,A*2B
20220705 000350+00:00 $IIMDA,29.9,I,1.014,B,11.7,C,,C,89.3,,,C,,T,,M,,N,,M*29
20220705 000350+00:00 $HCHDT,101,T*37
20220705 000350+00:00 $GPRMC,000346,A,4816.2696,N,12334.7298,W,6.3,99,050722,11.8,E,A,V*60
20220705 000350+00:00 $WIMWV,180.6,R,4.3,N,A*2B
20220705 000352+00:00 $IIMDA,29.9,I,1.014,B,11.7,C,,C,89.4,,,C,,T,,M,,N,,M*2E
20220705 000352+00:00 $HCHDT,101.1,T*28
20220705 000352+00:00 $GPRMC,000348,A,4816.2696,N,12334.7196,W,6.3,99,050722,11.8,E,A,V*63
20220705 000352+00:00 $WIMWV,185.09,R,4.2,N,A*10
20220705 000354+00:00 $IIMDA,29.9,I,1.014,B,11.7,C,,C,89.4,,,C,,T,,M,,N,,M*2E
20220705 000354+00:00 $HCHDT,100.5,T*2D
20220705 000354+00:00 $GPRMC,000350,A,4816.2696,N,12334.7196,W,6.3,99,050722,11.8,E,A,V*6A
20220705 000354+00:00 $WIMWV,184.89,R,4.08,N,A*23
20220705 000356+00:00 $IIMDA,29.9,I,1.014,B,11.7,C,,C,89.4,,,C,,T,,M,,N,,M*2E
20220705 000356+00:00 $HCHDT,100.7,T*2F
20220705 000356+00:00 $GPRMC,000352,A,4816.2696,N,12334.7100,W,6.3,99,050722,11.8,E,A,V*67
20220705 000356+00:00 $WIMWV,190.69,R,3.5,N,A*12
20220705 000358+00:00 $IIMDA,29.9,I,1.014,B,11.7,C,,C,89.5,,,C,,T,,M,,N,,M*2F
20220705 000358+00:00 $HCHDT,100.7,T*2F
20220705 000358+00:00 $GPRMC,000354,A,4816.2696,N,12334.7100,W,6.3,99,050722,11.8,E,A,V*61
20220705 000358+00:00 $WIMWV,183.39,R,4.08,N,A*2F
20220705 000400+00:00 $IIMDA,29.9,I,1.014,B,11.7,C,,C,89.5,,,C,,T,,M,,N,,M*2F
20220705 000400+00:00 $HCHDT,100.6,T*2E
20220705 000400+00:00 $GPRMC,000356,A,4816.2696,N,12334.6998,W,6.3,99,050722,11.8,E,A,V*6B
20220705 000400+00:00 $WIMWV,184.69,R,4.08,N,A*2D
20220705 000402+00:00 $IIMDA,29.9,I,1.014,B,11.7,C,,C,89.5,,,C,,T,,M,,N,,M*2F
20220705 000402+00:00 $HCHDT,100.4,T*2C
20220705 000402+00:00 $GPRMC,000358,A,4816.2696,N,12334.6998,W,6.3,99,050722,11.8,E,A,V*65
20220705 000402+00:00 $WIMWV,189.09,R,3.98,N,A*28
20220705 000404+00:00 $IIMDA,29.9,I,1.014,B,11.7,C,,C,89.5,,,C,,T,,M,,N,,M*2F
20220705 000404+00:00 $HCHDT,100.4,T*2C
20220705 000404+00:00 $GPRMC,000400,A,4816.2696,N,12334.6896,W,6.3,99,050722,11.8,E,A,V*60
20220705 000404+00:00 $WIMWV,204.9,R,3.5,N,A*2A
20220705 000406+00:00 $IIMDA,29.9,I,1.014,B,11.7,C,,C,89.5,,,C,,T,,M,,N,,M*2F
20220705 000406+00:00 $HCHDT,100.4,T*2C
20220705 000406+00:00 $GPRMC,000402,A,4816.2696,N,12334.6896,W,6.3,99,050722,11.8,E,A,V*62
20220705 000406+00:00 $WIMWV,196.19,R,3.89,N,A*27
20220705 000408+00:00 $IIMDA,29.9,I,1.014,B,11.7,C,,C,89.5,,,C,,T,,M,,N,,M*2F
20220705 000408+00:00 $HCHDT,100.5,T*2D
20220705 000408+00:00 $GPRMC,000404,A,4816.2696,N,12334.6800,W,6.3,99,050722,11.8,E,A,V*6B
20220705 000408+00:00 $WIMWV,185.5,R,3.98,N,A*18
20220705 000410+00:00 $IIMDA,29.9,I,1.014,B,11.7,C,,C,89.5,,,C,,T,,M,,N,,M*2F
20220705 000410+00:00 $HCHDT,100.4,T*2C
20220705 000410+00:00 $GPRMC,000406,A,4816.2696,N,12334.6800,W,6.3,99,050722,11.8,E,A,V*69
20220705 000410+00:00 $WIMWV,193.2,R,3.69,N,A*16
20220705 000412+00:00 $IIMDA,29.9,I,1.014,B,11.7,C,,C,89.6,,,C,,T,,M,,N,,M*2C
20220705 000412+00:00 $HCHDT,100.3,T*2B
20220705 000412+00:00 $GPRMC,000408,A,4816.2696,N,12334.6698,W,6.3,99,050722,11.8,E,A,V*68
20220705 000412+00:00 $WIMWV,188.49,R,4.08,N,A*23
20220705 000414+00:00 $IIMDA,29.9,I,1.014,B,11.7,C,,C,89.6,,,C,,T,,M,,N,,M*2C
20220705 000414+00:00 $HCHDT,100.1,T*29
20220705 000414+00:00 $GPRMC,000410,A,4816.2696,N,12334.6596,W,6.3,99,050722,11.8,E,A,V*6C
20220705 000414+00:00 $WIMWV,184.29,R,4.2,N,A*13
20220705 000416+00:00 $IIMDA,29.9,I,1.014,B,11.7,C,,C,89.6,,,C,,T,,M,,N,,M*2C
20220705 000416+00:00 $HCHDT,100.5,T*2D
20220705 000416+00:00 $GPRMC,000412,A,4816.2696,N,12334.6596,W,6.3,99,050722,11.8,E,A,V*6E
20220705 000416+00:00 $WIMWV,184.6,R,4.2,N,A*2E
20220705 000418+00:00 $IIMDA,29.9,I,1.014,B,11.7,C,,C,89.6,,,C,,T,,M,,N,,M*2C
20220705 000418+00:00 $HCHDT,100.3,T*2B
20220705 000418+00:00 $GPRMC,000414,A,4816.2696,N,12334.6500,W,6.3,99,050722,11.8,E,A,V*67
20220705 000418+00:00 $WIMWV,190.69,R,4.08,N,A*28
20220705 000420+00:00 $IIMDA,29.9,I,1.014,B,11.7,C,,C,89.6,,,C,,T,,M,,N,,M*2C
20220705 000420+00:00 $HCHDT,100.2,T*2A
20220705 000420+00:00 $GPRMC,000416,A,4816.2696,N,12334.6500,W,6.3,99,050722,11.8,E,A,V*65
20220705 000420+00:00 $WIMWV,187,R,4.08,N,A*0F
20220705 000422+00:00 $IIMDA,29.9,I,1.014,B,11.7,C,,C,89.7,,,C,,T,,M,,N,,M*2D
20220705 000422+00:00 $HCHDT,100.4,T*2C
20220705 000422+00:00 $GPRMC,000418,A,4816.2696,N,12334.6398,W,6.3,99,050722,11.8,E,A,V*6C
20220705 000422+00:00 $WIMWV,196.39,R,3.69,N,A*2B
20220705 000424+00:00 $IIMDA,29.9,I,1.014,B,11.7,C,,C,89.7,,,C,,T,,M,,N,,M*2D
20220705 000424+00:00 $HCHDT,100.7,T*2F
20220705 000424+00:00 $GPRMC,000420,A,4816.2696,N,12334.6398,W,6.3,99,050722,11.8,E,A,V*67
20220705 000424+00:00 $WIMWV,210.4,R,3.79,N,A*19
20220705 000426+00:00 $IIMDA,29.9,I,1.014,B,11.7,C,,C,89.7,,,C,,T,,M,,N,,M*2D
20220705 000426+00:00 $HCHDT,100.4,T*2C
20220705 000426+00:00 $GPRMC,000422,A,4816.2696,N,12334.6296,W,6.3,99,050722,11.8,E,A,V*6A
20220705 000426+00:00 $WIMWV,198.79,R,3.38,N,A*25
20220705 000428+00:00 $IIMDA,29.9,I,1.014,B,11.7,C,,C,89.7,,,C,,T,,M,,N,,M*2D
20220705 000428+00:00 $HCHDT,100.5,T*2D
20220705 000428+00:00 $GPRMC,000424,A,4816.2600,N,12334.6296,W,6.3,99,050722,11.8,E,A,V*63
20220705 000428+00:00 $WIMWV,192.1,R,3.79,N,A*15
20220705 000430+00:00 $IIMDA,29.9,I,1.014,B,11.7,C,,C,89.7,,,C,,T,,M,,N,,M*2D
20220705 000430+00:00 $HCHDT,100.8,T*20
20220705 000430+00:00 $GPRMC,000426,A,4816.2600,N,12334.6200,W,6.3,99,050722,11.8,E,A,V*6E
20220705 000430+00:00 $WIMWV,183.29,R,3.89,N,A*20
20220705 000432+00:00 $IIMDA,29.9,I,1.014,B,11.7,C,,C,89.7,,,C,,T,,M,,N,,M*2D
20220705 000432+00:00 $HCHDT,100.8,T*20
20220705 000432+00:00 $GPRMC,000428,A,4816.2600,N,12334.6200,W,6.3,99,050722,11.8,E,A,V*60
20220705 000432+00:00 $WIMWV,189.09,R,3.69,N,A*26
20220705 000434+00:00 $IIMDA,29.9,I,1.014,B,11.7,C,,C,89.7,,,C,,T,,M,,N,,M*2D
20220705 000434+00:00 $HCHDT,100.6,T*2E
20220705 000434+00:00 $GPRMC,000430,A,4816.2600,N,12334.6098,W,6.3,99,050722,11.8,E,A,V*6A
20220705 000434+00:00 $WIMWV,203.89,R,3.38,N,A*2B
20220705 000436+00:00 $IIMDA,29.9,I,1.014,B,11.7,C,,C,89.7,,,C,,T,,M,,N,,M*2D
20220705 000436+00:00 $HCHDT,100.4,T*2C
20220705 000436+00:00 $GPRMC,000432,A,4816.2600,N,12334.6098,W,6.3,99,050722,11.8,E,A,V*68
20220705 000436+00:00 $WIMWV,212.29,R,3.69,N,A*25
20220705 000438+00:00 $IIMDA,29.9,I,1.014,B,11.7,C,,C,89.7,,,C,,T,,M,,N,,M*2D
20220705 000438+00:00 $HCHDT,100.7,T*2F
20220705 000438+00:00 $GPRMC,000434,A,4816.2600,N,12334.5996,W,6.3,99,050722,11.8,E,A,V*6A
20220705 000438+00:00 $WIMWV,202.9,R,3.5,N,A*2C
20220705 000440+00:00 $IIMDA,29.9,I,1.014,B,11.7,C,,C,89.7,,,C,,T,,M,,N,,M*2D
20220705 000440+00:00 $HCHDT,100.7,T*2F
20220705 000440+00:00 $GPRMC,000436,A,4816.2600,N,12334.5996,W,6.3,99,050722,11.8,E,A,V*68
20220705 000440+00:00 $WIMWV,185.99,R,4.2,N,A*19
20220705 000442+00:00 $IIMDA,29.9,I,1.014,B,11.7,C,,C,89.7,,,C,,T,,M,,N,,M*2D
20220705 000442+00:00 $HCHDT,100.6,T*2E
20220705 000442+00:00 $GPRMC,000438,A,4816.2600,N,12334.5900,W,6.3,99,050722,11.8,E,A,V*69
20220705 000442+00:00 $WIMWV,184.29,R,4.49,N,A*2C
20220705 000444+00:00 $IIMDA,29.9,I,1.014,B,11.7,C,,C,89.8,,,C,,T,,M,,N,,M*22
20220705 000444+00:00 $HCHDT,100.8,T*20
20220705 000444+00:00 $GPRMC,000440,A,4816.2600,N,12334.5900,W,6.3,99,050722,11.8,E,A,V*66
20220705 000444+00:00 $WIMWV,186.29,R,4.49,N,A*2E
20220705 000446+00:00 $IIMDA,29.9,I,1.014,B,11.7,C,,C,89.7,,,C,,T,,M,,N,,M*2D
20220705 000446+00:00 $HCHDT,100.9,T*21
20220705 000446+00:00 $GPRMC,000442,A,4816.2600,N,12334.5798,W,6.2,99,050722,11.8,E,A,V*6A
20220705 000446+00:00 $WIMWV,183.7,R,4.49,N,A*17
20220705 000448+00:00 $IIMDA,29.9,I,1.014,B,11.7,C,,C,89.8,,,C,,T,,M,,N,,M*22
20220705 000448+00:00 $HCHDT,101,T*37
20220705 000448+00:00 $GPRMC,000444,A,4816.2600,N,12334.5798,W,6.2,99,050722,11.8,E,A,V*6C
20220705 000448+00:00 $WIMWV,195.79,R,3.79,N,A*2D
20220705 000450+00:00 $IIMDA,29.9,I,1.014,B,11.6,C,,C,89.8,,,C,,T,,M,,N,,M*23
20220705 000450+00:00 $HCHDT,100.7,T*2F
20220705 000450+00:00 $GPRMC,000446,A,4816.2600,N,12334.5696,W,6.2,99,050722,11.8,E,A,V*61
20220705 000450+00:00 $WIMWV,189.39,R,4.08,N,A*25
20220705 000452+00:00 $IIMDA,29.9,I,1.014,B,11.6,C,,C,89.8,,,C,,T,,M,,N,,M*23
20220705 000452+00:00 $HCHDT,100.7,T*2F
20220705 000452+00:00 $GPRMC,000448,A,4816.2600,N,12334.5696,W,6.2,99,050722,11.8,E,A,V*6F
20220705 000452+00:00 $WIMWV,191.4,R,3.69,N,A*12
20220705 000454+00:00 $IIMDA,29.9,I,1.014,B,11.6,C,,C,89.8,,,C,,T,,M,,N,,M*23
20220705 000454+00:00 $HCHDT,100.9,T*21
20220705 000454+00:00 $GPRMC,000450,A,4816.2600,N,12334.5600,W,6.2,99,050722,11.8,E,A,V*69
20220705 000454+00:00 $WIMWV,194.99,R,3.69,N,A*23
20220705 000456+00:00 $IIMDA,29.9,I,1.014,B,11.6,C,,C,89.8,,,C,,T,,M,,N,,M*23
20220705 000456+00:00 $HCHDT,100.7,T*2F
20220705 000456+00:00 $GPRMC,000452,A,4816.2600,N,12334.5600,W,6.2,99,050722,11.8,E,A,V*6B
20220705 000456+00:00 $WIMWV,199.8,R,3.38,N,A*12
20220705 000458+00:00 $IIMDA,29.9,I,1.014,B,11.6,C,,C,89.9,,,C,,T,,M,,N,,M*22
20220705 000458+00:00 $HCHDT,100.6,T*2E
20220705 000458+00:00 $GPRMC,000454,A,4816.2600,N,12334.5498,W,6.2,99,050722,11.8,E,A,V*6E
20220705 000458+00:00 $WIMWV,190.39,R,3.89,N,A*23
20220705 000500+00:00 $IIMDA,29.9,I,1.014,B,11.6,C,,C,89.9,,,C,,T,,M,,N,,M*22
20220705 000500+00:00 $HCHDT,100.6,T*2E
20220705 000500+00:00 $GPRMC,000456,A,4816.2600,N,12334.5498,W,6.2,99,050722,11.8,E,A,V*6C
20220705 000500+00:00 $WIMWV,180.6,R,4.08,N,A*10
20220705 000502+00:00 $IIMDA,29.9,I,1.014,B,11.6,C,,C,89.9,,,C,,T,,M,,N,,M*22
20220705 000502+00:00 $HCHDT,100.7,T*2F
20220705 000502+00:00 $GPRMC,000458,A,4816.2600,N,12334.5396,W,6.2,99,050722,11.8,E,A,V*6B
20220705 000502+00:00 $WIMWV,189.39,R,3.69,N,A*25
20220705 000504+00:00 $IIMDA,29.9,I,1.014,B,11.6,C,,C,89.9,,,C,,T,,M,,N,,M*22
20220705 000504+00:00 $HCHDT,100.8,T*20
20220705 000504+00:00 $GPRMC,000500,A,4816.2600,N,12334.5396,W,6.2,99,050722,11.8,E,A,V*67
20220705 000504+00:00 $WIMWV,196.79,R,3.69,N,A*2F
20220705 000506+00:00 $IIMDA,29.9,I,1.014,B,11.6,C,,C,90,,,C,,T,,M,,N,,M*3D
20220705 000506+00:00 $HCHDT,100.7,T*2F
20220705 000506+00:00 $GPRMC,000502,A,4816.2498,N,12334.5300,W,6.2,99,050722,11.8,E,A,V*69
20220705 000506+00:00 $WIMWV,193.89,R,3.79,N,A*24
20220705 000508+00:00 $IIMDA,29.9,I,1.014,B,11.6,C,,C,90,,,C,,T,,M,,N,,M*3D
20220705 000508+00:00 $HCHDT,100.5,T*2D
20220705 000508+00:00 $GPRMC,000504,A,4816.2498,N,12334.5300,W,6.2,99,050722,11.8,E,A,V*6F
20220705 000508+00:00 $WIMWV,190.1,R,4.2,N,A*2C
20220705 000510+00:00 $IIMDA,29.9,I,1.014,B,11.6,C,,C,90,,,C,,T,,M,,N,,M*3D
20220705 000510+00:00 $HCHDT,100.5,T*2D
20220705 000510+00:00 $GPRMC,000506,A,4816.2498,N,12334.5198,W,6.2,99,050722,11.8,E,A,V*6E
20220705 000510+00:00 $WIMWV,199.4,R,3.69,N,A*1A
20220705 000512+00:00 $IIMDA,29.9,I,1.014,B,11.6,C,,C,90,,,C,,T,,M,,N,,M*3D
20220705 000512+00:00 $HCHDT,100.7,T*2F
20220705 000512+00:00 $GPRMC,000508,A,4816.2498,N,12334.5198,W,6.2,99,050722,11.8,E,A,V*60
20220705 000512+00:00 $WIMWV,196.79,R,3.79,N,A*2E
20220705 000514+00:00 $IIMDA,29.9,I,1.014,B,11.6,C,,C,90,,,C,,T,,M,,N,,M*3D
20220705 000514+00:00 $HCHDT,100.8,T*20
20220705 000514+00:00 $GPRMC,000510,A,4816.2498,N,12334.5096,W,6.2,98,050722,11.8,E,A,V*67
20220705 000514+00:00 $WIMWV,183.29,R,4.39,N,A*2C
20220705 000516+00:00 $IIMDA,29.9,I,1.014,B,11.6,C,,C,90,,,C,,T,,M,,N,,M*3D
20220705 000516+00:00 $HCHDT,100.4,T*2C
20220705 000516+00:00 $GPRMC,000512,A,4816.2498,N,12334.5096,W,6.2,99,050722,11.8,E,A,V*64
20220705 000516+00:00 $WIMWV,193.29,R,3.89,N,A*21
20220705 000518+00:00 $IIMDA,29.9,I,1.014,B,11.6,C,,C,90.1,,,C,,T,,M,,N,,M*22
20220705 000518+00:00 $HCHDT,100.4,T*2C
20220705 000518+00:00 $GPRMC,000514,A,4816.2498,N,12334.5000,W,6.2,99,050722,11.8,E,A,V*6D
20220705 000518+00:00 $WIMWV,194.3,R,3.89,N,A*1E
20220705 000520+00:00 $IIMDA,29.9,I,1.014,B,11.6,C,,C,90.1,,,C,,T,,M,,N,,M*22
20220705 000520+00:00 $HCHDT,100.5,T*2D
20220705 000520+00:00 $GPRMC,000516,A,4816.2498,N,12334.5000,W,6.2,98,050722,11.8,E,A,V*6E
20220705 000520+00:00 $WIMWV,182.09,R,4.49,N,A*28
20220705 000522+00:00 $IIMDA,29.9,I,1.014,B,11.6,C,,C,90.1,,,C,,T,,M,,N,,M*22
20220705 000522+00:00 $HCHDT,100.6,T*2E
20220705 000522+00:00 $GPRMC,000518,A,4816.2498,N,12334.4898,W,6.2,98,050722,11.8,E,A,V*68
20220705 000522+00:00 $WIMWV,184.49,R,4.3,N,A*14
20220705 000524+00:00 $IIMDA,29.9,I,1.014,B,11.6,C,,C,90.1,,,C,,T,,M,,N,,M*22
20220705 000524+00:00 $HCHDT,100.6,T*2E
20220705 000524+00:00 $GPRMC,000520,A,4816.2498,N,12334.4898,W,6.2,98,050722,11.8,E,A,V*63
20220705 000524+00:00 $WIMWV,184.89,R,3.89,N,A*2D
20220705 000526+00:00 $IIMDA,29.9,I,1.014,B,11.6,C,,C,90.1,,,C,,T,,M,,N,,M*22
20220705 000526+00:00 $HCHDT,100.6,T*2E
20220705 000526+00:00 $GPRMC,000522,A,4816.2498,N,12334.4796,W,6.2,98,050722,11.8,E,A,V*60
20220705 000526+00:00 $WIMWV,199.09,R,3.6,N,A*1E
20220705 000528+00:00 $IIMDA,29.9,I,1.014,B,11.6,C,,C,90.2,,,C,,T,,M,,N,,M*21
20220705 000528+00:00 $HCHDT,100.8,T*20
20220705 000528+00:00 $GPRMC,000524,A,4816.2498,N,12334.4796,W,6.2,98,050722,11.8,E,A,V*66
20220705 000528+00:00 $WIMWV,209.1,R,3.98,N,A*1B
20220705 000530+00:00 $IIMDA,29.9,I,1.014,B,11.6,C,,C,90.2,,,C,,T,,M,,N,,M*21
20220705 000530+00:00 $HCHDT,100.9,T*21
20220705 000530+00:00 $GPRMC,000526,A,4816.2498,N,12334.4700,W,6.2,98,050722,11.8,E,A,V*6B
20220705 000530+00:00 $WIMWV,197.49,R,3.98,N,A*23
20220705 000532+00:00 $IIMDA,29.9,I,1.014,B,11.6,C,,C,90.2,,,C,,T,,M,,N,,M*21
20220705 000532+00:00 $HCHDT,100.9,T*21
20220705 000532+00:00 $GPRMC,000528,A,4816.2498,N,12334.4598,W,6.2,98,050722,11.8,E,A,V*66
20220705 000532+00:00 $WIMWV,206.69,R,3.69,N,A*24
20220705 000534+00:00 $IIMDA,29.9,I,1.014,B,11.6,C,,C,90.2,,,C,,T,,M,,N,,M*21
20220705 000534+00:00 $HCHDT,100.6,T*2E
20220705 000534+00:00 $GPRMC,000530,A,4816.2498,N,12334.4598,W,6.2,98,050722,11.8,E,A,V*6F
20220705 000534+00:00 $WIMWV,193.79,R,3.5,N,A*10
20220705 000536+00:00 $IIMDA,29.9,I,1.014,B,11.6,C,,C,90.2,,,C,,T,,M,,N,,M*21
20220705 000536+00:00 $HCHDT,101.1,T*28
20220705 000536+00:00 $GPRMC,000532,A,4816.2498,N,12334.4496,W,6.2,98,050722,11.8,E,A,V*62
20220705 000536+00:00 $WIMWV,197.4,R,4.08,N,A*14
20220705 000538+00:00 $IIMDA,29.9,I,1.014,B,11.6,C,,C,90.3,,,C,,T,,M,,N,,M*20
20220705 000538+00:00 $HCHDT,101.1,T*28
20220705 000538+00:00 $GPRMC,000534,A,4816.2498,N,12334.4496,W,6.2,98,050722,11.8,E,A,V*64
20220705 000538+00:00 $WIMWV,184.29,R,4.3,N,A*12
20220705 000540+00:00 $IIMDA,29.9,I,1.014,B,11.6,C,,C,90.3,,,C,,T,,M,,N,,M*20
20220705 000540+00:00 $HCHDT,100.6,T*2E
20220705 000540+00:00 $GPRMC,000536,A,4816.2498,N,12334.4400,W,6.2,98,050722,11.8,E,A,V*69
20220705 000540+00:00 $WIMWV,185.5,R,4.08,N,A*16
20220705 000542+00:00 $IIMDA,29.9,I,1.014,B,11.6,C,,C,90.3,,,C,,T,,M,,N,,M*20
20220705 000542+00:00 $HCHDT,100.7,T*2F
20220705 000542+00:00 $GPRMC,000538,A,4816.2498,N,12334.4400,W,6.2,98,050722,11.8,E,A,V*67
20220705 000542+00:00 $WIMWV,195.89,R,3.69,N,A*23
20220705 000544+00:00 $IIMDA,29.9,I,1.014,B,11.6,C,,C,90.3,,,C,,T,,M,,N,,M*20
20220705 000544+00:00 $HCHDT,101.1,T*28
20220705 000544+00:00 $GPRMC,000540,A,4816.2498,N,12334.4298,W,6.2,98,050722,11.8,E,A,V*6F
20220705 000544+00:00 $WIMWV,185.7,R,3.89,N,A*1A
20220705 000546+00:00 $IIMDA,29.9,I,1.014,B,11.6,C,,C,90.3,,,C,,T,,M,,N,,M*20
20220705 000546+00:00 $HCHDT,100.9,T*21
20220705 000546+00:00 $GPRMC,000542,A,4816.2396,N,12334.4298,W,6.2,98,050722,11.8,E,A,V*64
20220705 000546+00:00 $WIMWV,190.1,R,3.89,N,A*18
20220705 000548+00:00 $IIMDA,29.9,I,1.014,B,11.6,C,,C,90.3,,,C,,T,,M,,N,,M*20
20220705 000548+00:00 $HCHDT,100.7,T*2F
20220705 000548+00:00 $GPRMC,000544,A,4816.2396,N,12334.4196,W,6.2,98,050722,11.8,E,A,V*6F
20220705 000548+00:00 $WIMWV,192.59,R,3.6,N,A*10
20220705 000550+00:00 $IIMDA,29.9,I,1.014,B,11.6,C,,C,90.3,,,C,,T,,M,,N,,M*20
20220705 000550+00:00 $HCHDT,100.8,T*20
20220705 000550+00:00 $GPRMC,000546,A,4816.2396,N,12334.4196,W,6.2,98,050722,11.8,E,A,V*6D
20220705 000550+00:00 $WIMWV,197.49,R,3.19,N,A*2A
20220705 000552+00:00 $IIMDA,29.9,I,1.014,B,11.6,C,,C,90.3,,,C,,T,,M,,N,,M*20
20220705 000552+00:00 $HCHDT,101.2,T*2B
20220705 000552+00:00 $GPRMC,000548,A,4816.2396,N,12334.4100,W,6.2,98,050722,11.8,E,A,V*6C
20220705 000552+00:00 $WIMWV,201.09,R,3.19,N,A*22
20220705 000554+00:00 $IIMDA,29.9,I,1.014,B,11.5,C,,C,90.4,,,C,,T,,M,,N,,M*24
20220705 000554+00:00 $HCHDT,101.1,T*28
20220705 000554+00:00 $GPRMC,000550,A,4816.2396,N,12334.4100,W,6.2,98,050722,11.8,E,A,V*65
20220705 000554+00:00 $WIMWV,202,R,3.38,N,A*05
20220705 000556+00:00 $IIMDA,29.9,I,1.014,B,11.5,C,,C,90.4,,,C,,T,,M,,N,,M*24
20220705 000556+00:00 $HCHDT,101.2,T*2B
20220705 000556+00:00 $GPRMC,000552,A,4816.2396,N,12334.3998,W,6.2,98,050722,11.8,E,A,V*69
20220705 000556+00:00 $WIMWV,185.7,R,3.89,N,A*1A
20220705 000558+00:00 $IIMDA,29.9,I,1.014,B,11.5,C,,C,90.4,,,C,,T,,M,,N,,M*24
20220705 000558+00:00 $HCHDT,101.6,T*2F
20220705 000558+00:00 $GPRMC,000554,A,4816.2396,N,12334.3998,W,6.2,98,050722,11.8,E,A,V*6F
20220705 000558+00:00 $WIMWV,184.6,R,3.98,N,A*1A
20220705 000600+00:00 $IIMDA,29.9,I,1.014,B,11.5,C,,C,90.4,,,C,,T,,M,,N,,M*24
20220705 000600+00:00 $HCHDT,101.7,T*2E
20220705 000600+00:00 $GPRMC,000556,A,4816.2396,N,12334.3896,W,6.2,98,050722,11.8,E,A,V*62
20220705 000600+00:00 $WIMWV,184.6,R,3.89,N,A*1A
20220705 000602+00:00 $IIMDA,29.9,I,1.014,B,11.5,C,,C,90.4,,,C,,T,,M,,N,,M*24
20220705 000602+00:00 $HCHDT,101.9,T*20
20220705 000602+00:00 $GPRMC,000558,A,4816.2396,N,12334.3896,W,6.2,99,050722,11.8,E,A,V*6D
20220705 000602+00:00 $WIMWV,187.79,R,3.98,N,A*21
20220705 000604+00:00 $IIMDA,29.9,I,1.014,B,11.5,C,,C,90.4,,,C,,T,,M,,N,,M*24
20220705 000604+00:00 $HCHDT,102.2,T*28
20220705 000604+00:00 $GPRMC,000600,A,4816.2396,N,12334.3800,W,6.1,99,050722,11.8,E,A,V*6F
20220705 000604+00:00 $WIMWV,184.19,R,4.2,N,A*10
20220705 000606+00:00 $IIMDA,29.9,I,1.014,B,11.5,C,,C,90.4,,,C,,T,,M,,N,,M*24
20220705 000606+00:00 $HCHDT,102.4,T*2E
20220705 000606+00:00 $GPRMC,000602,A,4816.2396,N,12334.3800,W,6.1,99,050722,11.8,E,A,V*6D
20220705 000606+00:00 $WIMWV,183.5,R,3.98,N,A*1E
20220705 000608+00:00 $IIMDA,29.9,I,1.014,B,11.5,C,,C,90.5,,,C,,T,,M,,N,,M*25
20220705 000608+00:00 $HCHDT,102.5,T*2F
20220705 000608+00:00 $GPRMC,000604,A,4816.2396,N,12334.3698,W,6.1,99,050722,11.8,E,A,V*64
20220705 000608+00:00 $WIMWV,191.4,R,3.69,N,A*12
20220705 000610+00:00 $IIMDA,29.9,I,1.014,B,11.5,C,,C,90.4,,,C,,T,,M,,N,,M*24
20220705 000610+00:00 $HCHDT,102.9,T*23
20220705 000610+00:00 $GPRMC,000606,A,4816.2396,N,12334.3698,W,6.1,99,050722,11.8,E,A,V*66
20220705 000610+00:00 $WIMWV,185,R,4.2,N,A*37
20220705 000612+00:00 $IIMDA,29.9,I,1.014,B,11.5,C,,C,90.4,,,C,,T,,M,,N,,M*24
20220705 000612+00:00 $HCHDT,102.9,T*23
20220705 000612+00:00 $GPRMC,000608,A,4816.2396,N,12334.3596,W,6.1,99,050722,11.8,E,A,V*65
20220705 000612+00:00 $WIMWV,183.29,R,4.2,N,A*14
20220705 000614+00:00 $IIMDA,29.9,I,1.014,B,11.5,C,,C,90.5,,,C,,T,,M,,N,,M*25
20220705 000614+00:00 $HCHDT,102.7,T*2D
20220705 000614+00:00 $GPRMC,000610,A,4816.2396,N,12334.3596,W,6.1,99,050722,11.8,E,A,V*6C
20220705 000614+00:00 $WIMWV,193,R,3.89,N,A*04
20220705 000616+00:00 $IIMDA,29.9,I,1.014,B,11.5,C,,C,90.5,,,C,,T,,M,,N,,M*25
20220705 000616+00:00 $HCHDT,102.8,T*22
20220705 000616+00:00 $GPRMC,000612,A,4816.2396,N,12334.3500,W,6.1,99,050722,11.8,E,A,V*61
20220705 000616+00:00 $WIMWV,191.49,R,3.69,N,A*2B
20220705 000618+00:00 $IIMDA,29.9,I,1.014,B,11.5,C,,C,90.6,,,C,,T,,M,,N,,M*26
20220705 000618+00:00 $HCHDT,102.9,T*23
20220705 000618+00:00 $GPRMC,000614,A,4816.2396,N,12334.3500,W,6.1,99,050722,11.8,E,A,V*67
20220705 000618+00:00 $WIMWV,199.69,R,3.69,N,A*21
20220705 000620+00:00 $IIMDA,29.9,I,1.014,B,11.5,C,,C,90.5,,,C,,T,,M,,N,,M*25
20220705 000620+00:00 $HCHDT,102.7,T*2D
20220705 000620+00:00 $GPRMC,000616,A,4816.2396,N,12334.3398,W,6.1,99,050722,11.8,E,A,V*62
20220705 000620+00:00 $WIMWV,184.6,R,3.79,N,A*15
20220705 000622+00:00 $IIMDA,29.9,I,1.014,B,11.5,C,,C,90.6,,,C,,T,,M,,N,,M*26
20220705 000622+00:00 $HCHDT,102.9,T*23
20220705 000622+00:00 $GPRMC,000618,A,4816.2396,N,12334.3398,W,6.1,99,050722,11.8,E,A,V*6C
20220705 000622+00:00 $WIMWV,184.8,R,3.79,N,A*1B
20220705 000624+00:00 $IIMDA,29.9,I,1.014,B,11.5,C,,C,90.6,,,C,,T,,M,,N,,M*26
20220705 000624+00:00 $HCHDT,102.8,T*22
20220705 000624+00:00 $GPRMC,000620,A,4816.2300,N,12334.3296,W,6.1,99,050722,11.8,E,A,V*67
20220705 000624+00:00 $WIMWV,192.39,R,3.6,N,A*16
20220705 000626+00:00 $IIMDA,29.9,I,1.014,B,11.5,C,,C,90.6,,,C,,T,,M,,N,,M*26
20220705 000626+00:00 $HCHDT,102.7,T*2D
20220705 000626+00:00 $GPRMC,000622,A,4816.2300,N,12334.3296,W,6.2,99,050722,11.8,E,A,V*66
20220705 000626+00:00 $WIMWV,183.29,R,4.39,N,A*2C
20220705 000628+00:00 $IIMDA,29.9,I,1.014,B,11.5,C,,C,90.7,,,C,,T,,M,,N,,M*27
20220705 000628+00:00 $HCHDT,102.7,T*2D
20220705 000628+00:00 $GPRMC,000624,A,4816.2300,N,12334.3200,W,6.2,99,050722,11.8,E,A,V*6F
20220705 000628+00:00 $WIMWV,190.39,R,4.2,N,A*17
20220705 000630+00:00 $IIMDA,29.9,I,1.014,B,11.5,C,,C,90.8,,,C,,T,,M,,N,,M*28
20220705 000630+00:00 $HCHDT,102.8,T*22
20220705 000630+00:00 $GPRMC,000626,A,4816.2300,N,12334.3200,W,6.1,99,050722,11.8,E,A,V*6E
20220705 000630+00:00 $WIMWV,197.8,R,3.38,N,A*1C
20220705 000632+00:00 $IIMDA,29.9,I,1.014,B,11.5,C,,C,90.8,,,C,,T,,M,,N,,M*28
20220705 000632+00:00 $HCHDT,102.7,T*2D
20220705 000632+00:00 $GPRMC,000628,A,4816.2300,N,12334.3098,W,6.1,99,050722,11.8,E,A,V*63
20220705 000632+00:00 $WIMWV,183.9,R,3.6,N,A*25
20220705 000634+00:00 $IIMDA,29.9,I,1.014,B,11.5,C,,C,90.8,,,C,,T,,M,,N,,M*28
20220705 000634+00:00 $HCHDT,102.6,T*2C
20220705 000634+00:00 $GPRMC,000630,A,4816.2300,N,12334.3098,W,6.2,99,050722,11.8,E,A,V*69
20220705 000634+00:00 $WIMWV,183.59,R,4.3,N,A*12
20220705 000636+00:00 $IIMDA,29.9,I,1.014,B,11.5,C,,C,90.8,,,C,,T,,M,,N,,M*28
20220705 000636+00:00 $HCHDT,102.6,T*2C
20220705 000636+00:00 $GPRMC,000632,A,4816.2300,N,12334.2996,W,6.2,99,050722,11.8,E,A,V*6D
20220705 000636+00:00 $WIMWV,182.99,R,4.2,N,A*1E
20220705 000638+00:00 $IIMDA,29.9,I,1.014,B,11.5,C,,C,90.8,,,C,,T,,M,,N,,M*28
20220705 000638+00:00 $HCHDT,102.9,T*23
20220705 000638+00:00 $GPRMC,000634,A,4816.2300,N,12334.2996,W,6.2,99,050722,11.8,E,A,V*6B
20220705 000638+00:00 $WIMWV,182.89,R,4.3,N,A*1E
20220705 000640+00:00 $IIMDA,29.9,I,1.014,B,11.5,C,,C,90.9,,,C,,T,,M,,N,,M*29
20220705 000640+00:00 $HCHDT,102.9,T*23
20220705 000640+00:00 $GPRMC,000636,A,4816.2300,N,12334.2900,W,6.2,99,050722,11.8,E,A,V*66
20220705 000640+00:00 $WIMWV,183.29,R,4.49,N,A*2B
20220705 000642+00:00 $IIMDA,29.9,I,1.014,B,11.5,C,,C,90.9,,,C,,T,,M,,N,,M*29
20220705 000642+00:00 $HCHDT,103.1,T*2A
20220705 000642+00:00 $GPRMC,000638,A,4816.2300,N,12334.2900,W,6.1,99,050722,11.8,E,A,V*6B
20220705 000642+00:00 $WIMWV,182.29,R,4.3,N,A*14
20220705 000644+00:00 $IIMDA,29.9,I,1.014,B,11.5,C,,C,90.9,,,C,,T,,M,,N,,M*29
20220705 000644+00:00 $HCHDT,103.5,T*2E
20220705 000644+00:00 $GPRMC,000640,A,4816.2300,N,12334.2798,W,6.1,99,050722,11.8,E,A,V*6B
20220705 000644+00:00 $WIMWV,183.9,R,3.98,N,A*12
20220705 000646+00:00 $IIMDA,29.9,I,1.014,B,11.5,C,,C,90.9,,,C,,T,,M,,N,,M*29
20220705 000646+00:00 $HCHDT,103.9,T*22
20220705 000646+00:00 $GPRMC,000642,A,4816.2300,N,12334.2798,W,6.1,100,050722,11.8,E,A,V*58
20220705 000646+00:00 $WIMWV,184.29,R,3.89,N,A*27
20220705 000648+00:00 $IIMDA,29.9,I,1.014,B,11.5,C,,C,90.9,,,C,,T,,M,,N,,M*29
20220705 000648+00:00 $HCHDT,104.5,T*29
20220705 000648+00:00 $GPRMC,000644,A,4816.2300,N,12334.2696,W,6.1,100,050722,11.8,E,A,V*51
20220705 000648+00:00 $WIMWV,185.99,R,3.6,N,A*1A
20220705 000650+00:00 $IIMDA,29.9,I,1.014,B,11.5,C,,C,90.9,,,C,,T,,M,,N,,M*29
20220705 000650+00:00 $HCHDT,104.9,T*25
20220705 000650+00:00 $GPRMC,000646,A,4816.2300,N,12334.2696,W,6.1,100,050722,11.8,E,A,V*53
20220705 000650+00:00 $WIMWV,183.29,R,4.39,N,A*2C
20220705 000652+00:00 $IIMDA,29.9,I,1.014,B,11.5,C,,C,90.9,,,C,,T,,M,,N,,M*29
20220705 000652+00:00 $HCHDT,105.4,T*29
20220705 000652+00:00 $GPRMC,000648,A,4816.2300,N,12334.2600,W,6.1,100,050722,11.8,E,A,V*52
20220705 000652+00:00 $WIMWV,197.89,R,3.19,N,A*26
20220705 000654+00:00 $IIMDA,29.9,I,1.014,B,11.5,C,,C,90.9,,,C,,T,,M,,N,,M*29
20220705 000654+00:00 $HCHDT,105.9,T*24
20220705 000654+00:00 $GPRMC,000650,A,4816.2300,N,12334.2600,W,6.1,101,050722,11.8,E,A,V*5A
20220705 000654+00:00 $WIMWV,186.1,R,3.6,N,A*28
20220705 000656+00:00 $IIMDA,29.9,I,1.014,B,11.5,C,,C,90.9,,,C,,T,,M,,N,,M*29
20220705 000656+00:00 $HCHDT,106.4,T*2A
20220705 000656+00:00 $GPRMC,000652,A,4816.2300,N,12334.2498,W,6.1,101,050722,11.8,E,A,V*5B
20220705 000656+00:00 $WIMWV,200.09,R,3.29,N,A*20
20220705 000658+00:00 $IIMDA,29.9,I,1.014,B,11.5,C,,C,90.9,,,C,,T,,M,,N,,M*29
20220705 000658+00:00 $HCHDT,106.8,T*26
20220705 000658+00:00 $GPRMC,000654,A,4816.2198,N,12334.2498,W,6.1,101,050722,11.8,E,A,V*5E
20220705 000658+00:00 $WIMWV,213.59,R,2.99,N,A*2D
20220705 000700+00:00 $IIMDA,29.9,I,1.014,B,11.5,C,,C,90.9,,,C,,T,,M,,N,,M*29
20220705 000700+00:00 $HCHDT,107,T*31
20220705 000700+00:00 $GPRMC,000656,A,4816.2198,N,12334.2396,W,6.1,102,050722,11.8,E,A,V*56
20220705 000700+00:00 $WIMWV,188.89,R,3.98,N,A*21
20220705 000702+00:00 $IIMDA,29.9,I,1.014,B,11.5,C,,C,91,,,C,,T,,M,,N,,M*3F
20220705 000702+00:00 $HCHDT,107,T*31
20220705 000702+00:00 $GPRMC,000658,A,4816.2198,N,12334.2396,W,6.1,102,050722,11.8,E,A,V*58
20220705 000702+00:00 $WIMWV,250.69,R,2.68,N,A*27
20220705 000704+00:00 $IIMDA,29.9,I,1.014,B,11.5,C,,C,91.1,,,C,,T,,M,,N,,M*20
20220705 000704+00:00 $HCHDT,106.9,T*27
20220705 000704+00:00 $GPRMC,000700,A,4816.2198,N,12334.2300,W,6.1,102,050722,11.8,E,A,V*5B
20220705 000704+00:00 $WIMWV,214.49,R,3.69,N,A*25
20220705 000706+00:00 $IIMDA,29.9,I,1.014,B,11.5,C,,C,91.1,,,C,,T,,M,,N,,M*20
20220705 000706+00:00 $HCHDT,106.8,T*26
20220705 000706+00:00 $GPRMC,000702,A,4816.2198,N,12334.2300,W,6.1,102,050722,11.8,E,A,V*59
20220705 000706+00:00 $WIMWV,182.29,R,4.3,N,A*14
20220705 000708+00:00 $IIMDA,29.9,I,1.014,B,11.5,C,,C,91.2,,,C,,T,,M,,N,,M*23
20220705 000708+00:00 $HCHDT,106.8,T*26
20220705 000708+00:00 $GPRMC,000704,A,4816.2198,N,12334.2198,W,6.2,102,050722,11.8,E,A,V*5F
20220705 000708+00:00 $WIMWV,200.09,R,3.19,N,A*23
20220705 000710+00:00 $IIMDA,29.9,I,1.014,B,11.5,C,,C,91.3,,,C,,T,,M,,N,,M*22
20220705 000710+00:00 $HCHDT,106.5,T*2B
20220705 000710+00:00 $GPRMC,000706,A,4816.2198,N,12334.2198,W,6.2,102,050722,11.8,E,A,V*5D
20220705 000710+00:00 $WIMWV,225.69,R,2.49,N,A*26
20220705 000712+00:00 $IIMDA,29.9,I,1.014,B,11.5,C,,C,91.4,,,C,,T,,M,,N,,M*25
20220705 000712+00:00 $HCHDT,106.5,T*2B
20220705 000712+00:00 $GPRMC,000708,A,4816.2198,N,12334.2096,W,6.2,102,050722,11.8,E,A,V*5C
20220705 000712+00:00 $WIMWV,230.29,R,2.68,N,A*25
20220705 000714+00:00 $IIMDA,29.9,I,1.014,B,11.5,C,,C,91.4,,,C,,T,,M,,N,,M*25
20220705 000714+00:00 $HCHDT,106.6,T*28
20220705 000714+00:00 $GPRMC,000710,A,4816.2198,N,12334.2096,W,6.2,102,050722,11.8,E,A,V*55
20220705 000714+00:00 $WIMWV,201.89,R,3.09,N,A*2B
20220705 000716+00:00 $IIMDA,29.9,I,1.014,B,11.5,C,,C,91.5,,,C,,T,,M,,N,,M*24
20220705 000716+00:00 $HCHDT,106.5,T*2B
20220705 000716+00:00 $GPRMC,000712,A,4816.2198,N,12334.2000,W,6.2,102,050722,11.8,E,A,V*58
20220705 000716+00:00 $WIMWV,223.69,R,3.79,N,A*22
20220705 000718+00:00 $IIMDA,29.9,I,1.014,B,11.5,C,,C,91.6,,,C,,T,,M,,N,,M*27
20220705 000718+00:00 $HCHDT,106.4,T*2A
20220705 000718+00:00 $GPRMC,000714,A,4816.2198,N,12334.2000,W,6.2,102,050722,11.8,E,A,V*5E
20220705 000718+00:00 $WIMWV,207.69,R,3.5,N,A*1F
20220705 000720+00:00 $IIMDA,29.9,I,1.014,B,11.5,C,,C,91.6,,,C,,T,,M,,N,,M*27
20220705 000720+00:00 $HCHDT,106.3,T*2D
20220705 000720+00:00 $GPRMC,000716,A,4816.2198,N,12334.1898,W,6.2,102,050722,11.8,E,A,V*56
20220705 000720+00:00 $WIMWV,245.7,R,1.89,N,A*17
20220705 000722+00:00 $IIMDA,29.9,I,1.014,B,11.5,C,,C,91.7,,,C,,T,,M,,N,,M*26
20220705 000722+00:00 $HCHDT,106.5,T*2B
20220705 000722+00:00 $GPRMC,000718,A,4816.2198,N,12334.1898,W,6.2,102,050722,11.8,E,A,V*58
20220705 000722+00:00 $WIMWV,193.2,R,3.19,N,A*11
20220705 000724+00:00 $IIMDA,29.9,I,1.014,B,11.5,C,,C,91.7,,,C,,T,,M,,N,,M*26
20220705 000724+00:00 $HCHDT,106.1,T*2F
20220705 000724+00:00 $GPRMC,000720,A,4816.2198,N,12334.1796,W,6.2,102,050722,11.8,E,A,V*52
20220705 000724+00:00 $WIMWV,183.99,R,3.69,N,A*25
20220705 000726+00:00 $IIMDA,29.9,I,1.014,B,11.5,C,,C,91.7,,,C,,T,,M,,N,,M*26
20220705 000726+00:00 $HCHDT,105.9,T*24
20220705 000726+00:00 $GPRMC,000722,A,4816.2096,N,12334.1796,W,6.2,102,050722,11.8,E,A,V*5F
20220705 000726+00:00 $WIMWV,214.89,R,3.69,N,A*29
20220705 000728+00:00 $IIMDA,29.9,I,1.014,B,11.5,C,,C,91.8,,,C,,T,,M,,N,,M*29
20220705 000728+00:00 $HCHDT,106.2,T*2C
20220705 000728+00:00 $GPRMC,000724,A,4816.2096,N,12334.1700,W,6.2,102,050722,11.8,E,A,V*56
20220705 000728+00:00 $WIMWV,219.49,R,2.9,N,A*1F
20220705 000730+00:00 $IIMDA,29.9,I,1.014,B,11.5,C,,C,91.8,,,C,,T,,M,,N,,M*29
20220705 000730+00:00 $HCHDT,106.2,T*2C
20220705 000730+00:00 $GPRMC,000726,A,4816.2096,N,12334.1700,W,6.2,102,050722,11.8,E,A,V*54
20220705 000730+00:00 $WIMWV,222.39,R,2.59,N,A*25
20220705 000732+00:00 $IIMDA,29.9,I,1.014,B,11.5,C,,C,91.8,,,C,,T,,M,,N,,M*29
20220705 000732+00:00 $HCHDT,105.5,T*28
20220705 000732+00:00 $GPRMC,000728,A,4816.2096,N,12334.1598,W,6.2,101,050722,11.8,E,A,V*5A
20220705 000732+00:00 $WIMWV,243.79,R,3.5,N,A*1E
20220705 000734+00:00 $IIMDA,29.9,I,1.014,B,11.5,C,,C,91.9,,,C,,T,,M,,N,,M*28
20220705 000734+00:00 $HCHDT,105.5,T*28
20220705 000734+00:00 $GPRMC,000730,A,4816.2096,N,12334.1598,W,6.2,101,050722,11.8,E,A,V*53
20220705 000734+00:00 $WIMWV,230.79,R,2.29,N,A*25
20220705 000736+00:00 $IIMDA,29.9,I,1.014,B,11.5,C,,C,91.9,,,C,,T,,M,,N,,M*28
20220705 000736+00:00 $HCHDT,106,T*30
20220705 000736+00:00 $GPRMC,000732,A,4816.2096,N,12334.1496,W,6.2,101,050722,11.8,E,A,V*5E
20220705 000736+00:00 $WIMWV,228.5,R,2.99,N,A*1C
20220705 000738+00:00 $IIMDA,29.9,I,1.014,B,11.5,C,,C,92,,,C,,T,,M,,N,,M*3C
20220705 000738+00:00 $HCHDT,105.8,T*25
20220705 000738+00:00 $GPRMC,000734,A,4816.2096,N,12334.1496,W,6.2,101,050722,11.8,E,A,V*58
20220705 000738+00:00 $WIMWV,197.29,R,3.09,N,A*2D
20220705 000740+00:00 $IIMDA,29.9,I,1.014,B,11.5,C,,C,92,,,C,,T,,M,,N,,M*3C
20220705 000740+00:00 $HCHDT,105.7,T*2A
20220705 000740+00:00 $GPRMC,000736,A,4816.2096,N,12334.1400,W,6.2,101,050722,11.8,E,A,V*55
20220705 000740+00:00 $WIMWV,220.8,R,3.79,N,A*16
20220705 000742+00:00 $IIMDA,29.9,I,1.014,B,11.5,C,,C,92.1,,,C,,T,,M,,N,,M*23
20220705 000742+00:00 $HCHDT,106.1,T*2F
20220705 000742+00:00 $GPRMC,000738,A,4816.2096,N,12334.1400,W,6.2,101,050722,11.8,E,A,V*5B
20220705 000742+00:00 $WIMWV,203.89,R,2.9,N,A*18
20220705 000744+00:00 $IIMDA,29.9,I,1.014,B,11.5,C,,C,92,,,C,,T,,M,,N,,M*3C
