20220705 070001+00:00 $IIMDA,29.9,I,1.013,B,13.6,C,,C,88,,,C,,T,,M,,N,,M*31
20220705 070001+00:00 $HCHDT,313.2,T*2A
20220705 070001+00:00 $GPRMC,065956,A,4857.4998,N,12309.7596,W,5.79,311,050722,11.8,E,A,V*60
20220705 070001+00:00 $WIMWV,3,R,4.78,N,A*05
20220705 070003+00:00 $IIMDA,29.9,I,1.013,B,13.6,C,,C,88,,,C,,T,,M,,N,,M*31
20220705 070003+00:00 $HCHDT,313.3,T*2B
20220705 070003+00:00 $GPRMC,065958,A,4857.4998,N,12309.7596,W,5.79,311,050722,11.8,E,A,V*6E
20220705 070003+00:00 $WIMWV,355.09,R,4.59,N,A*21
20220705 070005+00:00 $IIMDA,29.9,I,1.013,B,13.6,C,,C,88,,,C,,T,,M,,N,,M*31
20220705 070005+00:00 $HCHDT,313.6,T*2E
20220705 070005+00:00 $GPRMC,070000,A,4857.4998,N,12309.7596,W,5.79,311,050722,11.8,E,A,V*6E
20220705 070005+00:00 $WIMWV,351.89,R,5.89,N,A*21
20220705 070007+00:00 $IIMDA,29.9,I,1.013,B,13.6,C,,C,88,,,C,,T,,M,,N,,M*31
20220705 070007+00:00 $HCHDT,313.7,T*2F
20220705 070007+00:00 $GPRMC,070002,A,4857.5100,N,12309.7698,W,5.79,312,050722,11.8,E,A,V*6A
20220705 070007+00:00 $WIMWV,350.39,R,5,N,A*04
20220705 070009+00:00 $IIMDA,29.9,I,1.013,B,13.6,C,,C,88,,,C,,T,,M,,N,,M*31
20220705 070009+00:00 $HCHDT,314.3,T*2C
20220705 070009+00:00 $GPRMC,070004,A,4857.5100,N,12309.7698,W,5.79,312,050722,11.8,E,A,V*6C
20220705 070009+00:00 $WIMWV,352.09,R,5.29,N,A*20
20220705 070011+00:00 $IIMDA,29.9,I,1.013,B,13.6,C,,C,88,,,C,,T,,M,,N,,M*31
20220705 070011+00:00 $HCHDT,315.1,T*2F
20220705 070011+00:00 $GPRMC,070006,A,4857.5100,N,12309.7698,W,5.79,312,050722,11.8,E,A,V*6E
20220705 070011+00:00 $WIMWV,1.8,R,4.08,N,A*16
20220705 070013+00:00 $IIMDA,29.9,I,1.013,B,13.6,C,,C,88,,,C,,T,,M,,N,,M*31
20220705 070013+00:00 $HCHDT,315.7,T*29
20220705 070013+00:00 $GPRMC,070008,A,4857.5100,N,12309.7800,W,5.79,313,050722,11.8,E,A,V*6E
20220705 070013+00:00 $WIMWV,337.39,R,5.29,N,A*20
20220705 070015+00:00 $IIMDA,29.9,I,1.013,B,13.6,C,,C,88,,,C,,T,,M,,N,,M*31
20220705 070015+00:00 $HCHDT,316.3,T*2E
20220705 070015+00:00 $GPRMC,070010,A,4857.5100,N,12309.7800,W,5.79,313,050722,11.8,E,A,V*67
20220705 070015+00:00 $WIMWV,342.99,R,4.08,N,A*2A
20220705 070017+00:00 $IIMDA,29.9,I,1.013,B,13.6,C,,C,88,,,C,,T,,M,,N,,M*31
20220705 070017+00:00 $HCHDT,316.7,T*2A
20220705 070017+00:00 $GPRMC,070012,A,4857.5196,N,12309.7896,W,5.79,314,050722,11.8,E,A,V*62
20220705 070017+00:00 $WIMWV,349.19,R,4.49,N,A*2C
20220705 070019+00:00 $IIMDA,29.9,I,1.013,B,13.6,C,,C,88,,,C,,T,,M,,N,,M*31
20220705 070019+00:00 $HCHDT,317.1,T*2D
20220705 070019+00:00 $GPRMC,070014,A,4857.5196,N,12309.7896,W,5.79,314,050722,11.8,E,A,V*64
20220705 070019+00:00 $WIMWV,350.99,R,4.2,N,A*13
20220705 070021+00:00 $IIMDA,29.9,I,1.013,B,13.6,C,,C,88,,,C,,T,,M,,N,,M*31
20220705 070021+00:00 $HCHDT,317.3,T*2F
20220705 070021+00:00 $GPRMC,070016,A,4857.5196,N,12309.7896,W,5.79,315,050722,11.8,E,A,V*67
20220705 070021+00:00 $WIMWV,354.69,R,2.68,N,A*22
20220705 070023+00:00 $IIMDA,29.9,I,1.013,B,13.6,C,,C,88,,,C,,T,,M,,N,,M*31
20220705 070023+00:00 $HCHDT,317.4,T*28
20220705 070023+00:00 $GPRMC,070018,A,4857.5196,N,12309.7998,W,5.79,316,050722,11.8,E,A,V*65
20220705 070023+00:00 $WIMWV,353.49,R,5.19,N,A*26
20220705 070025+00:00 $IIMDA,29.9,I,1.013,B,13.6,C,,C,88,,,C,,T,,M,,N,,M*31
20220705 070025+00:00 $HCHDT,317.3,T*2F
20220705 070025+00:00 $GPRMC,070020,A,4857.5298,N,12309.7998,W,5.79,316,050722,11.8,E,A,V*63
20220705 070025+00:00 $WIMWV,353.39,R,5.19,N,A*21
20220705 070027+00:00 $IIMDA,29.9,I,1.013,B,13.6,C,,C,88,,,C,,T,,M,,N,,M*31
20220705 070027+00:00 $HCHDT,317.3,T*2F
20220705 070027+00:00 $GPRMC,070022,A,4857.5298,N,12309.7998,W,5.79,316,050722,11.8,E,A,V*61
20220705 070027+00:00 $WIMWV,353.49,R,3.98,N,A*29
20220705 070029+00:00 $IIMDA,29.9,I,1.013,B,13.6,C,,C,88,,,C,,T,,M,,N,,M*31
20220705 070029+00:00 $HCHDT,317.1,T*2D
20220705 070029+00:00 $GPRMC,070024,A,4857.5298,N,12309.8100,W,5.79,316,050722,11.8,E,A,V*61
20220705 070029+00:00 $WIMWV,336.79,R,4.59,N,A*23
20220705 070031+00:00 $IIMDA,29.9,I,1.013,B,13.6,C,,C,88,,,C,,T,,M,,N,,M*31
20220705 070031+00:00 $HCHDT,317,T*32
20220705 070031+00:00 $GPRMC,070026,A,4857.5298,N,12309.8100,W,5.91,317,050722,11.8,E,A,V*64
20220705 070031+00:00 $WIMWV,349.59,R,3.89,N,A*23
20220705 070033+00:00 $IIMDA,29.9,I,1.013,B,13.6,C,,C,88.1,,,C,,T,,M,,N,,M*2E
20220705 070033+00:00 $HCHDT,316.9,T*24
20220705 070033+00:00 $GPRMC,070028,A,4857.5400,N,12309.8100,W,5.91,317,050722,11.8,E,A,V*6D
20220705 070033+00:00 $WIMWV,335.89,R,3.29,N,A*2F
20220705 070035+00:00 $IIMDA,29.9,I,1.013,B,13.6,C,,C,88,,,C,,T,,M,,N,,M*31
20220705 070035+00:00 $HCHDT,316.8,T*25
20220705 070035+00:00 $GPRMC,070030,A,4857.5400,N,12309.8196,W,5.91,317,050722,11.8,E,A,V*6B
20220705 070035+00:00 $WIMWV,350.79,R,4.2,N,A*1D
20220705 070037+00:00 $IIMDA,29.9,I,1.013,B,13.6,C,,C,88.1,,,C,,T,,M,,N,,M*2E
20220705 070037+00:00 $HCHDT,316.6,T*2B
20220705 070037+00:00 $GPRMC,070032,A,4857.5400,N,12309.8196,W,5.91,317,050722,11.8,E,A,V*69
20220705 070037+00:00 $WIMWV,339.49,R,3.19,N,A*2C
20220705 070039+00:00 $IIMDA,29.9,I,1.013,B,13.6,C,,C,88,,,C,,T,,M,,N,,M*31
20220705 070039+00:00 $HCHDT,316.3,T*2E
20220705 070039+00:00 $GPRMC,070034,A,4857.5400,N,12309.8196,W,5.91,316,050722,11.8,E,A,V*6E
20220705 070039+00:00 $WIMWV,351.79,R,5,N,A*01
20220705 070041+00:00 $IIMDA,29.9,I,1.013,B,13.6,C,,C,88.1,,,C,,T,,M,,N,,M*2E
20220705 070041+00:00 $HCHDT,315.8,T*26
20220705 070041+00:00 $GPRMC,070036,A,4857.5496,N,12309.8298,W,5.91,316,050722,11.8,E,A,V*6E
20220705 070041+00:00 $WIMWV,350.99,R,3.69,N,A*29
20220705 070043+00:00 $IIMDA,29.9,I,1.013,B,13.6,C,,C,88.1,,,C,,T,,M,,N,,M*2E
20220705 070043+00:00 $HCHDT,315.4,T*2A
20220705 070043+00:00 $GPRMC,070038,A,4857.5496,N,12309.8298,W,5.91,316,050722,11.8,E,A,V*60
20220705 070043+00:00 $WIMWV,357.49,R,6.08,N,A*21
20220705 070045+00:00 $IIMDA,29.9,I,1.013,B,13.6,C,,C,88.1,,,C,,T,,M,,N,,M*2E
20220705 070045+00:00 $HCHDT,315,T*30
20220705 070045+00:00 $GPRMC,070040,A,4857.5496,N,12309.8298,W,5.91,316,050722,11.8,E,A,V*6F
20220705 070045+00:00 $WIMWV,355.49,R,5.7,N,A*1F
20220705 070047+00:00 $IIMDA,29.9,I,1.013,B,13.6,C,,C,88.1,,,C,,T,,M,,N,,M*2E
20220705 070047+00:00 $HCHDT,314.5,T*2A
20220705 070047+00:00 $GPRMC,070042,A,4857.5496,N,12309.8400,W,5.91,315,050722,11.8,E,A,V*69
20220705 070047+00:00 $WIMWV,353.39,R,6.49,N,A*27
20220705 070049+00:00 $IIMDA,29.9,I,1.013,B,13.6,C,,C,88.1,,,C,,T,,M,,N,,M*2E
20220705 070049+00:00 $HCHDT,314,T*31
20220705 070049+00:00 $GPRMC,070044,A,4857.5496,N,12309.8400,W,5.91,315,050722,11.8,E,A,V*6F
20220705 070049+00:00 $WIMWV,355.19,R,4.9,N,A*15
20220705 070051+00:00 $IIMDA,29.9,I,1.013,B,13.6,C,,C,88.1,,,C,,T,,M,,N,,M*2E
20220705 070051+00:00 $HCHDT,313.8,T*20
20220705 070051+00:00 $GPRMC,070046,A,4857.5598,N,12309.8400,W,5.91,315,050722,11.8,E,A,V*62
20220705 070051+00:00 $WIMWV,353.99,R,5.38,N,A*28
20220705 070053+00:00 $IIMDA,29.9,I,1.013,B,13.6,C,,C,88.1,,,C,,T,,M,,N,,M*2E
20220705 070053+00:00 $HCHDT,313.6,T*2E
20220705 070053+00:00 $GPRMC,070048,A,4857.5598,N,12309.8496,W,5.91,314,050722,11.8,E,A,V*62
20220705 070053+00:00 $WIMWV,358.09,R,5.29,N,A*2A
20220705 070055+00:00 $IIMDA,29.9,I,1.013,B,13.6,C,,C,88.1,,,C,,T,,M,,N,,M*2E
20220705 070055+00:00 $HCHDT,313.5,T*2D
20220705 070055+00:00 $GPRMC,070050,A,4857.5598,N,12309.8496,W,5.91,314,050722,11.8,E,A,V*6B
20220705 070055+00:00 $WIMWV,355.59,R,3.6,N,A*19
20220705 070057+00:00 $IIMDA,29.9,I,1.013,B,13.6,C,,C,88.1,,,C,,T,,M,,N,,M*2E
20220705 070057+00:00 $HCHDT,313.5,T*2D
20220705 070057+00:00 $GPRMC,070052,A,4857.5598,N,12309.8598,W,5.91,314,050722,11.8,E,A,V*66
20220705 070057+00:00 $WIMWV,354.09,R,5.6,N,A*1B
20220705 070059+00:00 $IIMDA,29.9,I,1.013,B,13.6,C,,C,88.1,,,C,,T,,M,,N,,M*2E
20220705 070059+00:00 $HCHDT,313.4,T*2C
20220705 070059+00:00 $GPRMC,070054,A,4857.5700,N,12309.8598,W,5.91,313,050722,11.8,E,A,V*64
20220705 070059+00:00 $WIMWV,354.29,R,5.09,N,A*26
20220705 070101+00:00 $IIMDA,29.9,I,1.013,B,13.6,C,,C,88.1,,,C,,T,,M,,N,,M*2E
20220705 070101+00:00 $HCHDT,313.2,T*2A
20220705 070101+00:00 $GPRMC,070056,A,4857.5700,N,12309.8598,W,5.91,313,050722,11.8,E,A,V*66
20220705 070101+00:00 $WIMWV,353.09,R,5.6,N,A*1C
20220705 070103+00:00 $IIMDA,29.9,I,1.013,B,13.6,C,,C,88.1,,,C,,T,,M,,N,,M*2E
20220705 070103+00:00 $HCHDT,313.1,T*29
20220705 070103+00:00 $GPRMC,070058,A,4857.5700,N,12309.8700,W,5.91,313,050722,11.8,E,A,V*6B
20220705 070103+00:00 $WIMWV,356.29,R,4.3,N,A*1F
20220705 070105+00:00 $IIMDA,29.9,I,1.013,B,13.6,C,,C,88.2,,,C,,T,,M,,N,,M*2D
20220705 070105+00:00 $HCHDT,312.8,T*21
20220705 070105+00:00 $GPRMC,070100,A,4857.5700,N,12309.8700,W,5.91,313,050722,11.8,E,A,V*67
20220705 070105+00:00 $WIMWV,353.79,R,5.48,N,A*21
20220705 070107+00:00 $IIMDA,29.9,I,1.013,B,13.6,C,,C,88.2,,,C,,T,,M,,N,,M*2D
20220705 070107+00:00 $HCHDT,312.7,T*2E
20220705 070107+00:00 $GPRMC,070102,A,4857.5700,N,12309.8700,W,5.91,313,050722,11.8,E,A,V*65
20220705 070107+00:00 $WIMWV,352.69,R,4.78,N,A*23
20220705 070109+00:00 $IIMDA,29.9,I,1.013,B,13.6,C,,C,88.1,,,C,,T,,M,,N,,M*2E
20220705 070109+00:00 $HCHDT,312.5,T*2C
20220705 070109+00:00 $GPRMC,070104,A,4857.5796,N,12309.8796,W,5.91,313,050722,11.8,E,A,V*63
20220705 070109+00:00 $WIMWV,357.89,R,4.68,N,A*29
20220705 070111+00:00 $IIMDA,29.9,I,1.013,B,13.6,C,,C,88.2,,,C,,T,,M,,N,,M*2D
20220705 070111+00:00 $HCHDT,312.3,T*2A
20220705 070111+00:00 $GPRMC,070106,A,4857.5796,N,12309.8796,W,5.91,313,050722,11.8,E,A,V*61
20220705 070111+00:00 $WIMWV,343.39,R,4.9,N,A*10
20220705 070113+00:00 $IIMDA,29.9,I,1.013,B,13.6,C,,C,88.2,,,C,,T,,M,,N,,M*2D
20220705 070113+00:00 $HCHDT,312.3,T*2A
20220705 070113+00:00 $GPRMC,070108,A,4857.5796,N,12309.8796,W,5.91,312,050722,11.8,E,A,V*6E
20220705 070113+00:00 $WIMWV,357.39,R,3.98,N,A*2A
20220705 070115+00:00 $IIMDA,29.9,I,1.013,B,13.6,C,,C,88.3,,,C,,T,,M,,N,,M*2C
20220705 070115+00:00 $HCHDT,312.3,T*2A
20220705 070115+00:00 $GPRMC,070110,A,4857.5796,N,12309.8898,W,5.79,312,050722,11.8,E,A,V*60
20220705 070115+00:00 $WIMWV,355.99,R,4.68,N,A*2A
20220705 070117+00:00 $IIMDA,29.9,I,1.013,B,13.6,C,,C,88.2,,,C,,T,,M,,N,,M*2D
20220705 070117+00:00 $HCHDT,312.3,T*2A
20220705 070117+00:00 $GPRMC,070112,A,4857.5898,N,12309.8898,W,5.79,312,050722,11.8,E,A,V*63
20220705 070117+00:00 $WIMWV,351.89,R,4.49,N,A*2C
20220705 070119+00:00 $IIMDA,29.9,I,1.013,B,13.6,C,,C,88.3,,,C,,T,,M,,N,,M*2C
20220705 070119+00:00 $HCHDT,312.4,T*2D
20220705 070119+00:00 $GPRMC,070114,A,4857.5898,N,12309.9000,W,5.79,312,050722,11.8,E,A,V*6D
20220705 070119+00:00 $WIMWV,352.49,R,5.89,N,A*2E
20220705 070121+00:00 $IIMDA,29.9,I,1.013,B,13.6,C,,C,88.2,,,C,,T,,M,,N,,M*2D
20220705 070121+00:00 $HCHDT,312.4,T*2D
20220705 070121+00:00 $GPRMC,070116,A,4857.5898,N,12309.9000,W,5.79,311,050722,11.8,E,A,V*6C
20220705 070121+00:00 $WIMWV,353.89,R,3.5,N,A*11
20220705 070123+00:00 $IIMDA,29.9,I,1.013,B,13.6,C,,C,88.3,,,C,,T,,M,,N,,M*2C
20220705 070123+00:00 $HCHDT,312.3,T*2A
20220705 070123+00:00 $GPRMC,070118,A,4857.5898,N,12309.9000,W,5.79,311,050722,11.8,E,A,V*62
20220705 070123+00:00 $WIMWV,358.29,R,5.09,N,A*2A
20220705 070125+00:00 $IIMDA,29.9,I,1.013,B,13.6,C,,C,88.3,,,C,,T,,M,,N,,M*2C
20220705 070125+00:00 $HCHDT,312.1,T*28
20220705 070125+00:00 $GPRMC,070120,A,4857.5898,N,12309.9096,W,5.79,311,050722,11.8,E,A,V*66
20220705 070125+00:00 $WIMWV,350.99,R,5.89,N,A*21
20220705 070127+00:00 $IIMDA,29.9,I,1.013,B,13.6,C,,C,88.3,,,C,,T,,M,,N,,M*2C
20220705 070127+00:00 $HCHDT,312.1,T*28
20220705 070127+00:00 $GPRMC,070122,A,4857.6000,N,12309.9096,W,5.79,311,050722,11.8,E,A,V*6E
20220705 070127+00:00 $WIMWV,352.09,R,5.79,N,A*25
20220705 070129+00:00 $IIMDA,29.9,I,1.013,B,13.6,C,,C,88.3,,,C,,T,,M,,N,,M*2C
20220705 070129+00:00 $HCHDT,312.1,T*28
20220705 070129+00:00 $GPRMC,070124,A,4857.6000,N,12309.9096,W,5.79,311,050722,11.8,E,A,V*68
20220705 070129+00:00 $WIMWV,354.59,R,5,N,A*06
20220705 070131+00:00 $IIMDA,29.9,I,1.013,B,13.6,C,,C,88.3,,,C,,T,,M,,N,,M*2C
20220705 070131+00:00 $HCHDT,312.2,T*2B
20220705 070131+00:00 $GPRMC,070126,A,4857.6000,N,12309.9198,W,5.7,311,050722,11.8,E,A,V*5C
20220705 070131+00:00 $WIMWV,356.39,R,4.9,N,A*14
20220705 070133+00:00 $IIMDA,29.9,I,1.013,B,13.6,C,,C,88.3,,,C,,T,,M,,N,,M*2C
20220705 070133+00:00 $HCHDT,312.4,T*2D
20220705 070133+00:00 $GPRMC,070128,A,4857.6000,N,12309.9198,W,5.7,311,050722,11.8,E,A,V*52
20220705 070133+00:00 $WIMWV,352.29,R,4.68,N,A*26
20220705 070135+00:00 $IIMDA,29.9,I,1.013,B,13.6,C,,C,88.3,,,C,,T,,M,,N,,M*2C
20220705 070135+00:00 $HCHDT,312.7,T*2E
20220705 070135+00:00 $GPRMC,070130,A,4857.6000,N,12309.9198,W,5.7,311,050722,11.8,E,A,V*5B
20220705 070135+00:00 $WIMWV,349.79,R,4.49,N,A*2A
20220705 070137+00:00 $IIMDA,29.9,I,1.013,B,13.6,C,,C,88.3,,,C,,T,,M,,N,,M*2C
20220705 070137+00:00 $HCHDT,312.9,T*20
20220705 070137+00:00 $GPRMC,070132,A,4857.6096,N,12309.9300,W,5.7,311,050722,11.8,E,A,V*55
20220705 070137+00:00 $WIMWV,352.09,R,4.39,N,A*20
20220705 070139+00:00 $IIMDA,29.9,I,1.013,B,13.6,C,,C,88.4,,,C,,T,,M,,N,,M*2B
20220705 070139+00:00 $HCHDT,313,T*36
20220705 070139+00:00 $GPRMC,070134,A,4857.6096,N,12309.9300,W,5.7,311,050722,11.8,E,A,V*53
20220705 070139+00:00 $WIMWV,351.39,R,4.39,N,A*20
20220705 070141+00:00 $IIMDA,29.9,I,1.013,B,13.6,C,,C,88.4,,,C,,T,,M,,N,,M*2B
20220705 070141+00:00 $HCHDT,313,T*36
20220705 070141+00:00 $GPRMC,070136,A,4857.6096,N,12309.9396,W,5.7,311,050722,11.8,E,A,V*5E
20220705 070141+00:00 $WIMWV,0.19,R,4.49,N,A*22
20220705 070143+00:00 $IIMDA,29.9,I,1.013,B,13.6,C,,C,88.4,,,C,,T,,M,,N,,M*2B
20220705 070143+00:00 $HCHDT,313,T*36
20220705 070143+00:00 $GPRMC,070138,A,4857.6096,N,12309.9396,W,5.7,311,050722,11.8,E,A,V*50
20220705 070143+00:00 $WIMWV,358.19,R,3.98,N,A*27
20220705 070145+00:00 $IIMDA,29.9,I,1.013,B,13.6,C,,C,88.4,,,C,,T,,M,,N,,M*2B
20220705 070145+00:00 $HCHDT,313.1,T*29
20220705 070145+00:00 $GPRMC,070140,A,4857.6096,N,12309.9396,W,5.7,311,050722,11.8,E,A,V*5F
20220705 070145+00:00 $WIMWV,349.29,R,3.38,N,A*2E
20220705 070147+00:00 $IIMDA,29.9,I,1.013,B,13.6,C,,C,88.4,,,C,,T,,M,,N,,M*2B
20220705 070147+00:00 $HCHDT,313.2,T*2A
20220705 070147+00:00 $GPRMC,070142,A,4857.6198,N,12309.9498,W,5.7,311,050722,11.8,E,A,V*5B
20220705 070147+00:00 $WIMWV,335.69,R,2.39,N,A*21
20220705 070149+00:00 $IIMDA,29.9,I,1.013,B,13.6,C,,C,88.4,,,C,,T,,M,,N,,M*2B
20220705 070149+00:00 $HCHDT,313.4,T*2C
20220705 070149+00:00 $GPRMC,070144,A,4857.6198,N,12309.9498,W,5.7,312,050722,11.8,E,A,V*5E
20220705 070149+00:00 $WIMWV,351.69,R,5.7,N,A*19
20220705 070151+00:00 $IIMDA,29.9,I,1.013,B,13.6,C,,C,88.5,,,C,,T,,M,,N,,M*2A
20220705 070151+00:00 $HCHDT,313.4,T*2C
20220705 070151+00:00 $GPRMC,070146,A,4857.6198,N,12309.9498,W,5.7,312,050722,11.8,E,A,V*5C
20220705 070151+00:00 $WIMWV,354.49,R,4.59,N,A*24
20220705 070153+00:00 $IIMDA,29.9,I,1.013,B,13.6,C,,C,88.5,,,C,,T,,M,,N,,M*2A
20220705 070153+00:00 $HCHDT,313.4,T*2C
20220705 070153+00:00 $GPRMC,070148,A,4857.6198,N,12309.9600,W,5.7,312,050722,11.8,E,A,V*51
20220705 070153+00:00 $WIMWV,351.09,R,5.6,N,A*1E
20220705 070155+00:00 $IIMDA,29.9,I,1.013,B,13.6,C,,C,88.5,,,C,,T,,M,,N,,M*2A
20220705 070155+00:00 $HCHDT,313.4,T*2C
20220705 070155+00:00 $GPRMC,070150,A,4857.6300,N,12309.9600,W,5.7,312,050722,11.8,E,A,V*5B
20220705 070155+00:00 $WIMWV,354.49,R,3.38,N,A*24
20220705 070157+00:00 $IIMDA,29.9,I,1.013,B,13.6,C,,C,88.5,,,C,,T,,M,,N,,M*2A
20220705 070157+00:00 $HCHDT,313.4,T*2C
20220705 070157+00:00 $GPRMC,070152,A,4857.6300,N,12309.9600,W,5.7,312,050722,11.8,E,A,V*59
20220705 070157+00:00 $WIMWV,353.99,R,5.29,N,A*28
20220705 070159+00:00 $IIMDA,29.9,I,1.013,B,13.6,C,,C,88.5,,,C,,T,,M,,N,,M*2A
20220705 070159+00:00 $HCHDT,313.4,T*2C
20220705 070159+00:00 $GPRMC,070154,A,4857.6300,N,12309.9696,W,5.7,312,050722,11.8,E,A,V*50
20220705 070159+00:00 $WIMWV,356.89,R,3.09,N,A*28
20220705 070201+00:00 $IIMDA,29.9,I,1.013,B,13.6,C,,C,88.5,,,C,,T,,M,,N,,M*2A
20220705 070201+00:00 $HCHDT,313.3,T*2B
20220705 070201+00:00 $GPRMC,070156,A,4857.6300,N,12309.9696,W,5.7,312,050722,11.8,E,A,V*52
20220705 070201+00:00 $WIMWV,356.69,R,5.29,N,A*22
20220705 070203+00:00 $IIMDA,29.9,I,1.013,B,13.6,C,,C,88.5,,,C,,T,,M,,N,,M*2A
20220705 070203+00:00 $HCHDT,313.3,T*2B
20220705 070203+00:00 $GPRMC,070158,A,4857.6300,N,12309.9696,W,5.7,312,050722,11.8,E,A,V*5C
20220705 070203+00:00 $WIMWV,351.69,R,4.2,N,A*1D
20220705 070205+00:00 $IIMDA,29.9,I,1.013,B,13.6,C,,C,88.6,,,C,,T,,M,,N,,M*29
20220705 070205+00:00 $HCHDT,313.3,T*2B
20220705 070205+00:00 $GPRMC,070200,A,4857.6396,N,12309.9798,W,5.79,312,050722,11.8,E,A,V*6B
20220705 070205+00:00 $WIMWV,351.09,R,4.59,N,A*25
20220705 070207+00:00 $IIMDA,29.9,I,1.013,B,13.6,C,,C,88.6,,,C,,T,,M,,N,,M*29
20220705 070207+00:00 $HCHDT,313.2,T*2A
20220705 070207+00:00 $GPRMC,070202,A,4857.6396,N,12309.9798,W,5.79,312,050722,11.8,E,A,V*69
20220705 070207+00:00 $WIMWV,344.59,R,4.2,N,A*1A
20220705 070209+00:00 $IIMDA,29.9,I,1.013,B,13.6,C,,C,88.6,,,C,,T,,M,,N,,M*29
20220705 070209+00:00 $HCHDT,313,T*36
20220705 070209+00:00 $GPRMC,070204,A,4857.6396,N,12309.9900,W,5.79,312,050722,11.8,E,A,V*60
20220705 070209+00:00 $WIMWV,354.59,R,5.38,N,A*23
20220705 070211+00:00 $IIMDA,29.9,I,1.013,B,13.6,C,,C,88.6,,,C,,T,,M,,N,,M*29
20220705 070211+00:00 $HCHDT,312.9,T*20
20220705 070211+00:00 $GPRMC,070206,A,4857.6396,N,12309.9900,W,5.79,312,050722,11.8,E,A,V*62
20220705 070211+00:00 $WIMWV,350.99,R,5.79,N,A*2E
20220705 070213+00:00 $IIMDA,29.9,I,1.013,B,13.6,C,,C,88.7,,,C,,T,,M,,N,,M*28
20220705 070213+00:00 $HCHDT,312.6,T*2F
20220705 070213+00:00 $GPRMC,070208,A,4857.6396,N,12309.9900,W,5.79,312,050722,11.8,E,A,V*6C
20220705 070213+00:00 $WIMWV,356.19,R,6.3,N,A*1E
20220705 070215+00:00 $IIMDA,29.9,I,1.013,B,13.6,C,,C,88.6,,,C,,T,,M,,N,,M*29
20220705 070215+00:00 $HCHDT,312.3,T*2A
20220705 070215+00:00 $GPRMC,070210,A,4857.6498,N,12309.9996,W,5.79,312,050722,11.8,E,A,V*63
20220705 070215+00:00 $WIMWV,349.19,R,4.3,N,A*12
20220705 070217+00:00 $IIMDA,29.9,I,1.013,B,13.6,C,,C,88.7,,,C,,T,,M,,N,,M*28
20220705 070217+00:00 $HCHDT,312,T*37
20220705 070217+00:00 $GPRMC,070212,A,4857.6498,N,12309.9996,W,5.79,312,050722,11.8,E,A,V*61
20220705 070217+00:00 $WIMWV,357.19,R,5.29,N,A*24
20220705 070219+00:00 $IIMDA,29.9,I,1.013,B,13.6,C,,C,88.7,,,C,,T,,M,,N,,M*28
20220705 070219+00:00 $HCHDT,311.8,T*22
20220705 070219+00:00 $GPRMC,070214,A,4857.6498,N,12309.9996,W,5.79,312,050722,11.8,E,A,V*67
20220705 070219+00:00 $WIMWV,355.69,R,2.59,N,A*21
20220705 070221+00:00 $IIMDA,29.9,I,1.013,B,13.6,C,,C,88.6,,,C,,T,,M,,N,,M*29
20220705 070221+00:00 $HCHDT,311.6,T*2C
20220705 070221+00:00 $GPRMC,070216,A,4857.6498,N,12310.0098,W,5.79,312,050722,11.8,E,A,V*63
20220705 070221+00:00 $WIMWV,348.59,R,5.29,N,A*2E
20220705 070223+00:00 $IIMDA,29.9,I,1.013,B,13.6,C,,C,88.7,,,C,,T,,M,,N,,M*28
20220705 070223+00:00 $HCHDT,311.5,T*2F
20220705 070223+00:00 $GPRMC,070218,A,4857.6498,N,12310.0098,W,5.7,311,050722,11.8,E,A,V*57
20220705 070223+00:00 $WIMWV,357.79,R,4.08,N,A*20
20220705 070225+00:00 $IIMDA,29.9,I,1.013,B,13.6,C,,C,88.7,,,C,,T,,M,,N,,M*28
20220705 070225+00:00 $HCHDT,311.5,T*2F
20220705 070225+00:00 $GPRMC,070220,A,4857.6600,N,12310.0098,W,5.7,311,050722,11.8,E,A,V*5F
20220705 070225+00:00 $WIMWV,351.99,R,5.6,N,A*17
20220705 070227+00:00 $IIMDA,29.9,I,1.013,B,13.6,C,,C,88.7,,,C,,T,,M,,N,,M*28
20220705 070227+00:00 $HCHDT,311.5,T*2F
20220705 070227+00:00 $GPRMC,070222,A,4857.6600,N,12310.0200,W,5.7,311,050722,11.8,E,A,V*5E
20220705 070227+00:00 $WIMWV,358.29,R,4.39,N,A*28
20220705 070229+00:00 $IIMDA,29.9,I,1.013,B,13.6,C,,C,88.7,,,C,,T,,M,,N,,M*28
20220705 070229+00:00 $HCHDT,311.4,T*2E
20220705 070229+00:00 $GPRMC,070224,A,4857.6600,N,12310.0200,W,5.7,311,050722,11.8,E,A,V*58
20220705 070229+00:00 $WIMWV,353.19,R,5.38,N,A*20
20220705 070231+00:00 $IIMDA,29.9,I,1.013,B,13.6,C,,C,88.7,,,C,,T,,M,,N,,M*28
20220705 070231+00:00 $HCHDT,311.4,T*2E
20220705 070231+00:00 $GPRMC,070226,A,4857.6600,N,12310.0296,W,5.7,311,050722,11.8,E,A,V*55
20220705 070231+00:00 $WIMWV,349.59,R,5.09,N,A*2D
20220705 070233+00:00 $IIMDA,29.9,I,1.013,B,13.6,C,,C,88.7,,,C,,T,,M,,N,,M*28
20220705 070233+00:00 $HCHDT,311.4,T*2E
20220705 070233+00:00 $GPRMC,070228,A,4857.6696,N,12310.0296,W,5.7,311,050722,11.8,E,A,V*54
20220705 070233+00:00 $WIMWV,353.49,R,4.39,N,A*25
20220705 070235+00:00 $IIMDA,29.9,I,1.013,B,13.6,C,,C,88.7,,,C,,T,,M,,N,,M*28
20220705 070235+00:00 $HCHDT,311.5,T*2F
20220705 070235+00:00 $GPRMC,070230,A,4857.6696,N,12310.0296,W,5.7,311,050722,11.8,E,A,V*5D
20220705 070235+00:00 $WIMWV,5.6,R,3.19,N,A*1B
20220705 070237+00:00 $IIMDA,29.9,I,1.013,B,13.6,C,,C,88.7,,,C,,T,,M,,N,,M*28
20220705 070237+00:00 $HCHDT,311.6,T*2C
20220705 070237+00:00 $GPRMC,070232,A,4857.6696,N,12310.0398,W,5.7,311,050722,11.8,E,A,V*50
20220705 070237+00:00 $WIMWV,337.79,R,3.98,N,A*28
20220705 070239+00:00 $IIMDA,29.9,I,1.013,B,13.6,C,,C,88.7,,,C,,T,,M,,N,,M*28
20220705 070239+00:00 $HCHDT,311.7,T*2D
20220705 070239+00:00 $GPRMC,070234,A,4857.6696,N,12310.0398,W,5.7,311,050722,11.8,E,A,V*56
20220705 070239+00:00 $WIMWV,354.09,R,5,N,A*03
20220705 070241+00:00 $IIMDA,29.9,I,1.013,B,13.6,C,,C,88.7,,,C,,T,,M,,N,,M*28
20220705 070241+00:00 $HCHDT,311.8,T*22
20220705 070241+00:00 $GPRMC,070236,A,4857.6696,N,12310.0398,W,5.7,311,050722,11.8,E,A,V*54
20220705 070241+00:00 $WIMWV,344.99,R,4.68,N,A*2A
20220705 070243+00:00 $IIMDA,29.9,I,1.013,B,13.6,C,,C,88.7,,,C,,T,,M,,N,,M*28
20220705 070243+00:00 $HCHDT,311.9,T*23
20220705 070243+00:00 $GPRMC,070238,A,4857.6798,N,12310.0500,W,5.7,311,050722,11.8,E,A,V*52
20220705 070243+00:00 $WIMWV,350.79,R,5.6,N,A*18
20220705 070245+00:00 $IIMDA,29.9,I,1.013,B,13.6,C,,C,88.8,,,C,,T,,M,,N,,M*27
20220705 070245+00:00 $HCHDT,312,T*37
20220705 070245+00:00 $GPRMC,070240,A,4857.6798,N,12310.0500,W,5.7,311,050722,11.8,E,A,V*5D
20220705 070245+00:00 $WIMWV,0.19,R,5.19,N,A*26
20220705 070247+00:00 $IIMDA,29.9,I,1.013,B,13.6,C,,C,88.8,,,C,,T,,M,,N,,M*27
20220705 070247+00:00 $HCHDT,312.1,T*28
20220705 070247+00:00 $GPRMC,070242,A,4857.6798,N,12310.0500,W,5.7,311,050722,11.8,E,A,V*5F
20220705 070247+00:00 $WIMWV,349.89,R,5,N,A*07
20220705 070249+00:00 $IIMDA,29.9,I,1.013,B,13.6,C,,C,88.8,,,C,,T,,M,,N,,M*27
20220705 070249+00:00 $HCHDT,312.2,T*2B
20220705 070249+00:00 $GPRMC,070244,A,4857.6798,N,12310.0596,W,5.7,311,050722,11.8,E,A,V*56
20220705 070249+00:00 $WIMWV,355.69,R,5.99,N,A*2A
20220705 070251+00:00 $IIMDA,29.9,I,1.013,B,13.6,C,,C,88.8,,,C,,T,,M,,N,,M*27
20220705 070251+00:00 $HCHDT,312.2,T*2B
20220705 070251+00:00 $GPRMC,070246,A,4857.6798,N,12310.0596,W,5.7,311,050722,11.8,E,A,V*54
20220705 070251+00:00 $WIMWV,354.29,R,4.59,N,A*22
20220705 070253+00:00 $IIMDA,29.9,I,1.013,B,13.6,C,,C,88.8,,,C,,T,,M,,N,,M*27
20220705 070253+00:00 $HCHDT,312.3,T*2A
20220705 070253+00:00 $GPRMC,070248,A,4857.6900,N,12310.0698,W,5.7,311,050722,11.8,E,A,V*58
20220705 070253+00:00 $WIMWV,353.49,R,3.6,N,A*1E
20220705 070255+00:00 $IIMDA,29.9,I,1.013,B,13.6,C,,C,88.9,,,C,,T,,M,,N,,M*26
20220705 070255+00:00 $HCHDT,312.3,T*2A
20220705 070255+00:00 $GPRMC,070250,A,4857.6900,N,12310.0698,W,5.7,311,050722,11.8,E,A,V*51
20220705 070255+00:00 $WIMWV,342.29,R,3.79,N,A*20
20220705 070257+00:00 $IIMDA,29.9,I,1.013,B,13.6,C,,C,88.9,,,C,,T,,M,,N,,M*26
20220705 070257+00:00 $HCHDT,312.4,T*2D
20220705 070257+00:00 $GPRMC,070252,A,4857.6900,N,12310.0698,W,5.6,311,050722,11.8,E,A,V*52
20220705 070257+00:00 $WIMWV,4.1,R,4.3,N,A*21
20220705 070259+00:00 $IIMDA,29.9,I,1.013,B,13.6,C,,C,88.9,,,C,,T,,M,,N,,M*26
20220705 070259+00:00 $HCHDT,312.5,T*2C
20220705 070259+00:00 $GPRMC,070254,A,4857.6900,N,12310.0800,W,5.6,311,050722,11.8,E,A,V*5B
20220705 070259+00:00 $WIMWV,351.39,R,4.08,N,A*22
20220705 070301+00:00 $IIMDA,29.9,I,1.013,B,13.6,C,,C,88.9,,,C,,T,,M,,N,,M*26
20220705 070301+00:00 $HCHDT,312.6,T*2F
20220705 070301+00:00 $GPRMC,070256,A,4857.6900,N,12310.0800,W,5.6,311,050722,11.8,E,A,V*59
20220705 070301+00:00 $WIMWV,351.59,R,5.09,N,A*24
20220705 070303+00:00 $IIMDA,29.9,I,1.013,B,13.6,C,,C,88.9,,,C,,T,,M,,N,,M*26
20220705 070303+00:00 $HCHDT,312.6,T*2F
20220705 070303+00:00 $GPRMC,070258,A,4857.6996,N,12310.0800,W,5.6,311,050722,11.8,E,A,V*58
20220705 070303+00:00 $WIMWV,354.69,R,4.9,N,A*13
20220705 070305+00:00 $IIMDA,29.9,I,1.013,B,13.6,C,,C,88.9,,,C,,T,,M,,N,,M*26
20220705 070305+00:00 $HCHDT,312.6,T*2F
20220705 070305+00:00 $GPRMC,070300,A,4857.6996,N,12310.0896,W,5.6,311,050722,11.8,E,A,V*5B
20220705 070305+00:00 $WIMWV,352.29,R,5.29,N,A*22
20220705 070307+00:00 $IIMDA,29.9,I,1.013,B,13.6,C,,C,88.9,,,C,,T,,M,,N,,M*26
20220705 070307+00:00 $HCHDT,312.6,T*2F
20220705 070307+00:00 $GPRMC,070302,A,4857.6996,N,12310.0896,W,5.6,311,050722,11.8,E,A,V*59
20220705 070307+00:00 $WIMWV,355.89,R,5.7,N,A*13
20220705 070309+00:00 $IIMDA,29.9,I,1.013,B,13.6,C,,C,88.9,,,C,,T,,M,,N,,M*26
20220705 070309+00:00 $HCHDT,312.6,T*2F
20220705 070309+00:00 $GPRMC,070304,A,4857.6996,N,12310.0896,W,5.6,311,050722,11.8,E,A,V*5F
20220705 070309+00:00 $WIMWV,356.89,R,5.79,N,A*29
20220705 070311+00:00 $IIMDA,29.9,I,1.013,B,13.6,C,,C,88.9,,,C,,T,,M,,N,,M*26
20220705 070311+00:00 $HCHDT,312.5,T*2C
20220705 070311+00:00 $GPRMC,070306,A,4857.6996,N,12310.0998,W,5.7,311,050722,11.8,E,A,V*53
20220705 070311+00:00 $WIMWV,356.29,R,4.3,N,A*1F
20220705 070313+00:00 $IIMDA,29.9,I,1.013,B,13.6,C,,C,89,,,C,,T,,M,,N,,M*30
20220705 070313+00:00 $HCHDT,312.6,T*2F
20220705 070313+00:00 $GPRMC,070308,A,4857.7098,N,12310.0998,W,5.6,311,050722,11.8,E,A,V*5A
20220705 070313+00:00 $WIMWV,351.09,R,5,N,A*06
20220705 070315+00:00 $IIMDA,29.9,I,1.013,B,13.6,C,,C,88.9,,,C,,T,,M,,N,,M*26
20220705 070315+00:00 $HCHDT,312.7,T*2E
20220705 070315+00:00 $GPRMC,070310,A,4857.7098,N,12310.0998,W,5.6,311,050722,11.8,E,A,V*53
20220705 070315+00:00 $WIMWV,350.39,R,5.09,N,A*23
20220705 070317+00:00 $IIMDA,29.9,I,1.013,B,13.6,C,,C,89,,,C,,T,,M,,N,,M*30
20220705 070317+00:00 $HCHDT,312.6,T*2F
20220705 070317+00:00 $GPRMC,070312,A,4857.7098,N,12310.1100,W,5.6,311,050722,11.8,E,A,V*59
20220705 070317+00:00 $WIMWV,351.79,R,5.79,N,A*21
20220705 070319+00:00 $IIMDA,29.9,I,1.013,B,13.6,C,,C,89,,,C,,T,,M,,N,,M*30
20220705 070319+00:00 $HCHDT,312.6,T*2F
20220705 070319+00:00 $GPRMC,070314,A,4857.7098,N,12310.1100,W,5.6,311,050722,11.8,E,A,V*5F
20220705 070319+00:00 $WIMWV,352.49,R,4.59,N,A*22
20220705 070321+00:00 $IIMDA,29.9,I,1.013,B,13.6,C,,C,89,,,C,,T,,M,,N,,M*30
20220705 070321+00:00 $HCHDT,312.4,T*2D
20220705 070321+00:00 $GPRMC,070316,A,4857.7098,N,12310.1196,W,5.6,311,050722,11.8,E,A,V*52
20220705 070321+00:00 $WIMWV,354.19,R,5.6,N,A*1A
20220705 070323+00:00 $IIMDA,29.9,I,1.013,B,13.6,C,,C,88.9,,,C,,T,,M,,N,,M*26
20220705 070323+00:00 $HCHDT,312.1,T*28
20220705 070323+00:00 $GPRMC,070318,A,4857.7200,N,12310.1196,W,5.6,311,050722,11.8,E,A,V*5F
20220705 070323+00:00 $WIMWV,353.19,R,4.9,N,A*13
20220705 070325+00:00 $IIMDA,29.9,I,1.013,B,13.6,C,,C,88.9,,,C,,T,,M,,N,,M*26
20220705 070325+00:00 $HCHDT,311.6,T*2C
20220705 070325+00:00 $GPRMC,070320,A,4857.7200,N,12310.1196,W,5.6,311,050722,11.8,E,A,V*54
20220705 070325+00:00 $WIMWV,357.59,R,5.19,N,A*23
20220705 070327+00:00 $IIMDA,29.9,I,1.013,B,13.6,C,,C,88.9,,,C,,T,,M,,N,,M*26
20220705 070327+00:00 $HCHDT,311.3,T*29
20220705 070327+00:00 $GPRMC,070322,A,4857.7200,N,12310.1298,W,5.6,311,050722,11.8,E,A,V*5B
20220705 070327+00:00 $WIMWV,350.89,R,5.79,N,A*2F
20220705 070329+00:00 $IIMDA,29.9,I,1.013,B,13.5,C,,C,88.9,,,C,,T,,M,,N,,M*25
20220705 070329+00:00 $HCHDT,311,T*34
20220705 070329+00:00 $GPRMC,070324,A,4857.7200,N,12310.1298,W,5.6,311,050722,11.8,E,A,V*5D
20220705 070329+00:00 $WIMWV,358.49,R,5.38,N,A*2E
20220705 070331+00:00 $IIMDA,29.9,I,1.013,B,13.5,C,,C,88.9,,,C,,T,,M,,N,,M*25
20220705 070331+00:00 $HCHDT,310.9,T*22
20220705 070331+00:00 $GPRMC,070326,A,4857.7200,N,12310.1298,W,5.6,310,050722,11.8,E,A,V*5E
20220705 070331+00:00 $WIMWV,350.59,R,5.79,N,A*22
20220705 070333+00:00 $IIMDA,29.9,I,1.013,B,13.5,C,,C,88.9,,,C,,T,,M,,N,,M*25
20220705 070333+00:00 $HCHDT,311,T*34
20220705 070333+00:00 $GPRMC,070328,A,4857.7296,N,12310.1400,W,5.6,310,050722,11.8,E,A,V*58
20220705 070333+00:00 $WIMWV,356.19,R,4.68,N,A*21
20220705 070335+00:00 $IIMDA,29.9,I,1.013,B,13.5,C,,C,88.8,,,C,,T,,M,,N,,M*24
20220705 070335+00:00 $HCHDT,311.1,T*2B
20220705 070335+00:00 $GPRMC,070330,A,4857.7296,N,12310.1400,W,5.6,310,050722,11.8,E,A,V*51
20220705 070335+00:00 $WIMWV,351.99,R,5.29,N,A*2A
20220705 070337+00:00 $IIMDA,29.9,I,1.013,B,13.5,C,,C,88.8,,,C,,T,,M,,N,,M*24
20220705 070337+00:00 $HCHDT,311.1,T*2B
20220705 070337+00:00 $GPRMC,070332,A,4857.7296,N,12310.1400,W,5.6,310,050722,11.8,E,A,V*53
20220705 070337+00:00 $WIMWV,356.79,R,5.09,N,A*21
20220705 070339+00:00 $IIMDA,29.9,I,1.013,B,13.5,C,,C,88.8,,,C,,T,,M,,N,,M*24
20220705 070339+00:00 $HCHDT,311.2,T*28
20220705 070339+00:00 $GPRMC,070334,A,4857.7296,N,12310.1496,W,5.6,310,050722,11.8,E,A,V*5A
20220705 070339+00:00 $WIMWV,353.29,R,4.9,N,A*10
20220705 070341+00:00 $IIMDA,29.9,I,1.013,B,13.5,C,,C,88.8,,,C,,T,,M,,N,,M*24
20220705 070341+00:00 $HCHDT,311.3,T*29
20220705 070341+00:00 $GPRMC,070336,A,4857.7296,N,12310.1496,W,5.6,310,050722,11.8,E,A,V*58
20220705 070341+00:00 $WIMWV,353.19,R,5.6,N,A*1D
20220705 070343+00:00 $IIMDA,29.9,I,1.013,B,13.5,C,,C,88.8,,,C,,T,,M,,N,,M*24
20220705 070343+00:00 $HCHDT,311.4,T*2E
20220705 070343+00:00 $GPRMC,070338,A,4857.7398,N,12310.1598,W,5.6,310,050722,11.8,E,A,V*56
20220705 070343+00:00 $WIMWV,352.49,R,5.29,N,A*24
20220705 070345+00:00 $IIMDA,29.9,I,1.013,B,13.5,C,,C,88.7,,,C,,T,,M,,N,,M*2B
20220705 070345+00:00 $HCHDT,311.4,T*2E
20220705 070345+00:00 $GPRMC,070340,A,4857.7398,N,12310.1598,W,5.6,310,050722,11.8,E,A,V*59
20220705 070345+00:00 $WIMWV,353.49,R,5.79,N,A*20
20220705 070347+00:00 $IIMDA,29.9,I,1.013,B,13.5,C,,C,88.8,,,C,,T,,M,,N,,M*24
20220705 070347+00:00 $HCHDT,311.4,T*2E
20220705 070347+00:00 $GPRMC,070342,A,4857.7398,N,12310.1598,W,5.6,310,050722,11.8,E,A,V*5B
20220705 070347+00:00 $WIMWV,352.59,R,4.78,N,A*20
20220705 070349+00:00 $IIMDA,29.9,I,1.013,B,13.5,C,,C,88.7,,,C,,T,,M,,N,,M*2B
20220705 070349+00:00 $HCHDT,311.4,T*2E
20220705 070349+00:00 $GPRMC,070344,A,4857.7398,N,12310.1700,W,5.6,310,050722,11.8,E,A,V*5E
20220705 070349+00:00 $WIMWV,356.29,R,5.09,N,A*24
20220705 070351+00:00 $IIMDA,29.9,I,1.013,B,13.5,C,,C,88.7,,,C,,T,,M,,N,,M*2B
20220705 070351+00:00 $HCHDT,311.4,T*2E
20220705 070351+00:00 $GPRMC,070346,A,4857.7398,N,12310.1700,W,5.6,310,050722,11.8,E,A,V*5C
20220705 070351+00:00 $WIMWV,351.39,R,5.09,N,A*22
20220705 070353+00:00 $IIMDA,29.9,I,1.013,B,13.5,C,,C,88.7,,,C,,T,,M,,N,,M*2B
20220705 070353+00:00 $HCHDT,311.5,T*2F
20220705 070353+00:00 $GPRMC,070348,A,4857.7500,N,12310.1700,W,5.6,310,050722,11.8,E,A,V*55
20220705 070353+00:00 $WIMWV,354.19,R,5,N,A*02
20220705 070355+00:00 $IIMDA,29.9,I,1.013,B,13.5,C,,C,88.7,,,C,,T,,M,,N,,M*2B
20220705 070355+00:00 $HCHDT,311.5,T*2F
20220705 070355+00:00 $GPRMC,070350,A,4857.7500,N,12310.1796,W,5.6,310,050722,11.8,E,A,V*53
20220705 070355+00:00 $WIMWV,354.79,R,5.19,N,A*22
20220705 070357+00:00 $IIMDA,29.9,I,1.013,B,13.5,C,,C,88.7,,,C,,T,,M,,N,,M*2B
20220705 070357+00:00 $HCHDT,311.5,T*2F
20220705 070357+00:00 $GPRMC,070352,A,4857.7500,N,12310.1796,W,5.6,310,050722,11.8,E,A,V*51
20220705 070357+00:00 $WIMWV,352.39,R,5.99,N,A*28
20220705 070359+00:00 $IIMDA,29.9,I,1.013,B,13.5,C,,C,88.8,,,C,,T,,M,,N,,M*24
20220705 070359+00:00 $HCHDT,311.5,T*2F
20220705 070359+00:00 $GPRMC,070354,A,4857.7500,N,12310.1796,W,5.6,310,050722,11.8,E,A,V*57
20220705 070359+00:00 $WIMWV,349.89,R,5.89,N,A*28
20220705 070401+00:00 $IIMDA,29.9,I,1.013,B,13.5,C,,C,88.7,,,C,,T,,M,,N,,M*2B
20220705 070401+00:00 $HCHDT,311.5,T*2F
20220705 070401+00:00 $GPRMC,070356,A,4857.7500,N,12310.1898,W,5.6,310,050722,11.8,E,A,V*54
20220705 070401+00:00 $WIMWV,351.39,R,6.59,N,A*24
20220705 070403+00:00 $IIMDA,29.9,I,1.013,B,13.5,C,,C,88.7,,,C,,T,,M,,N,,M*2B
20220705 070403+00:00 $HCHDT,311.6,T*2C
20220705 070403+00:00 $GPRMC,070358,A,4857.7596,N,12310.1898,W,5.6,310,050722,11.8,E,A,V*55
20220705 070403+00:00 $WIMWV,357.99,R,5.19,N,A*2F
20220705 070405+00:00 $IIMDA,29.9,I,1.013,B,13.5,C,,C,88.7,,,C,,T,,M,,N,,M*2B
20220705 070405+00:00 $HCHDT,311.6,T*2C
20220705 070405+00:00 $GPRMC,070400,A,4857.7596,N,12310.2000,W,5.6,310,050722,11.8,E,A,V*55
20220705 070405+00:00 $WIMWV,354.09,R,5.48,N,A*21
20220705 070407+00:00 $IIMDA,29.9,I,1.013,B,13.5,C,,C,88.8,,,C,,T,,M,,N,,M*24
20220705 070407+00:00 $HCHDT,311.7,T*2D
20220705 070407+00:00 $GPRMC,070402,A,4857.7596,N,12310.2000,W,5.6,310,050722,11.8,E,A,V*57
20220705 070407+00:00 $WIMWV,353.79,R,5.79,N,A*23
20220705 070409+00:00 $IIMDA,29.9,I,1.013,B,13.5,C,,C,88.7,,,C,,T,,M,,N,,M*2B
20220705 070409+00:00 $HCHDT,311.7,T*2D
20220705 070409+00:00 $GPRMC,070404,A,4857.7596,N,12310.2000,W,5.6,310,050722,11.8,E,A,V*51
20220705 070409+00:00 $WIMWV,353.49,R,5.99,N,A*2E
20220705 070411+00:00 $IIMDA,29.9,I,1.013,B,13.5,C,,C,88.8,,,C,,T,,M,,N,,M*24
20220705 070411+00:00 $HCHDT,311.6,T*2C
20220705 070411+00:00 $GPRMC,070406,A,4857.7596,N,12310.2096,W,5.6,310,050722,11.8,E,A,V*5C
20220705 070411+00:00 $WIMWV,354.49,R,5.6,N,A*1F
20220705 070413+00:00 $IIMDA,29.9,I,1.013,B,13.5,C,,C,88.7,,,C,,T,,M,,N,,M*2B
20220705 070413+00:00 $HCHDT,311.6,T*2C
20220705 070413+00:00 $GPRMC,070408,A,4857.7698,N,12310.2096,W,5.6,310,050722,11.8,E,A,V*5F
20220705 070413+00:00 $WIMWV,350.79,R,5.79,N,A*20
20220705 070415+00:00 $IIMDA,29.9,I,1.013,B,13.5,C,,C,88.7,,,C,,T,,M,,N,,M*2B
20220705 070415+00:00 $HCHDT,311.6,T*2C
20220705 070415+00:00 $GPRMC,070410,A,4857.7698,N,12310.2096,W,5.6,310,050722,11.8,E,A,V*56
20220705 070415+00:00 $WIMWV,350.79,R,6.08,N,A*25
20220705 070417+00:00 $IIMDA,29.9,I,1.013,B,13.5,C,,C,88.8,,,C,,T,,M,,N,,M*24
20220705 070417+00:00 $HCHDT,311.6,T*2C
20220705 070417+00:00 $GPRMC,070412,A,4857.7698,N,12310.2198,W,5.6,310,050722,11.8,E,A,V*5B
20220705 070417+00:00 $WIMWV,351.59,R,5.38,N,A*26
20220705 070419+00:00 $IIMDA,29.9,I,1.013,B,13.5,C,,C,88.7,,,C,,T,,M,,N,,M*2B
20220705 070419+00:00 $HCHDT,311.6,T*2C
20220705 070419+00:00 $GPRMC,070414,A,4857.7698,N,12310.2198,W,5.6,310,050722,11.8,E,A,V*5D
20220705 070419+00:00 $WIMWV,359.29,R,4.68,N,A*2D
20220705 070421+00:00 $IIMDA,29.9,I,1.013,B,13.5,C,,C,88.8,,,C,,T,,M,,N,,M*24
20220705 070421+00:00 $HCHDT,311.6,T*2C
20220705 070421+00:00 $GPRMC,070416,A,4857.7698,N,12310.2198,W,5.6,310,050722,11.8,E,A,V*5F
20220705 070421+00:00 $WIMWV,350.69,R,5.09,N,A*26
20220705 070423+00:00 $IIMDA,29.9,I,1.013,B,13.5,C,,C,88.8,,,C,,T,,M,,N,,M*24
20220705 070423+00:00 $HCHDT,311.6,T*2C
20220705 070423+00:00 $GPRMC,070418,A,4857.7800,N,12310.2300,W,5.6,310,050722,11.8,E,A,V*5D
20220705 070423+00:00 $WIMWV,352.09,R,5.48,N,A*27
20220705 070425+00:00 $IIMDA,29.9,I,1.013,B,13.5,C,,C,88.8,,,C,,T,,M,,N,,M*24
20220705 070425+00:00 $HCHDT,311.6,T*2C
20220705 070425+00:00 $GPRMC,070420,A,4857.7800,N,12310.2300,W,5.6,310,050722,11.8,E,A,V*56
20220705 070425+00:00 $WIMWV,354.79,R,5.48,N,A*26
20220705 070427+00:00 $IIMDA,29.9,I,1.013,B,13.5,C,,C,88.8,,,C,,T,,M,,N,,M*24
20220705 070427+00:00 $HCHDT,311.5,T*2F
20220705 070427+00:00 $GPRMC,070422,A,4857.7800,N,12310.2396,W,5.6,310,050722,11.8,E,A,V*5B
20220705 070427+00:00 $WIMWV,353.19,R,5.99,N,A*2B
20220705 070429+00:00 $IIMDA,29.9,I,1.013,B,13.5,C,,C,88.8,,,C,,T,,M,,N,,M*24
20220705 070429+00:00 $HCHDT,311.4,T*2E
20220705 070429+00:00 $GPRMC,070424,A,4857.7800,N,12310.2396,W,5.6,310,050722,11.8,E,A,V*5D
20220705 070429+00:00 $WIMWV,351.29,R,5.6,N,A*1C
20220705 070431+00:00 $IIMDA,29.9,I,1.013,B,13.5,C,,C,88.8,,,C,,T,,M,,N,,M*24
20220705 070431+00:00 $HCHDT,311.3,T*29
20220705 070431+00:00 $GPRMC,070426,A,4857.7800,N,12310.2396,W,5.6,310,050722,11.8,E,A,V*5F
20220705 070431+00:00 $WIMWV,358.09,R,5.19,N,A*29
20220705 070433+00:00 $IIMDA,29.9,I,1.013,B,13.5,C,,C,88.8,,,C,,T,,M,,N,,M*24
20220705 070433+00:00 $HCHDT,311.2,T*28
20220705 070433+00:00 $GPRMC,070428,A,4857.7896,N,12310.2498,W,5.6,310,050722,11.8,E,A,V*57
20220705 070433+00:00 $WIMWV,358.59,R,5,N,A*0A
20220705 070435+00:00 $IIMDA,29.9,I,1.013,B,13.5,C,,C,88.8,,,C,,T,,M,,N,,M*24
20220705 070435+00:00 $HCHDT,311.1,T*2B
20220705 070435+00:00 $GPRMC,070430,A,4857.7896,N,12310.2498,W,5.6,310,050722,11.8,E,A,V*5E
20220705 070435+00:00 $WIMWV,356.19,R,5.6,N,A*18
20220705 070437+00:00 $IIMDA,29.9,I,1.013,B,13.5,C,,C,88.8,,,C,,T,,M,,N,,M*24
20220705 070437+00:00 $HCHDT,311.1,T*2B
20220705 070437+00:00 $GPRMC,070432,A,4857.7896,N,12310.2498,W,5.6,310,050722,11.8,E,A,V*5C
20220705 070437+00:00 $WIMWV,355.09,R,5,N,A*02
20220705 070439+00:00 $IIMDA,29.9,I,1.013,B,13.5,C,,C,88.8,,,C,,T,,M,,N,,M*24
20220705 070439+00:00 $HCHDT,311.2,T*28
20220705 070439+00:00 $GPRMC,070434,A,4857.7896,N,12310.2600,W,5.6,310,050722,11.8,E,A,V*59
20220705 070439+00:00 $WIMWV,352.69,R,4.49,N,A*21
20220705 070441+00:00 $IIMDA,29.9,I,1.013,B,13.5,C,,C,88.8,,,C,,T,,M,,N,,M*24
20220705 070441+00:00 $HCHDT,311.4,T*2E
20220705 070441+00:00 $GPRMC,070436,A,4857.7896,N,12310.2600,W,5.6,309,050722,11.8,E,A,V*53
20220705 070441+00:00 $WIMWV,355.99,R,4.39,N,A*2E
20220705 070443+00:00 $IIMDA,29.9,I,1.013,B,13.5,C,,C,88.8,,,C,,T,,M,,N,,M*24
20220705 070443+00:00 $HCHDT,311.7,T*2D
20220705 070443+00:00 $GPRMC,070438,A,4857.7998,N,12310.2600,W,5.6,309,050722,11.8,E,A,V*52
20220705 070443+00:00 $WIMWV,355.19,R,4.68,N,A*22
20220705 070445+00:00 $IIMDA,29.9,I,1.013,B,13.5,C,,C,88.8,,,C,,T,,M,,N,,M*24
20220705 070445+00:00 $HCHDT,312,T*37
20220705 070445+00:00 $GPRMC,070440,A,4857.7998,N,12310.2696,W,5.6,309,050722,11.8,E,A,V*52
20220705 070445+00:00 $WIMWV,353.29,R,4.78,N,A*26
20220705 070447+00:00 $IIMDA,29.9,I,1.013,B,13.5,C,,C,88.8,,,C,,T,,M,,N,,M*24
20220705 070447+00:00 $HCHDT,312.2,T*2B
20220705 070447+00:00 $GPRMC,070442,A,4857.7998,N,12310.2696,W,5.6,310,050722,11.8,E,A,V*58
20220705 070447+00:00 $WIMWV,356.79,R,4.08,N,A*21
20220705 070449+00:00 $IIMDA,29.9,I,1.013,B,13.5,C,,C,88.9,,,C,,T,,M,,N,,M*25
20220705 070449+00:00 $HCHDT,312.3,T*2A
20220705 070449+00:00 $GPRMC,070444,A,4857.7998,N,12310.2798,W,5.6,310,050722,11.8,E,A,V*51
20220705 070449+00:00 $WIMWV,348.99,R,5.79,N,A*27
20220705 070451+00:00 $IIMDA,29.9,I,1.013,B,13.5,C,,C,88.9,,,C,,T,,M,,N,,M*25
20220705 070451+00:00 $HCHDT,312.3,T*2A
20220705 070451+00:00 $GPRMC,070446,A,4857.7998,N,12310.2798,W,5.6,310,050722,11.8,E,A,V*53
20220705 070451+00:00 $WIMWV,355.89,R,4.49,N,A*28
20220705 070453+00:00 $IIMDA,29.9,I,1.013,B,13.5,C,,C,88.8,,,C,,T,,M,,N,,M*24
20220705 070453+00:00 $HCHDT,312.5,T*2C
20220705 070453+00:00 $GPRMC,070448,A,4857.8100,N,12310.2798,W,5.6,310,050722,11.8,E,A,V*5B
20220705 070453+00:00 $WIMWV,351.29,R,5.29,N,A*21
20220705 070455+00:00 $IIMDA,29.9,I,1.013,B,13.5,C,,C,88.9,,,C,,T,,M,,N,,M*25
20220705 070455+00:00 $HCHDT,312.4,T*2D
20220705 070455+00:00 $GPRMC,070450,A,4857.8100,N,12310.2900,W,5.6,310,050722,11.8,E,A,V*5D
20220705 070455+00:00 $WIMWV,350.99,R,5.19,N,A*28
20220705 070457+00:00 $IIMDA,29.9,I,1.013,B,13.5,C,,C,88.8,,,C,,T,,M,,N,,M*24
20220705 070457+00:00 $HCHDT,312.4,T*2D
20220705 070457+00:00 $GPRMC,070452,A,4857.8100,N,12310.2900,W,5.6,310,050722,11.8,E,A,V*5F
20220705 070457+00:00 $WIMWV,353.59,R,4.9,N,A*17
20220705 070459+00:00 $IIMDA,29.9,I,1.013,B,13.5,C,,C,88.9,,,C,,T,,M,,N,,M*25
20220705 070459+00:00 $HCHDT,312.3,T*2A
20220705 070459+00:00 $GPRMC,070454,A,4857.8100,N,12310.2900,W,5.6,310,050722,11.8,E,A,V*59
20220705 070459+00:00 $WIMWV,2.6,R,2.99,N,A*15
20220705 070501+00:00 $IIMDA,29.9,I,1.013,B,13.5,C,,C,88.9,,,C,,T,,M,,N,,M*25
20220705 070501+00:00 $HCHDT,312.2,T*2B
20220705 070501+00:00 $GPRMC,070456,A,4857.8100,N,12310.2996,W,5.6,310,050722,11.8,E,A,V*54
20220705 070501+00:00 $WIMWV,351.69,R,5.48,N,A*22
20220705 070503+00:00 $IIMDA,29.9,I,1.013,B,13.5,C,,C,88.9,,,C,,T,,M,,N,,M*25
20220705 070503+00:00 $HCHDT,312.1,T*28
20220705 070503+00:00 $GPRMC,070458,A,4857.8196,N,12310.2996,W,5.6,310,050722,11.8,E,A,V*55
20220705 070503+00:00 $WIMWV,354.39,R,5.38,N,A*25
20220705 070505+00:00 $IIMDA,29.9,I,1.013,B,13.5,C,,C,88.9,,,C,,T,,M,,N,,M*25
20220705 070505+00:00 $HCHDT,312.1,T*28
20220705 070505+00:00 $GPRMC,070500,A,4857.8196,N,12310.2996,W,5.6,310,050722,11.8,E,A,V*59
20220705 070505+00:00 $WIMWV,355.89,R,5,N,A*0A
20220705 070507+00:00 $IIMDA,29.9,I,1.013,B,13.5,C,,C,88.8,,,C,,T,,M,,N,,M*24
20220705 070507+00:00 $HCHDT,312,T*37
20220705 070507+00:00 $GPRMC,070502,A,4857.8196,N,12310.3098,W,5.6,310,050722,11.8,E,A,V*5D
20220705 070507+00:00 $WIMWV,349.29,R,5.29,N,A*28
20220705 070509+00:00 $IIMDA,29.9,I,1.013,B,13.5,C,,C,88.8,,,C,,T,,M,,N,,M*24
20220705 070509+00:00 $HCHDT,312,T*37
20220705 070509+00:00 $GPRMC,070504,A,4857.8196,N,12310.3098,W,5.6,310,050722,11.8,E,A,V*5B
20220705 070509+00:00 $WIMWV,351.79,R,5.38,N,A*24
20220705 070511+00:00 $IIMDA,29.9,I,1.013,B,13.5,C,,C,88.8,,,C,,T,,M,,N,,M*24
20220705 070511+00:00 $HCHDT,311.9,T*23
20220705 070511+00:00 $GPRMC,070506,A,4857.8298,N,12310.3200,W,5.6,310,050722,11.8,E,A,V*57
20220705 070511+00:00 $WIMWV,351.29,R,5.48,N,A*26
20220705 070513+00:00 $IIMDA,29.9,I,1.013,B,13.5,C,,C,88.8,,,C,,T,,M,,N,,M*24
20220705 070513+00:00 $HCHDT,311.8,T*22
20220705 070513+00:00 $GPRMC,070508,A,4857.8298,N,12310.3200,W,5.7,310,050722,11.8,E,A,V*58
20220705 070513+00:00 $WIMWV,350.89,R,5.19,N,A*29
20220705 070515+00:00 $IIMDA,29.9,I,1.013,B,13.5,C,,C,88.8,,,C,,T,,M,,N,,M*24
20220705 070515+00:00 $HCHDT,311.7,T*2D
20220705 070515+00:00 $GPRMC,070510,A,4857.8298,N,12310.3200,W,5.7,310,050722,11.8,E,A,V*51
20220705 070515+00:00 $WIMWV,351.29,R,4.78,N,A*24
20220705 070517+00:00 $IIMDA,29.9,I,1.013,B,13.5,C,,C,88.7,,,C,,T,,M,,N,,M*2B
20220705 070517+00:00 $HCHDT,311.6,T*2C
20220705 070517+00:00 $GPRMC,070512,A,4857.8298,N,12310.3296,W,5.7,310,050722,11.8,E,A,V*5C
20220705 070517+00:00 $WIMWV,355.29,R,5.19,N,A*26
20220705 070519+00:00 $IIMDA,29.9,I,1.013,B,13.5,C,,C,88.7,,,C,,T,,M,,N,,M*2B
20220705 070519+00:00 $HCHDT,311.5,T*2F
20220705 070519+00:00 $GPRMC,070514,A,4857.8298,N,12310.3296,W,5.7,310,050722,11.8,E,A,V*5A
20220705 070519+00:00 $WIMWV,348.79,R,5.7,N,A*10
20220705 070521+00:00 $IIMDA,29.9,I,1.013,B,13.5,C,,C,88.7,,,C,,T,,M,,N,,M*2B
20220705 070521+00:00 $HCHDT,311.4,T*2E
20220705 070521+00:00 $GPRMC,070516,A,4857.8400,N,12310.3296,W,5.7,310,050722,11.8,E,A,V*5F
20220705 070521+00:00 $WIMWV,351.09,R,5.29,N,A*23
20220705 070523+00:00 $IIMDA,29.9,I,1.013,B,13.5,C,,C,88.7,,,C,,T,,M,,N,,M*2B
20220705 070523+00:00 $HCHDT,311.4,T*2E
20220705 070523+00:00 $GPRMC,070518,A,4857.8400,N,12310.3398,W,5.7,310,050722,11.8,E,A,V*5E
20220705 070523+00:00 $WIMWV,354.09,R,4.68,N,A*22
20220705 070525+00:00 $IIMDA,29.9,I,1.013,B,13.5,C,,C,88.7,,,C,,T,,M,,N,,M*2B
20220705 070525+00:00 $HCHDT,311.4,T*2E
20220705 070525+00:00 $GPRMC,070520,A,4857.8400,N,12310.3398,W,5.7,310,050722,11.8,E,A,V*55
20220705 070525+00:00 $WIMWV,349.79,R,4.2,N,A*15
20220705 070527+00:00 $IIMDA,29.9,I,1.013,B,13.5,C,,C,88.6,,,C,,T,,M,,N,,M*2A
20220705 070527+00:00 $HCHDT,311.5,T*2F
20220705 070527+00:00 $GPRMC,070522,A,4857.8400,N,12310.3398,W,5.7,310,050722,11.8,E,A,V*57
20220705 070527+00:00 $WIMWV,353.29,R,5.38,N,A*23
20220705 070529+00:00 $IIMDA,29.9,I,1.013,B,13.5,C,,C,88.6,,,C,,T,,M,,N,,M*2A
20220705 070529+00:00 $HCHDT,311.5,T*2F
20220705 070529+00:00 $GPRMC,070524,A,4857.8400,N,12310.3500,W,5.7,310,050722,11.8,E,A,V*56
20220705 070529+00:00 $WIMWV,356.39,R,4.9,N,A*14
20220705 070531+00:00 $IIMDA,29.9,I,1.013,B,13.5,C,,C,88.6,,,C,,T,,M,,N,,M*2A
20220705 070531+00:00 $HCHDT,311.5,T*2F
20220705 070531+00:00 $GPRMC,070526,A,4857.8496,N,12310.3500,W,5.7,310,050722,11.8,E,A,V*5B
20220705 070531+00:00 $WIMWV,350.09,R,5.29,N,A*22
20220705 070533+00:00 $IIMDA,29.9,I,1.013,B,13.5,C,,C,88.5,,,C,,T,,M,,N,,M*29
20220705 070533+00:00 $HCHDT,311.6,T*2C
20220705 070533+00:00 $GPRMC,070528,A,4857.8496,N,12310.3596,W,5.7,310,050722,11.8,E,A,V*5A
20220705 070533+00:00 $WIMWV,353.19,R,5.38,N,A*20
20220705 070535+00:00 $IIMDA,29.9,I,1.013,B,13.5,C,,C,88.5,,,C,,T,,M,,N,,M*29
20220705 070535+00:00 $HCHDT,311.6,T*2C
20220705 070535+00:00 $GPRMC,070530,A,4857.8496,N,12310.3596,W,5.7,310,050722,11.8,E,A,V*53
20220705 070535+00:00 $WIMWV,353.69,R,5.79,N,A*22
20220705 070537+00:00 $IIMDA,29.9,I,1.013,B,13.5,C,,C,88.4,,,C,,T,,M,,N,,M*28
20220705 070537+00:00 $HCHDT,311.6,T*2C
20220705 070537+00:00 $GPRMC,070532,A,4857.8496,N,12310.3596,W,5.7,309,050722,11.8,E,A,V*59
20220705 070537+00:00 $WIMWV,355.99,R,4.39,N,A*2E
20220705 070539+00:00 $IIMDA,29.9,I,1.013,B,13.5,C,,C,88.4,,,C,,T,,M,,N,,M*28
20220705 070539+00:00 $HCHDT,311.6,T*2C
20220705 070539+00:00 $GPRMC,070534,A,4857.8496,N,12310.3698,W,5.7,309,050722,11.8,E,A,V*52
20220705 070539+00:00 $WIMWV,352.09,R,4.49,N,A*27
20220705 070541+00:00 $IIMDA,29.9,I,1.013,B,13.5,C,,C,88.4,,,C,,T,,M,,N,,M*28
20220705 070541+00:00 $HCHDT,311.6,T*2C
20220705 070541+00:00 $GPRMC,070536,A,4857.8598,N,12310.3698,W,5.7,309,050722,11.8,E,A,V*5F
20220705 070541+00:00 $WIMWV,350.49,R,5.29,N,A*26
20220705 070543+00:00 $IIMDA,29.9,I,1.013,B,13.5,C,,C,88.4,,,C,,T,,M,,N,,M*28
20220705 070543+00:00 $HCHDT,311.6,T*2C
20220705 070543+00:00 $GPRMC,070538,A,4857.8598,N,12310.3698,W,5.7,309,050722,11.8,E,A,V*51
20220705 070543+00:00 $WIMWV,353.89,R,5.6,N,A*14
20220705 070545+00:00 $IIMDA,29.9,I,1.013,B,13.5,C,,C,88.3,,,C,,T,,M,,N,,M*2F
20220705 070545+00:00 $HCHDT,311.7,T*2D
20220705 070545+00:00 $GPRMC,070540,A,4857.8598,N,12310.3800,W,5.7,309,050722,11.8,E,A,V*51
20220705 070545+00:00 $WIMWV,352.29,R,5.6,N,A*1F
20220705 070547+00:00 $IIMDA,29.9,I,1.013,B,13.5,C,,C,88.3,,,C,,T,,M,,N,,M*2F
20220705 070547+00:00 $HCHDT,311.7,T*2D
20220705 070547+00:00 $GPRMC,070542,A,4857.8598,N,12310.3800,W,5.7,309,050722,11.8,E,A,V*53
20220705 070547+00:00 $WIMWV,354.29,R,5.7,N,A*18
20220705 070549+00:00 $IIMDA,29.9,I,1.013,B,13.5,C,,C,88.3,,,C,,T,,M,,N,,M*2F
20220705 070549+00:00 $HCHDT,311.7,T*2D
20220705 070549+00:00 $GPRMC,070544,A,4857.8598,N,12310.3896,W,5.7,309,050722,11.8,E,A,V*5A
20220705 070549+00:00 $WIMWV,347.99,R,5.6,N,A*10
20220705 070551+00:00 $IIMDA,29.9,I,1.013,B,13.5,C,,C,88.2,,,C,,T,,M,,N,,M*2E
20220705 070551+00:00 $HCHDT,311.8,T*22
20220705 070551+00:00 $GPRMC,070546,A,4857.8700,N,12310.3896,W,5.7,309,050722,11.8,E,A,V*5B
20220705 070551+00:00 $WIMWV,353.59,R,5.48,N,A*23
20220705 070553+00:00 $IIMDA,29.9,I,1.013,B,13.5,C,,C,88.2,,,C,,T,,M,,N,,M*2E
20220705 070553+00:00 $HCHDT,311.8,T*22
20220705 070553+00:00 $GPRMC,070548,A,4857.8700,N,12310.3896,W,5.7,309,050722,11.8,E,A,V*55
20220705 070553+00:00 $WIMWV,350.49,R,5.6,N,A*1B
20220705 070555+00:00 $IIMDA,29.9,I,1.013,B,13.5,C,,C,88.2,,,C,,T,,M,,N,,M*2E
20220705 070555+00:00 $HCHDT,311.8,T*22
20220705 070555+00:00 $GPRMC,070550,A,4857.8700,N,12310.3998,W,5.7,309,050722,11.8,E,A,V*53
20220705 070555+00:00 $WIMWV,352.49,R,5.89,N,A*2E
20220705 070557+00:00 $IIMDA,29.9,I,1.013,B,13.5,C,,C,88.2,,,C,,T,,M,,N,,M*2E
20220705 070557+00:00 $HCHDT,311.8,T*22
20220705 070557+00:00 $GPRMC,070552,A,4857.8700,N,12310.3998,W,5.7,309,050722,11.8,E,A,V*51
20220705 070557+00:00 $WIMWV,357.29,R,3.5,N,A*1F
20220705 070559+00:00 $IIMDA,29.9,I,1.013,B,13.5,C,,C,88.1,,,C,,T,,M,,N,,M*2D
20220705 070559+00:00 $HCHDT,311.8,T*22
20220705 070559+00:00 $GPRMC,070554,A,4857.8700,N,12310.3998,W,5.7,309,050722,11.8,E,A,V*57
20220705 070559+00:00 $WIMWV,354.29,R,5.38,N,A*24
20220705 070601+00:00 $IIMDA,29.9,I,1.013,B,13.5,C,,C,88.2,,,C,,T,,M,,N,,M*2E
20220705 070601+00:00 $HCHDT,311.8,T*22
20220705 070601+00:00 $GPRMC,070556,A,4857.8796,N,12310.4100,W,5.7,309,050722,11.8,E,A,V*54
20220705 070601+00:00 $WIMWV,353.59,R,5.48,N,A*23
20220705 070603+00:00 $IIMDA,29.9,I,1.013,B,13.5,C,,C,88.2,,,C,,T,,M,,N,,M*2E
20220705 070603+00:00 $HCHDT,311.8,T*22
20220705 070603+00:00 $GPRMC,070558,A,4857.8796,N,12310.4100,W,5.7,309,050722,11.8,E,A,V*5A
20220705 070603+00:00 $WIMWV,353.09,R,5.99,N,A*2A
20220705 070605+00:00 $IIMDA,29.9,I,1.013,B,13.5,C,,C,88.2,,,C,,T,,M,,N,,M*2E
20220705 070605+00:00 $HCHDT,311.8,T*22
20220705 070605+00:00 $GPRMC,070600,A,4857.8796,N,12310.4100,W,5.7,309,050722,11.8,E,A,V*54
20220705 070605+00:00 $WIMWV,353.19,R,5.89,N,A*2A
20220705 070607+00:00 $IIMDA,29.9,I,1.013,B,13.5,C,,C,88.2,,,C,,T,,M,,N,,M*2E
20220705 070607+00:00 $HCHDT,311.8,T*22
20220705 070607+00:00 $GPRMC,070602,A,4857.8796,N,12310.4196,W,5.7,309,050722,11.8,E,A,V*59
20220705 070607+00:00 $WIMWV,352.19,R,5.7,N,A*1D
20220705 070609+00:00 $IIMDA,29.9,I,1.013,B,13.5,C,,C,88.2,,,C,,T,,M,,N,,M*2E
20220705 070609+00:00 $HCHDT,311.8,T*22
20220705 070609+00:00 $GPRMC,070604,A,4857.8796,N,12310.4196,W,5.7,309,050722,11.8,E,A,V*5F
20220705 070609+00:00 $WIMWV,354.09,R,5.38,N,A*26
20220705 070611+00:00 $IIMDA,29.9,I,1.013,B,13.5,C,,C,88.2,,,C,,T,,M,,N,,M*2E
20220705 070611+00:00 $HCHDT,311.8,T*22
20220705 070611+00:00 $GPRMC,070606,A,4857.8898,N,12310.4298,W,5.7,309,050722,11.8,E,A,V*51
20220705 070611+00:00 $WIMWV,353.29,R,5.7,N,A*1F
20220705 070613+00:00 $IIMDA,29.9,I,1.013,B,13.5,C,,C,88.2,,,C,,T,,M,,N,,M*2E
20220705 070613+00:00 $HCHDT,311.8,T*22
20220705 070613+00:00 $GPRMC,070608,A,4857.8898,N,12310.4298,W,5.7,309,050722,11.8,E,A,V*5F
20220705 070613+00:00 $WIMWV,351.69,R,6.4,N,A*19
20220705 070615+00:00 $IIMDA,29.9,I,1.013,B,13.5,C,,C,88.2,,,C,,T,,M,,N,,M*2E
20220705 070615+00:00 $HCHDT,311.8,T*22
20220705 070615+00:00 $GPRMC,070610,A,4857.8898,N,12310.4298,W,5.7,309,050722,11.8,E,A,V*56
20220705 070615+00:00 $WIMWV,355.49,R,5.7,N,A*1F
20220705 070617+00:00 $IIMDA,29.9,I,1.013,B,13.5,C,,C,88.2,,,C,,T,,M,,N,,M*2E
20220705 070617+00:00 $HCHDT,311.7,T*2D
20220705 070617+00:00 $GPRMC,070612,A,4857.8898,N,12310.4400,W,5.7,309,050722,11.8,E,A,V*53
20220705 070617+00:00 $WIMWV,353.79,R,6.08,N,A*26
20220705 070619+00:00 $IIMDA,29.9,I,1.013,B,13.5,C,,C,88.2,,,C,,T,,M,,N,,M*2E
20220705 070619+00:00 $HCHDT,311.7,T*2D
20220705 070619+00:00 $GPRMC,070614,A,4857.8898,N,12310.4400,W,5.7,309,050722,11.8,E,A,V*55
20220705 070619+00:00 $WIMWV,353.79,R,5.6,N,A*1B
20220705 070621+00:00 $IIMDA,29.9,I,1.013,B,13.5,C,,C,88.2,,,C,,T,,M,,N,,M*2E
20220705 070621+00:00 $HCHDT,311.6,T*2C
20220705 070621+00:00 $GPRMC,070616,A,4857.9000,N,12310.4400,W,5.7,309,050722,11.8,E,A,V*5F
20220705 070621+00:00 $WIMWV,352.39,R,6.18,N,A*22
20220705 070623+00:00 $IIMDA,29.9,I,1.013,B,13.5,C,,C,88.2,,,C,,T,,M,,N,,M*2E
20220705 070623+00:00 $HCHDT,311.6,T*2C
20220705 070623+00:00 $GPRMC,070618,A,4857.9000,N,12310.4496,W,5.7,309,050722,11.8,E,A,V*5E
20220705 070623+00:00 $WIMWV,353.39,R,6.18,N,A*23
20220705 070625+00:00 $IIMDA,29.9,I,1.013,B,13.5,C,,C,88.1,,,C,,T,,M,,N,,M*2D
20220705 070625+00:00 $HCHDT,311.6,T*2C
20220705 070625+00:00 $GPRMC,070620,A,4857.9000,N,12310.4496,W,5.7,309,050722,11.8,E,A,V*55
20220705 070625+00:00 $WIMWV,351.89,R,6.4,N,A*17
20220705 070627+00:00 $IIMDA,29.9,I,1.013,B,13.5,C,,C,88.1,,,C,,T,,M,,N,,M*2D
20220705 070627+00:00 $HCHDT,311.6,T*2C
20220705 070627+00:00 $GPRMC,070622,A,4857.9000,N,12310.4598,W,5.7,309,050722,11.8,E,A,V*58
20220705 070627+00:00 $WIMWV,352.59,R,5.99,N,A*2E
20220705 070629+00:00 $IIMDA,29.9,I,1.013,B,13.5,C,,C,88.1,,,C,,T,,M,,N,,M*2D
20220705 070629+00:00 $HCHDT,311.8,T*22
20220705 070629+00:00 $GPRMC,070624,A,4857.9000,N,12310.4598,W,5.7,309,050722,11.8,E,A,V*5E
20220705 070629+00:00 $WIMWV,351.59,R,6.08,N,A*26
20220705 070631+00:00 $IIMDA,29.9,I,1.013,B,13.5,C,,C,88.1,,,C,,T,,M,,N,,M*2D
20220705 070631+00:00 $HCHDT,311.9,T*23
20220705 070631+00:00 $GPRMC,070626,A,4857.9096,N,12310.4598,W,5.7,309,050722,11.8,E,A,V*53
20220705 070631+00:00 $WIMWV,353.39,R,6.08,N,A*22
20220705 070633+00:00 $IIMDA,29.9,I,1.013,B,13.5,C,,C,88.2,,,C,,T,,M,,N,,M*2E
20220705 070633+00:00 $HCHDT,312.2,T*2B
20220705 070633+00:00 $GPRMC,070628,A,4857.9096,N,12310.4700,W,5.7,309,050722,11.8,E,A,V*5E
20220705 070633+00:00 $WIMWV,355.09,R,5,N,A*02
20220705 070635+00:00 $IIMDA,29.9,I,1.013,B,13.5,C,,C,88.2,,,C,,T,,M,,N,,M*2E
20220705 070635+00:00 $HCHDT,312.3,T*2A
20220705 070635+00:00 $GPRMC,070630,A,4857.9096,N,12310.4700,W,5.7,309,050722,11.8,E,A,V*57
20220705 070635+00:00 $WIMWV,353.29,R,5.48,N,A*24
20220705 070637+00:00 $IIMDA,29.9,I,1.013,B,13.5,C,,C,88.2,,,C,,T,,M,,N,,M*2E
20220705 070637+00:00 $HCHDT,312.5,T*2C
20220705 070637+00:00 $GPRMC,070632,A,4857.9096,N,12310.4700,W,5.7,309,050722,11.8,E,A,V*55
20220705 070637+00:00 $WIMWV,357.09,R,4.9,N,A*16
20220705 070639+00:00 $IIMDA,29.9,I,1.013,B,13.5,C,,C,88.2,,,C,,T,,M,,N,,M*2E
20220705 070639+00:00 $HCHDT,312.5,T*2C
20220705 070639+00:00 $GPRMC,070634,A,4857.9096,N,12310.4796,W,5.7,310,050722,11.8,E,A,V*54
20220705 070639+00:00 $WIMWV,355.39,R,5.99,N,A*2F
20220705 070641+00:00 $IIMDA,29.9,I,1.013,B,13.5,C,,C,88.2,,,C,,T,,M,,N,,M*2E
20220705 070641+00:00 $HCHDT,312.5,T*2C
20220705 070641+00:00 $GPRMC,070636,A,4857.9198,N,12310.4796,W,5.7,310,050722,11.8,E,A,V*59
20220705 070641+00:00 $WIMWV,349.99,R,5.6,N,A*1E
20220705 070643+00:00 $IIMDA,29.9,I,1.013,B,13.5,C,,C,88.2,,,C,,T,,M,,N,,M*2E
20220705 070643+00:00 $HCHDT,312.4,T*2D
20220705 070643+00:00 $GPRMC,070638,A,4857.9198,N,12310.4898,W,5.7,310,050722,11.8,E,A,V*56
20220705 070643+00:00 $WIMWV,352.39,R,5.6,N,A*1E
20220705 070645+00:00 $IIMDA,29.9,I,1.013,B,13.5,C,,C,88.2,,,C,,T,,M,,N,,M*2E
20220705 070645+00:00 $HCHDT,312.3,T*2A
20220705 070645+00:00 $GPRMC,070640,A,4857.9198,N,12310.4898,W,5.7,310,050722,11.8,E,A,V*59
20220705 070645+00:00 $WIMWV,353.89,R,5.89,N,A*23
20220705 070647+00:00 $IIMDA,29.9,I,1.013,B,13.5,C,,C,88.2,,,C,,T,,M,,N,,M*2E
20220705 070647+00:00 $HCHDT,312.1,T*28
20220705 070647+00:00 $GPRMC,070642,A,4857.9198,N,12310.4898,W,5.7,310,050722,11.8,E,A,V*5B
20220705 070647+00:00 $WIMWV,354.29,R,5.6,N,A*19
20220705 070649+00:00 $IIMDA,29.9,I,1.013,B,13.5,C,,C,88.2,,,C,,T,,M,,N,,M*2E
20220705 070649+00:00 $HCHDT,311.8,T*22
20220705 070649+00:00 $GPRMC,070644,A,4857.9198,N,12310.5000,W,5.7,310,050722,11.8,E,A,V*55
20220705 070649+00:00 $WIMWV,351.09,R,5.79,N,A*26
20220705 070651+00:00 $IIMDA,29.9,I,1.013,B,13.5,C,,C,88.2,,,C,,T,,M,,N,,M*2E
20220705 070651+00:00 $HCHDT,311.7,T*2D
20220705 070651+00:00 $GPRMC,070646,A,4857.9300,N,12310.5000,W,5.79,310,050722,11.8,E,A,V*6D
20220705 070651+00:00 $WIMWV,354.09,R,5,N,A*03
20220705 070653+00:00 $IIMDA,29.9,I,1.013,B,13.5,C,,C,88.2,,,C,,T,,M,,N,,M*2E
20220705 070653+00:00 $HCHDT,311.6,T*2C
20220705 070653+00:00 $GPRMC,070648,A,4857.9300,N,12310.5000,W,5.79,310,050722,11.8,E,A,V*63
20220705 070653+00:00 $WIMWV,352.59,R,5.38,N,A*25
20220705 070655+00:00 $IIMDA,29.9,I,1.013,B,13.5,C,,C,88.2,,,C,,T,,M,,N,,M*2E
20220705 070655+00:00 $HCHDT,311.6,T*2C
20220705 070655+00:00 $GPRMC,070650,A,4857.9300,N,12310.5096,W,5.79,310,050722,11.8,E,A,V*65
20220705 070655+00:00 $WIMWV,348.49,R,5.48,N,A*28
20220705 070657+00:00 $IIMDA,29.9,I,1.013,B,13.5,C,,C,88.2,,,C,,T,,M,,N,,M*2E
20220705 070657+00:00 $HCHDT,311.6,T*2C
20220705 070657+00:00 $GPRMC,070652,A,4857.9300,N,12310.5096,W,5.79,310,050722,11.8,E,A,V*67
20220705 070657+00:00 $WIMWV,358.59,R,5.09,N,A*2D
20220705 070659+00:00 $IIMDA,29.9,I,1.013,B,13.5,C,,C,88.2,,,C,,T,,M,,N,,M*2E
20220705 070659+00:00 $HCHDT,311.6,T*2C
20220705 070659+00:00 $GPRMC,070654,A,4857.9300,N,12310.5198,W,5.79,310,050722,11.8,E,A,V*6E
20220705 070659+00:00 $WIMWV,347.49,R,4.2,N,A*18
20220705 070701+00:00 $IIMDA,29.9,I,1.013,B,13.5,C,,C,88.3,,,C,,T,,M,,N,,M*2F
20220705 070701+00:00 $HCHDT,311.7,T*2D
20220705 070701+00:00 $GPRMC,070656,A,4857.9396,N,12310.5198,W,5.79,310,050722,11.8,E,A,V*63
20220705 070701+00:00 $WIMWV,351.09,R,5.48,N,A*24
20220705 070703+00:00 $IIMDA,29.9,I,1.013,B,13.5,C,,C,88.3,,,C,,T,,M,,N,,M*2F
20220705 070703+00:00 $HCHDT,311.7,T*2D
20220705 070703+00:00 $GPRMC,070658,A,4857.9396,N,12310.5198,W,5.79,310,050722,11.8,E,A,V*6D
20220705 070703+00:00 $WIMWV,0.19,R,4.49,N,A*22
20220705 070705+00:00 $IIMDA,29.9,I,1.013,B,13.5,C,,C,88.3,,,C,,T,,M,,N,,M*2F
20220705 070705+00:00 $HCHDT,311.7,T*2D
20220705 070705+00:00 $GPRMC,070700,A,4857.9396,N,12310.5300,W,5.79,310,050722,11.8,E,A,V*62
20220705 070705+00:00 $WIMWV,352.99,R,5.29,N,A*29
20220705 070707+00:00 $IIMDA,29.9,I,1.013,B,13.5,C,,C,88.3,,,C,,T,,M,,N,,M*2F
20220705 070707+00:00 $HCHDT,311.7,T*2D
20220705 070707+00:00 $GPRMC,070702,A,4857.9396,N,12310.5300,W,5.79,310,050722,11.8,E,A,V*60
20220705 070707+00:00 $WIMWV,346.19,R,3.6,N,A*1F
20220705 070709+00:00 $IIMDA,29.9,I,1.013,B,13.5,C,,C,88.3,,,C,,T,,M,,N,,M*2F
20220705 070709+00:00 $HCHDT,311.7,T*2D
20220705 070709+00:00 $GPRMC,070704,A,4857.9396,N,12310.5300,W,5.79,310,050722,11.8,E,A,V*66
20220705 070709+00:00 $WIMWV,355.29,R,4.9,N,A*16
20220705 070711+00:00 $IIMDA,29.9,I,1.013,B,13.5,C,,C,88.3,,,C,,T,,M,,N,,M*2F
20220705 070711+00:00 $HCHDT,311.8,T*22
20220705 070711+00:00 $GPRMC,070706,A,4857.9498,N,12310.5396,W,5.79,310,050722,11.8,E,A,V*62
20220705 070711+00:00 $WIMWV,351.79,R,4.49,N,A*23
20220705 070713+00:00 $IIMDA,29.9,I,1.013,B,13.5,C,,C,88.3,,,C,,T,,M,,N,,M*2F
20220705 070713+00:00 $HCHDT,311.9,T*23
20220705 070713+00:00 $GPRMC,070708,A,4857.9498,N,12310.5396,W,5.79,310,050722,11.8,E,A,V*6C
20220705 070713+00:00 $WIMWV,356.89,R,4.68,N,A*28
20220705 070715+00:00 $IIMDA,29.9,I,1.013,B,13.5,C,,C,88.3,,,C,,T,,M,,N,,M*2F
20220705 070715+00:00 $HCHDT,312,T*37
20220705 070715+00:00 $GPRMC,070710,A,4857.9498,N,12310.5498,W,5.79,310,050722,11.8,E,A,V*6C
20220705 070715+00:00 $WIMWV,333.09,R,4.49,N,A*20
20220705 070717+00:00 $IIMDA,29.9,I,1.013,B,13.5,C,,C,88.3,,,C,,T,,M,,N,,M*2F
20220705 070717+00:00 $HCHDT,312,T*37
20220705 070717+00:00 $GPRMC,070712,A,4857.9498,N,12310.5498,W,5.79,311,050722,11.8,E,A,V*6F
20220705 070717+00:00 $WIMWV,345.09,R,4.59,N,A*20
20220705 070719+00:00 $IIMDA,29.9,I,1.013,B,13.5,C,,C,88.3,,,C,,T,,M,,N,,M*2F
20220705 070719+00:00 $HCHDT,312.1,T*28
20220705 070719+00:00 $GPRMC,070714,A,4857.9498,N,12310.5498,W,5.79,311,050722,11.8,E,A,V*69
20220705 070719+00:00 $WIMWV,354.49,R,4.59,N,A*24
20220705 070721+00:00 $IIMDA,29.9,I,1.013,B,13.5,C,,C,88.3,,,C,,T,,M,,N,,M*2F
20220705 070721+00:00 $HCHDT,312.2,T*2B
20220705 070721+00:00 $GPRMC,070716,A,4857.9600,N,12310.5600,W,5.79,311,050722,11.8,E,A,V*6B
20220705 070721+00:00 $WIMWV,353.19,R,3.69,N,A*22
20220705 070723+00:00 $IIMDA,29.9,I,1.013,B,13.5,C,,C,88.3,,,C,,T,,M,,N,,M*2F
20220705 070723+00:00 $HCHDT,312.3,T*2A
20220705 070723+00:00 $GPRMC,070718,A,4857.9600,N,12310.5600,W,5.79,311,050722,11.8,E,A,V*65
20220705 070723+00:00 $WIMWV,349.79,R,4.2,N,A*15
20220705 070725+00:00 $IIMDA,29.9,I,1.013,B,13.5,C,,C,88.3,,,C,,T,,M,,N,,M*2F
20220705 070725+00:00 $HCHDT,312.4,T*2D
20220705 070725+00:00 $GPRMC,070720,A,4857.9600,N,12310.5600,W,5.79,311,050722,11.8,E,A,V*6E
20220705 070725+00:00 $WIMWV,350.49,R,4.59,N,A*20
20220705 070727+00:00 $IIMDA,29.9,I,1.013,B,13.5,C,,C,88.3,,,C,,T,,M,,N,,M*2F
20220705 070727+00:00 $HCHDT,312.5,T*2C
20220705 070727+00:00 $GPRMC,070722,A,4857.9600,N,12310.5696,W,5.79,311,050722,11.8,E,A,V*63
20220705 070727+00:00 $WIMWV,0.19,R,5.19,N,A*26
20220705 070729+00:00 $IIMDA,29.9,I,1.013,B,13.5,C,,C,88.3,,,C,,T,,M,,N,,M*2F
20220705 070729+00:00 $HCHDT,312.6,T*2F
20220705 070729+00:00 $GPRMC,070724,A,4857.9696,N,12310.5696,W,5.79,311,050722,11.8,E,A,V*6A
20220705 070729+00:00 $WIMWV,353.59,R,5,N,A*01
20220705 070731+00:00 $IIMDA,29.9,I,1.013,B,13.5,C,,C,88.3,,,C,,T,,M,,N,,M*2F
20220705 070731+00:00 $HCHDT,312.7,T*2E
20220705 070731+00:00 $GPRMC,070726,A,4857.9696,N,12310.5696,W,5.79,311,050722,11.8,E,A,V*68
20220705 070731+00:00 $WIMWV,351.39,R,3.79,N,A*23
20220705 070733+00:00 $IIMDA,29.9,I,1.013,B,13.5,C,,C,88.3,,,C,,T,,M,,N,,M*2F
20220705 070733+00:00 $HCHDT,312.7,T*2E
20220705 070733+00:00 $GPRMC,070728,A,4857.9696,N,12310.5798,W,5.79,311,050722,11.8,E,A,V*69
20220705 070733+00:00 $WIMWV,26.5,R,0.99,N,A*22
20220705 070735+00:00 $IIMDA,29.9,I,1.013,B,13.5,C,,C,88.3,,,C,,T,,M,,N,,M*2F
20220705 070735+00:00 $HCHDT,312.7,T*2E
20220705 070735+00:00 $GPRMC,070730,A,4857.9696,N,12310.5798,W,5.79,311,050722,11.8,E,A,V*60
20220705 070735+00:00 $WIMWV,354.29,R,3.79,N,A*27
20220705 070737+00:00 $IIMDA,29.9,I,1.013,B,13.5,C,,C,88.3,,,C,,T,,M,,N,,M*2F
20220705 070737+00:00 $HCHDT,312.7,T*2E
20220705 070737+00:00 $GPRMC,070732,A,4857.9696,N,12310.5900,W,5.79,311,050722,11.8,E,A,V*6D
20220705 070737+00:00 $WIMWV,352.09,R,4.3,N,A*19
20220705 070739+00:00 $IIMDA,29.9,I,1.013,B,13.5,C,,C,88.3,,,C,,T,,M,,N,,M*2F
20220705 070739+00:00 $HCHDT,312.7,T*2E
20220705 070739+00:00 $GPRMC,070734,A,4857.9798,N,12310.5900,W,5.79,311,050722,11.8,E,A,V*64
20220705 070739+00:00 $WIMWV,349.49,R,3.98,N,A*22
20220705 070741+00:00 $IIMDA,29.9,I,1.013,B,13.5,C,,C,88.3,,,C,,T,,M,,N,,M*2F
20220705 070741+00:00 $HCHDT,312.6,T*2F
20220705 070741+00:00 $GPRMC,070736,A,4857.9798,N,12310.5900,W,5.79,311,050722,11.8,E,A,V*66
20220705 070741+00:00 $WIMWV,350.39,R,5,N,A*04
