20220704 100001+00:00 $IIMDA,29.9,I,1.011,B,13,C,,C,88.5,,,C,,T,,M,,N,,M*30
20220704 100001+00:00 $HCHDT,120.8,T*22
20220704 100001+00:00 $GPRMC,095956,A,4907.7700,N,12618.5196,W,9.29,122,040722,12.2,E,A,V*67
20220704 100001+00:00 $WIMWV,217.79,R,3.69,N,A*25
20220704 100003+00:00 $IIMDA,29.9,I,1.011,B,13,C,,C,88.5,,,C,,T,,M,,N,,M*30
20220704 100003+00:00 $HCHDT,120.8,T*22
20220704 100003+00:00 $GPRMC,095958,A,4907.7598,N,12618.5100,W,9.29,123,040722,12.2,E,A,V*64
20220704 100003+00:00 $WIMWV,236.69,R,2.8,N,A*11
20220704 100005+00:00 $IIMDA,29.9,I,1.011,B,13,C,,C,88.5,,,C,,T,,M,,N,,M*30
20220704 100005+00:00 $HCHDT,120.8,T*22
20220704 100005+00:00 $GPRMC,100000,A,4907.7598,N,12618.5100,W,9.29,123,040722,12.2,E,A,V*6D
20220704 100005+00:00 $WIMWV,203.29,R,3.79,N,A*24
20220704 100007+00:00 $IIMDA,29.9,I,1.011,B,13,C,,C,88.5,,,C,,T,,M,,N,,M*30
20220704 100007+00:00 $HCHDT,120.7,T*2D
20220704 100007+00:00 $GPRMC,100002,A,4907.7598,N,12618.4998,W,9.29,123,040722,12.2,E,A,V*67
20220704 100007+00:00 $WIMWV,207.49,R,4.3,N,A*1C
20220704 100009+00:00 $IIMDA,29.9,I,1.011,B,13,C,,C,88.5,,,C,,T,,M,,N,,M*30
20220704 100009+00:00 $HCHDT,120.5,T*2F
20220704 100009+00:00 $GPRMC,100004,A,4907.7598,N,12618.4896,W,9.29,122,040722,12.2,E,A,V*6F
20220704 100009+00:00 $WIMWV,204.39,R,4.59,N,A*27
20220704 100011+00:00 $IIMDA,29.9,I,1.011,B,13,C,,C,88.5,,,C,,T,,M,,N,,M*30
20220704 100011+00:00 $HCHDT,120.6,T*2C
20220704 100011+00:00 $GPRMC,100006,A,4907.7496,N,12618.4896,W,9.29,122,040722,12.2,E,A,V*62
20220704 100011+00:00 $WIMWV,221.49,R,4.68,N,A*25
20220704 100013+00:00 $IIMDA,29.9,I,1.011,B,13,C,,C,88.4,,,C,,T,,M,,N,,M*31
20220704 100013+00:00 $HCHDT,120.9,T*23
20220704 100013+00:00 $GPRMC,100008,A,4907.7496,N,12618.4800,W,9.29,123,040722,12.2,E,A,V*62
20220704 100013+00:00 $WIMWV,210.6,R,5.19,N,A*1B
20220704 100015+00:00 $IIMDA,29.9,I,1.011,B,13,C,,C,88.4,,,C,,T,,M,,N,,M*31
20220704 100015+00:00 $HCHDT,121.3,T*28
20220704 100015+00:00 $GPRMC,100010,A,4907.7496,N,12618.4698,W,9.29,123,040722,12.2,E,A,V*64
20220704 100015+00:00 $WIMWV,194.59,R,4.9,N,A*1E
20220704 100017+00:00 $IIMDA,29.9,I,1.011,B,13,C,,C,88.3,,,C,,T,,M,,N,,M*36
20220704 100017+00:00 $HCHDT,121.6,T*2D
20220704 100017+00:00 $GPRMC,100012,A,4907.7400,N,12618.4698,W,9.29,123,040722,12.2,E,A,V*69
20220704 100017+00:00 $WIMWV,199.29,R,4.08,N,A*25
20220704 100019+00:00 $IIMDA,29.9,I,1.011,B,13,C,,C,88.3,,,C,,T,,M,,N,,M*36
20220704 100019+00:00 $HCHDT,121.9,T*22
20220704 100019+00:00 $GPRMC,100014,A,4907.7400,N,12618.4596,W,9.29,123,040722,12.2,E,A,V*62
20220704 100019+00:00 $WIMWV,204.2,R,4.39,N,A*19
20220704 100021+00:00 $IIMDA,29.9,I,1.011,B,13,C,,C,88.2,,,C,,T,,M,,N,,M*37
20220704 100021+00:00 $HCHDT,122.6,T*2E
20220704 100021+00:00 $GPRMC,100016,A,4907.7400,N,12618.4500,W,9.29,123,040722,12.2,E,A,V*6F
20220704 100021+00:00 $WIMWV,191.79,R,4.3,N,A*13
20220704 100023+00:00 $IIMDA,29.9,I,1.011,B,13,C,,C,88.2,,,C,,T,,M,,N,,M*37
20220704 100023+00:00 $HCHDT,122.9,T*21
20220704 100023+00:00 $GPRMC,100018,A,4907.7400,N,12618.4500,W,9.29,123,040722,12.2,E,A,V*61
20220704 100023+00:00 $WIMWV,232.7,R,3.79,N,A*1A
20220704 100025+00:00 $IIMDA,29.9,I,1.011,B,13,C,,C,88.1,,,C,,T,,M,,N,,M*34
20220704 100025+00:00 $HCHDT,122.7,T*2F
20220704 100025+00:00 $GPRMC,100020,A,4907.7298,N,12618.4398,W,9.29,124,040722,12.2,E,A,V*6D
20220704 100025+00:00 $WIMWV,234.49,R,3.98,N,A*29
20220704 100027+00:00 $IIMDA,29.9,I,1.011,B,13,C,,C,88.1,,,C,,T,,M,,N,,M*34
20220704 100027+00:00 $HCHDT,123.1,T*28
20220704 100027+00:00 $GPRMC,100022,A,4907.7298,N,12618.4296,W,9.29,124,040722,12.2,E,A,V*60
20220704 100027+00:00 $WIMWV,195.89,R,3.29,N,A*27
20220704 100029+00:00 $IIMDA,29.9,I,1.011,B,13,C,,C,88.1,,,C,,T,,M,,N,,M*34
20220704 100029+00:00 $HCHDT,123.6,T*2F
20220704 100029+00:00 $GPRMC,100024,A,4907.7298,N,12618.4296,W,9.29,124,040722,12.2,E,A,V*66
20220704 100029+00:00 $WIMWV,189.2,R,3.19,N,A*1A
20220704 100031+00:00 $IIMDA,29.9,I,1.011,B,13,C,,C,88.2,,,C,,T,,M,,N,,M*37
20220704 100031+00:00 $HCHDT,123.6,T*2F
20220704 100031+00:00 $GPRMC,100026,A,4907.7196,N,12618.4200,W,9.29,125,040722,12.2,E,A,V*67
20220704 100031+00:00 $WIMWV,200.19,R,2.29,N,A*20
20220704 100033+00:00 $IIMDA,29.9,I,1.011,B,13,C,,C,88.2,,,C,,T,,M,,N,,M*37
20220704 100033+00:00 $HCHDT,123.3,T*2A
20220704 100033+00:00 $GPRMC,100028,A,4907.7196,N,12618.4200,W,9.29,125,040722,12.2,E,A,V*69
20220704 100033+00:00 $WIMWV,229.19,R,3.19,N,A*29
20220704 100035+00:00 $IIMDA,29.9,I,1.011,B,13,C,,C,88.3,,,C,,T,,M,,N,,M*36
20220704 100035+00:00 $HCHDT,122.8,T*20
20220704 100035+00:00 $GPRMC,100030,A,4907.7196,N,12618.4098,W,9.29,125,040722,12.2,E,A,V*63
20220704 100035+00:00 $WIMWV,178.99,R,3.89,N,A*2F
20220704 100037+00:00 $IIMDA,29.9,I,1.011,B,13,C,,C,88.5,,,C,,T,,M,,N,,M*30
20220704 100037+00:00 $HCHDT,123.2,T*2B
20220704 100037+00:00 $GPRMC,100032,A,4907.7196,N,12618.3996,W,9.29,125,040722,12.2,E,A,V*61
20220704 100037+00:00 $WIMWV,213.09,R,1.98,N,A*2A
20220704 100039+00:00 $IIMDA,29.9,I,1.011,B,13,C,,C,88.6,,,C,,T,,M,,N,,M*33
20220704 100039+00:00 $HCHDT,123.2,T*2B
20220704 100039+00:00 $GPRMC,100034,A,4907.7100,N,12618.3996,W,9.29,126,040722,12.2,E,A,V*6B
20220704 100039+00:00 $WIMWV,222.49,R,1.69,N,A*22
20220704 100041+00:00 $IIMDA,29.9,I,1.011,B,13,C,,C,88.7,,,C,,T,,M,,N,,M*32
20220704 100041+00:00 $HCHDT,122.8,T*20
20220704 100041+00:00 $GPRMC,100036,A,4907.7100,N,12618.3900,W,9.29,126,040722,12.2,E,A,V*66
20220704 100041+00:00 $WIMWV,227.89,R,2.2,N,A*15
20220704 100043+00:00 $IIMDA,29.9,I,1.011,B,13,C,,C,88.8,,,C,,T,,M,,N,,M*3D
20220704 100043+00:00 $HCHDT,122.2,T*2A
20220704 100043+00:00 $GPRMC,100038,A,4907.7100,N,12618.3798,W,9.29,126,040722,12.2,E,A,V*67
20220704 100043+00:00 $WIMWV,207.1,R,3.6,N,A*22
20220704 100045+00:00 $IIMDA,29.9,I,1.011,B,13,C,,C,88.9,,,C,,T,,M,,N,,M*3C
20220704 100045+00:00 $HCHDT,121.9,T*22
20220704 100045+00:00 $GPRMC,100040,A,4907.6998,N,12618.3798,W,9.29,125,040722,12.2,E,A,V*63
20220704 100045+00:00 $WIMWV,185.29,R,3.79,N,A*29
20220704 100047+00:00 $IIMDA,29.9,I,1.011,B,13,C,,C,88.9,,,C,,T,,M,,N,,M*3C
20220704 100047+00:00 $HCHDT,121.9,T*22
20220704 100047+00:00 $GPRMC,100042,A,4907.6998,N,12618.3696,W,9.29,125,040722,12.2,E,A,V*6E
20220704 100047+00:00 $WIMWV,177.69,R,3.5,N,A*1B
20220704 100049+00:00 $IIMDA,29.9,I,1.011,B,13,C,,C,89,,,C,,T,,M,,N,,M*2A
20220704 100049+00:00 $HCHDT,122.3,T*2B
20220704 100049+00:00 $GPRMC,100044,A,4907.6998,N,12618.3600,W,9.41,125,040722,12.2,E,A,V*69
20220704 100049+00:00 $WIMWV,218.19,R,3.38,N,A*28
20220704 100051+00:00 $IIMDA,29.9,I,1.011,B,13,C,,C,89.1,,,C,,T,,M,,N,,M*35
20220704 100051+00:00 $HCHDT,122.3,T*2B
20220704 100051+00:00 $GPRMC,100046,A,4907.6896,N,12618.3600,W,9.41,125,040722,12.2,E,A,V*64
20220704 100051+00:00 $WIMWV,234.59,R,3.69,N,A*26
20220704 100053+00:00 $IIMDA,29.9,I,1.011,B,13,C,,C,89.1,,,C,,T,,M,,N,,M*35
20220704 100053+00:00 $HCHDT,121.8,T*23
20220704 100053+00:00 $GPRMC,100048,A,4907.6896,N,12618.3498,W,9.41,125,040722,12.2,E,A,V*69
20220704 100053+00:00 $WIMWV,196.19,R,3.6,N,A*10
20220704 100055+00:00 $IIMDA,29.9,I,1.011,B,13,C,,C,89,,,C,,T,,M,,N,,M*2A
20220704 100055+00:00 $HCHDT,121.9,T*22
20220704 100055+00:00 $GPRMC,100050,A,4907.6896,N,12618.3396,W,9.41,124,040722,12.2,E,A,V*68
20220704 100055+00:00 $WIMWV,200.19,R,3.38,N,A*21
20220704 100057+00:00 $IIMDA,29.9,I,1.011,B,13,C,,C,89,,,C,,T,,M,,N,,M*2A
20220704 100057+00:00 $HCHDT,121.9,T*22
20220704 100057+00:00 $GPRMC,100052,A,4907.6896,N,12618.3396,W,9.29,125,040722,12.2,E,A,V*65
20220704 100057+00:00 $WIMWV,208.69,R,2.29,N,A*2F
20220704 100059+00:00 $IIMDA,29.9,I,1.011,B,13,C,,C,88.9,,,C,,T,,M,,N,,M*3C
20220704 100059+00:00 $HCHDT,121.9,T*22
20220704 100059+00:00 $GPRMC,100054,A,4907.6800,N,12618.3300,W,9.29,124,040722,12.2,E,A,V*62
20220704 100059+00:00 $WIMWV,180.6,R,1.98,N,A*1C
20220704 100101+00:00 $IIMDA,29.9,I,1.011,B,13,C,,C,89,,,C,,T,,M,,N,,M*2A
20220704 100101+00:00 $HCHDT,121.7,T*2C
20220704 100101+00:00 $GPRMC,100056,A,4907.6800,N,12618.3198,W,9.29,124,040722,12.2,E,A,V*63
20220704 100101+00:00 $WIMWV,221.09,R,0.89,N,A*2A
20220704 100103+00:00 $IIMDA,29.9,I,1.011,B,13,C,,C,88.9,,,C,,T,,M,,N,,M*3C
20220704 100103+00:00 $HCHDT,122.6,T*2E
20220704 100103+00:00 $GPRMC,100058,A,4907.6800,N,12618.3198,W,9.29,124,040722,12.2,E,A,V*6D
20220704 100103+00:00 $WIMWV,230.99,R,2.39,N,A*2A
20220704 100105+00:00 $IIMDA,29.9,I,1.011,B,13,C,,C,88.9,,,C,,T,,M,,N,,M*3C
20220704 100105+00:00 $HCHDT,123.1,T*28
20220704 100105+00:00 $GPRMC,100100,A,4907.6698,N,12618.3096,W,9.29,124,040722,12.2,E,A,V*61
20220704 100105+00:00 $WIMWV,215.39,R,2.68,N,A*23
20220704 100107+00:00 $IIMDA,29.9,I,1.011,B,13,C,,C,88.9,,,C,,T,,M,,N,,M*3C
20220704 100107+00:00 $HCHDT,123.2,T*2B
20220704 100107+00:00 $GPRMC,100102,A,4907.6698,N,12618.3000,W,9.41,124,040722,12.2,E,A,V*62
20220704 100107+00:00 $WIMWV,198.7,R,3.19,N,A*1F
20220704 100109+00:00 $IIMDA,29.9,I,1.011,B,13,C,,C,88.9,,,C,,T,,M,,N,,M*3C
20220704 100109+00:00 $HCHDT,122.4,T*2C
20220704 100109+00:00 $GPRMC,100104,A,4907.6698,N,12618.3000,W,9.41,124,040722,12.2,E,A,V*64
20220704 100109+00:00 $WIMWV,197.99,R,2.9,N,A*17
20220704 100111+00:00 $IIMDA,29.9,I,1.011,B,13,C,,C,89,,,C,,T,,M,,N,,M*2A
20220704 100111+00:00 $HCHDT,121.9,T*22
20220704 100111+00:00 $GPRMC,100106,A,4907.6698,N,12618.2898,W,9.29,124,040722,12.2,E,A,V*60
20220704 100111+00:00 $WIMWV,91.7,R,0.58,N,A*21
20220704 100113+00:00 $IIMDA,29.9,I,1.011,B,13,C,,C,89,,,C,,T,,M,,N,,M*2A
20220704 100113+00:00 $HCHDT,122.4,T*2C
20220704 100113+00:00 $GPRMC,100108,A,4907.6596,N,12618.2898,W,9.29,124,040722,12.2,E,A,V*63
20220704 100113+00:00 $WIMWV,289.59,R,0.49,N,A*21
20220704 100115+00:00 $IIMDA,29.9,I,1.011,B,13,C,,C,89,,,C,,T,,M,,N,,M*2A
20220704 100115+00:00 $HCHDT,123.3,T*2A
20220704 100115+00:00 $GPRMC,100110,A,4907.6596,N,12618.2796,W,9.29,125,040722,12.2,E,A,V*6A
20220704 100115+00:00 $WIMWV,204.59,R,2.1,N,A*1A
20220704 100117+00:00 $IIMDA,29.9,I,1.011,B,13,C,,C,89,,,C,,T,,M,,N,,M*2A
20220704 100117+00:00 $HCHDT,123.8,T*21
20220704 100117+00:00 $GPRMC,100112,A,4907.6596,N,12618.2700,W,9.29,125,040722,12.2,E,A,V*67
20220704 100117+00:00 $WIMWV,186.1,R,2.29,N,A*14
20220704 100119+00:00 $IIMDA,29.9,I,1.011,B,13,C,,C,89,,,C,,T,,M,,N,,M*2A
20220704 100119+00:00 $HCHDT,123.8,T*21
20220704 100119+00:00 $GPRMC,100114,A,4907.6500,N,12618.2700,W,9.29,125,040722,12.2,E,A,V*6E
20220704 100119+00:00 $WIMWV,212.6,R,2.39,N,A*1C
20220704 100121+00:00 $IIMDA,29.9,I,1.011,B,13,C,,C,89.1,,,C,,T,,M,,N,,M*35
20220704 100121+00:00 $HCHDT,123.3,T*2A
20220704 100121+00:00 $GPRMC,100116,A,4907.6500,N,12618.2598,W,9.29,125,040722,12.2,E,A,V*6F
20220704 100121+00:00 $WIMWV,224.59,R,1.79,N,A*24
20220704 100123+00:00 $IIMDA,29.9,I,1.011,B,13,C,,C,89.1,,,C,,T,,M,,N,,M*35
20220704 100123+00:00 $HCHDT,123,T*37
20220704 100123+00:00 $GPRMC,100118,A,4907.6500,N,12618.2496,W,9.41,125,040722,12.2,E,A,V*60
20220704 100123+00:00 $WIMWV,34.39,R,0.39,N,A*14
20220704 100125+00:00 $IIMDA,29.9,I,1.011,B,13,C,,C,89.2,,,C,,T,,M,,N,,M*36
20220704 100125+00:00 $HCHDT,123.3,T*2A
20220704 100125+00:00 $GPRMC,100120,A,4907.6398,N,12618.2496,W,9.41,125,040722,12.2,E,A,V*6C
20220704 100125+00:00 $WIMWV,76.4,R,0.89,N,A*27
20220704 100127+00:00 $IIMDA,29.9,I,1.011,B,13,C,,C,89.2,,,C,,T,,M,,N,,M*36
20220704 100127+00:00 $HCHDT,124,T*30
20220704 100127+00:00 $GPRMC,100122,A,4907.6398,N,12618.2400,W,9.41,125,040722,12.2,E,A,V*61
20220704 100127+00:00 $WIMWV,148.49,R,2.49,N,A*2C
20220704 100129+00:00 $IIMDA,29.9,I,1.011,B,13,C,,C,89.2,,,C,,T,,M,,N,,M*36
20220704 100129+00:00 $HCHDT,124.2,T*2C
20220704 100129+00:00 $GPRMC,100124,A,4907.6398,N,12618.2298,W,9.29,125,040722,12.2,E,A,V*6E
20220704 100129+00:00 $WIMWV,63.5,R,0.58,N,A*2E
20220704 100131+00:00 $IIMDA,29.9,I,1.011,B,13,C,,C,89.2,,,C,,T,,M,,N,,M*36
20220704 100131+00:00 $HCHDT,123.9,T*20
20220704 100131+00:00 $GPRMC,100126,A,4907.6398,N,12618.2298,W,9.29,125,040722,12.2,E,A,V*6C
20220704 100131+00:00 $WIMWV,136.99,R,0.8,N,A*1F
20220704 100133+00:00 $IIMDA,29.9,I,1.011,B,13.1,C,,C,89.2,,,C,,T,,M,,N,,M*29
20220704 100133+00:00 $HCHDT,123.6,T*2F
20220704 100133+00:00 $GPRMC,100128,A,4907.6296,N,12618.2196,W,9.29,125,040722,12.2,E,A,V*60
20220704 100133+00:00 $WIMWV,95.6,R,2.59,N,A*27
20220704 100135+00:00 $IIMDA,29.9,I,1.011,B,13.1,C,,C,89.2,,,C,,T,,M,,N,,M*29
20220704 100135+00:00 $HCHDT,123.4,T*2D
20220704 100135+00:00 $GPRMC,100130,A,4907.6296,N,12618.2100,W,9.41,125,040722,12.2,E,A,V*68
20220704 100135+00:00 $WIMWV,58.2,R,0.99,N,A*2C
20220704 100137+00:00 $IIMDA,29.9,I,1.011,B,13.1,C,,C,89.2,,,C,,T,,M,,N,,M*29
20220704 100137+00:00 $HCHDT,123.6,T*2F
20220704 100137+00:00 $GPRMC,100132,A,4907.6296,N,12618.2100,W,9.41,125,040722,12.2,E,A,V*6A
20220704 100137+00:00 $WIMWV,149.5,R,2.2,N,A*2A
20220704 100139+00:00 $IIMDA,29.9,I,1.011,B,13.1,C,,C,89.2,,,C,,T,,M,,N,,M*29
20220704 100139+00:00 $HCHDT,123.4,T*2D
20220704 100139+00:00 $GPRMC,100134,A,4907.6200,N,12618.1998,W,9.41,125,040722,12.2,E,A,V*69
20220704 100139+00:00 $WIMWV,146.69,R,3.19,N,A*24
20220704 100141+00:00 $IIMDA,29.9,I,1.011,B,13.1,C,,C,89.2,,,C,,T,,M,,N,,M*29
20220704 100141+00:00 $HCHDT,122.5,T*2D
20220704 100141+00:00 $GPRMC,100136,A,4907.6200,N,12618.1896,W,9.41,125,040722,12.2,E,A,V*64
20220704 100141+00:00 $WIMWV,128.5,R,5.09,N,A*11
20220704 100143+00:00 $IIMDA,29.9,I,1.011,B,13.1,C,,C,89.2,,,C,,T,,M,,N,,M*29
20220704 100143+00:00 $HCHDT,122,T*36
20220704 100143+00:00 $GPRMC,100138,A,4907.6200,N,12618.1896,W,9.41,125,040722,12.2,E,A,V*6A
20220704 100143+00:00 $WIMWV,144.69,R,2.59,N,A*23
20220704 100145+00:00 $IIMDA,29.9,I,1.011,B,13.1,C,,C,89.2,,,C,,T,,M,,N,,M*29
20220704 100145+00:00 $HCHDT,122.4,T*2C
20220704 100145+00:00 $GPRMC,100140,A,4907.6098,N,12618.1800,W,9.41,125,040722,12.2,E,A,V*69
20220704 100145+00:00 $WIMWV,213.19,R,2.2,N,A*1B
20220704 100147+00:00 $IIMDA,29.9,I,1.011,B,13.1,C,,C,89.2,,,C,,T,,M,,N,,M*29
20220704 100147+00:00 $HCHDT,122.7,T*2F
20220704 100147+00:00 $GPRMC,100142,A,4907.6098,N,12618.1698,W,9.41,125,040722,12.2,E,A,V*64
20220704 100147+00:00 $WIMWV,210.09,R,2.2,N,A*19
20220704 100149+00:00 $IIMDA,29.9,I,1.011,B,13.1,C,,C,89.2,,,C,,T,,M,,N,,M*29
20220704 100149+00:00 $HCHDT,123.2,T*2B
20220704 100149+00:00 $GPRMC,100144,A,4907.6098,N,12618.1698,W,9.41,124,040722,12.2,E,A,V*63
20220704 100149+00:00 $WIMWV,126.19,R,4.39,N,A*20
20220704 100151+00:00 $IIMDA,29.9,I,1.011,B,13.1,C,,C,89.3,,,C,,T,,M,,N,,M*28
20220704 100151+00:00 $HCHDT,122.8,T*20
20220704 100151+00:00 $GPRMC,100146,A,4907.6098,N,12618.1596,W,9.41,124,040722,12.2,E,A,V*6C
20220704 100151+00:00 $WIMWV,183.99,R,3.19,N,A*22
20220704 100153+00:00 $IIMDA,29.9,I,1.011,B,13.1,C,,C,89.2,,,C,,T,,M,,N,,M*29
20220704 100153+00:00 $HCHDT,122.5,T*2D
20220704 100153+00:00 $GPRMC,100148,A,4907.5996,N,12618.1596,W,9.41,124,040722,12.2,E,A,V*66
20220704 100153+00:00 $WIMWV,191.4,R,3.38,N,A*16
20220704 100155+00:00 $IIMDA,29.9,I,1.011,B,13.1,C,,C,89.2,,,C,,T,,M,,N,,M*29
20220704 100155+00:00 $HCHDT,122.8,T*20
20220704 100155+00:00 $GPRMC,100150,A,4907.5996,N,12618.1500,W,9.29,124,040722,12.2,E,A,V*6E
20220704 100155+00:00 $WIMWV,142.49,R,1.79,N,A*26
20220704 100157+00:00 $IIMDA,29.9,I,1.011,B,13.1,C,,C,89.1,,,C,,T,,M,,N,,M*2A
20220704 100157+00:00 $HCHDT,123.5,T*2C
20220704 100157+00:00 $GPRMC,100152,A,4907.5996,N,12618.1398,W,9.29,124,040722,12.2,E,A,V*6B
20220704 100157+00:00 $WIMWV,236.59,R,1.19,N,A*21
20220704 100159+00:00 $IIMDA,29.9,I,1.011,B,13.1,C,,C,89.1,,,C,,T,,M,,N,,M*2A
20220704 100159+00:00 $HCHDT,123.7,T*2E
20220704 100159+00:00 $GPRMC,100154,A,4907.5900,N,12618.1398,W,9.29,125,040722,12.2,E,A,V*63
20220704 100159+00:00 $WIMWV,218.19,R,2.29,N,A*29
20220704 100201+00:00 $IIMDA,29.9,I,1.011,B,13.1,C,,C,89,,,C,,T,,M,,N,,M*35
20220704 100201+00:00 $HCHDT,123.6,T*2F
20220704 100201+00:00 $GPRMC,100156,A,4907.5900,N,12618.1296,W,9.41,125,040722,12.2,E,A,V*60
20220704 100201+00:00 $WIMWV,188.59,R,3.38,N,A*26
20220704 100203+00:00 $IIMDA,29.9,I,1.011,B,13.1,C,,C,89,,,C,,T,,M,,N,,M*35
20220704 100203+00:00 $HCHDT,123.3,T*2A
20220704 100203+00:00 $GPRMC,100158,A,4907.5900,N,12618.1200,W,9.41,125,040722,12.2,E,A,V*61
20220704 100203+00:00 $WIMWV,193,R,3.19,N,A*0D
20220704 100205+00:00 $IIMDA,29.9,I,1.011,B,13.1,C,,C,89,,,C,,T,,M,,N,,M*35
20220704 100205+00:00 $HCHDT,123.1,T*28
20220704 100205+00:00 $GPRMC,100200,A,4907.5900,N,12618.1200,W,9.41,125,040722,12.2,E,A,V*6F
20220704 100205+00:00 $WIMWV,127.29,R,4.9,N,A*11
20220704 100207+00:00 $IIMDA,29.9,I,1.011,B,13.1,C,,C,89,,,C,,T,,M,,N,,M*35
20220704 100207+00:00 $HCHDT,123.1,T*28
20220704 100207+00:00 $GPRMC,100202,A,4907.5798,N,12618.1098,W,9.41,125,040722,12.2,E,A,V*61
20220704 100207+00:00 $WIMWV,154.69,R,2.99,N,A*2E
20220704 100209+00:00 $IIMDA,29.9,I,1.011,B,13.1,C,,C,89,,,C,,T,,M,,N,,M*35
20220704 100209+00:00 $HCHDT,123.5,T*2C
20220704 100209+00:00 $GPRMC,100204,A,4907.5798,N,12618.0996,W,9.41,125,040722,12.2,E,A,V*61
20220704 100209+00:00 $WIMWV,176.9,R,2.99,N,A*18
20220704 100211+00:00 $IIMDA,29.9,I,1.011,B,13.1,C,,C,89,,,C,,T,,M,,N,,M*35
20220704 100211+00:00 $HCHDT,123.6,T*2F
20220704 100211+00:00 $GPRMC,100206,A,4907.5798,N,12618.0996,W,9.41,125,040722,12.2,E,A,V*63
20220704 100211+00:00 $WIMWV,189.99,R,3.6,N,A*16
20220704 100213+00:00 $IIMDA,29.9,I,1.011,B,13.1,C,,C,88.9,,,C,,T,,M,,N,,M*23
20220704 100213+00:00 $HCHDT,123.4,T*2D
20220704 100213+00:00 $GPRMC,100208,A,4907.5696,N,12618.0900,W,9.41,125,040722,12.2,E,A,V*6D
20220704 100213+00:00 $WIMWV,189.2,R,3.5,N,A*27
20220704 100215+00:00 $IIMDA,29.9,I,1.011,B,13.1,C,,C,88.8,,,C,,T,,M,,N,,M*22
20220704 100215+00:00 $HCHDT,122.9,T*21
20220704 100215+00:00 $GPRMC,100210,A,4907.5696,N,12618.0798,W,9.41,125,040722,12.2,E,A,V*6B
20220704 100215+00:00 $WIMWV,211.5,R,1.98,N,A*14
20220704 100217+00:00 $IIMDA,29.9,I,1.011,B,13.1,C,,C,88.7,,,C,,T,,M,,N,,M*2D
20220704 100217+00:00 $HCHDT,122.5,T*2D
20220704 100217+00:00 $GPRMC,100212,A,4907.5696,N,12618.0798,W,9.41,125,040722,12.2,E,A,V*69
20220704 100217+00:00 $WIMWV,207.59,R,1.4,N,A*1F
20220704 100219+00:00 $IIMDA,29.9,I,1.011,B,13.1,C,,C,88.6,,,C,,T,,M,,N,,M*2C
20220704 100219+00:00 $HCHDT,122.5,T*2D
20220704 100219+00:00 $GPRMC,100214,A,4907.5600,N,12618.0696,W,9.41,125,040722,12.2,E,A,V*6F
20220704 100219+00:00 $WIMWV,201.69,R,2.2,N,A*1F
20220704 100221+00:00 $IIMDA,29.9,I,1.011,B,13.1,C,,C,88.6,,,C,,T,,M,,N,,M*2C
20220704 100221+00:00 $HCHDT,122.7,T*2F
20220704 100221+00:00 $GPRMC,100216,A,4907.5600,N,12618.0600,W,9.41,124,040722,12.2,E,A,V*63
20220704 100221+00:00 $WIMWV,186.89,R,1.19,N,A*24
20220704 100223+00:00 $IIMDA,29.9,I,1.011,B,13.1,C,,C,88.6,,,C,,T,,M,,N,,M*2C
20220704 100223+00:00 $HCHDT,122.9,T*21
20220704 100223+00:00 $GPRMC,100218,A,4907.5600,N,12618.0600,W,9.41,124,040722,12.2,E,A,V*6D
20220704 100223+00:00 $WIMWV,205.69,R,3.38,N,A*23
20220704 100225+00:00 $IIMDA,29.9,I,1.011,B,13.1,C,,C,88.6,,,C,,T,,M,,N,,M*2C
20220704 100225+00:00 $HCHDT,123.4,T*2D
20220704 100225+00:00 $GPRMC,100220,A,4907.5600,N,12618.0498,W,9.41,125,040722,12.2,E,A,V*64
20220704 100225+00:00 $WIMWV,170,R,4.39,N,A*05
20220704 100227+00:00 $IIMDA,29.9,I,1.011,B,13.1,C,,C,88.6,,,C,,T,,M,,N,,M*2C
20220704 100227+00:00 $HCHDT,123.6,T*2F
20220704 100227+00:00 $GPRMC,100222,A,4907.5498,N,12618.0396,W,9.41,125,040722,12.2,E,A,V*6C
20220704 100227+00:00 $WIMWV,183.59,R,3.69,N,A*29
20220704 100229+00:00 $IIMDA,29.9,I,1.011,B,13.1,C,,C,88.7,,,C,,T,,M,,N,,M*2D
20220704 100229+00:00 $HCHDT,123,T*37
20220704 100229+00:00 $GPRMC,100224,A,4907.5498,N,12618.0396,W,9.41,125,040722,12.2,E,A,V*6A
20220704 100229+00:00 $WIMWV,188.39,R,5.29,N,A*26
20220704 100231+00:00 $IIMDA,29.9,I,1.011,B,13.1,C,,C,88.7,,,C,,T,,M,,N,,M*2D
20220704 100231+00:00 $HCHDT,122.8,T*20
20220704 100231+00:00 $GPRMC,100226,A,4907.5498,N,12618.0300,W,9.41,125,040722,12.2,E,A,V*67
20220704 100231+00:00 $WIMWV,180.6,R,2.2,N,A*2C
20220704 100233+00:00 $IIMDA,29.9,I,1.011,B,13.1,C,,C,88.7,,,C,,T,,M,,N,,M*2D
20220704 100233+00:00 $HCHDT,123.1,T*28
20220704 100233+00:00 $GPRMC,100228,A,4907.5396,N,12618.0198,W,9.41,125,040722,12.2,E,A,V*63
20220704 100233+00:00 $WIMWV,278.39,R,4.08,N,A*28
20220704 100235+00:00 $IIMDA,29.9,I,1.011,B,13.1,C,,C,88.8,,,C,,T,,M,,N,,M*22
20220704 100235+00:00 $HCHDT,123.3,T*2A
20220704 100235+00:00 $GPRMC,100230,A,4907.5396,N,12618.0198,W,9.41,125,040722,12.2,E,A,V*6A
20220704 100235+00:00 $WIMWV,150.69,R,0.49,N,A*25
20220704 100237+00:00 $IIMDA,29.9,I,1.011,B,13.1,C,,C,88.8,,,C,,T,,M,,N,,M*22
20220704 100237+00:00 $HCHDT,123.2,T*2B
20220704 100237+00:00 $GPRMC,100232,A,4907.5396,N,12618.0096,W,9.41,125,040722,12.2,E,A,V*67
20220704 100237+00:00 $WIMWV,196.79,R,2.99,N,A*21
20220704 100239+00:00 $IIMDA,29.9,I,1.011,B,13.1,C,,C,88.7,,,C,,T,,M,,N,,M*2D
20220704 100239+00:00 $HCHDT,123.1,T*28
20220704 100239+00:00 $GPRMC,100234,A,4907.5300,N,12618.0000,W,9.41,125,040722,12.2,E,A,V*61
20220704 100239+00:00 $WIMWV,150.6,R,1.4,N,A*24
20220704 100241+00:00 $IIMDA,29.9,I,1.011,B,13.1,C,,C,88.7,,,C,,T,,M,,N,,M*2D
20220704 100241+00:00 $HCHDT,122.7,T*2F
20220704 100241+00:00 $GPRMC,100236,A,4907.5300,N,12618.0000,W,9.41,125,040722,12.2,E,A,V*63
20220704 100241+00:00 $WIMWV,232.9,R,3.09,N,A*13
20220704 100243+00:00 $IIMDA,29.9,I,1.011,B,13.1,C,,C,88.7,,,C,,T,,M,,N,,M*2D
20220704 100243+00:00 $HCHDT,122.3,T*2B
20220704 100243+00:00 $GPRMC,100238,A,4907.5300,N,12617.9898,W,9.41,125,040722,12.2,E,A,V*62
20220704 100243+00:00 $WIMWV,205.69,R,2.9,N,A*10
20220704 100245+00:00 $IIMDA,29.9,I,1.011,B,13.1,C,,C,88.7,,,C,,T,,M,,N,,M*2D
20220704 100245+00:00 $HCHDT,121.9,T*22
20220704 100245+00:00 $GPRMC,100240,A,4907.5300,N,12617.9796,W,9.41,124,040722,12.2,E,A,V*6D
20220704 100245+00:00 $WIMWV,218.19,R,1.69,N,A*2E
20220704 100247+00:00 $IIMDA,29.9,I,1.011,B,13.1,C,,C,88.7,,,C,,T,,M,,N,,M*2D
20220704 100247+00:00 $HCHDT,122.1,T*29
20220704 100247+00:00 $GPRMC,100242,A,4907.5198,N,12617.9796,W,9.41,124,040722,12.2,E,A,V*6C
20220704 100247+00:00 $WIMWV,156.69,R,1.79,N,A*21
20220704 100249+00:00 $IIMDA,29.9,I,1.011,B,13.1,C,,C,88.7,,,C,,T,,M,,N,,M*2D
20220704 100249+00:00 $HCHDT,123.3,T*2A
20220704 100249+00:00 $GPRMC,100244,A,4907.5198,N,12617.9700,W,9.41,124,040722,12.2,E,A,V*65
20220704 100249+00:00 $WIMWV,206.99,R,2.9,N,A*1C
20220704 100251+00:00 $IIMDA,29.9,I,1.011,B,13.1,C,,C,88.7,,,C,,T,,M,,N,,M*2D
20220704 100251+00:00 $HCHDT,123.8,T*21
20220704 100251+00:00 $GPRMC,100246,A,4907.5198,N,12617.9700,W,9.41,125,040722,12.2,E,A,V*66
20220704 100251+00:00 $WIMWV,232.59,R,1.89,N,A*2C
20220704 100253+00:00 $IIMDA,29.9,I,1.011,B,13.1,C,,C,88.7,,,C,,T,,M,,N,,M*2D
20220704 100253+00:00 $HCHDT,123.2,T*2B
20220704 100253+00:00 $GPRMC,100248,A,4907.5096,N,12617.9598,W,9.41,124,040722,12.2,E,A,V*65
20220704 100253+00:00 $WIMWV,180.6,R,2.39,N,A*14
20220704 100255+00:00 $IIMDA,29.9,I,1.011,B,13.1,C,,C,88.7,,,C,,T,,M,,N,,M*2D
20220704 100255+00:00 $HCHDT,122.6,T*2E
20220704 100255+00:00 $GPRMC,100250,A,4907.5096,N,12617.9496,W,9.41,125,040722,12.2,E,A,V*62
20220704 100255+00:00 $WIMWV,146.69,R,3.29,N,A*27
20220704 100257+00:00 $IIMDA,29.9,I,1.011,B,13.1,C,,C,88.7,,,C,,T,,M,,N,,M*2D
20220704 100257+00:00 $HCHDT,123.3,T*2A
20220704 100257+00:00 $GPRMC,100252,A,4907.5096,N,12617.9496,W,9.41,125,040722,12.2,E,A,V*60
20220704 100257+00:00 $WIMWV,193,R,2.1,N,A*35
20220704 100259+00:00 $IIMDA,29.9,I,1.011,B,13.1,C,,C,88.7,,,C,,T,,M,,N,,M*2D
20220704 100259+00:00 $HCHDT,124.2,T*2C
20220704 100259+00:00 $GPRMC,100254,A,4907.5000,N,12617.9400,W,9.51,125,040722,12.2,E,A,V*67
20220704 100259+00:00 $WIMWV,184.29,R,2.39,N,A*2D
20220704 100301+00:00 $IIMDA,29.9,I,1.011,B,13.1,C,,C,88.7,,,C,,T,,M,,N,,M*2D
20220704 100301+00:00 $HCHDT,124,T*30
20220704 100301+00:00 $GPRMC,100256,A,4907.5000,N,12617.9298,W,9.51,125,040722,12.2,E,A,V*62
20220704 100301+00:00 $WIMWV,180.6,R,2.9,N,A*27
20220704 100303+00:00 $IIMDA,29.9,I,1.011,B,13.1,C,,C,88.7,,,C,,T,,M,,N,,M*2D
20220704 100303+00:00 $HCHDT,124,T*30
20220704 100303+00:00 $GPRMC,100258,A,4907.5000,N,12617.9298,W,9.51,125,040722,12.2,E,A,V*6C
20220704 100303+00:00 $WIMWV,177.39,R,3.69,N,A*24
20220704 100305+00:00 $IIMDA,29.9,I,1.011,B,13.1,C,,C,88.7,,,C,,T,,M,,N,,M*2D
20220704 100305+00:00 $HCHDT,123.7,T*2E
20220704 100305+00:00 $GPRMC,100300,A,4907.5000,N,12617.9196,W,9.51,125,040722,12.2,E,A,V*6D
20220704 100305+00:00 $WIMWV,169.49,R,1.19,N,A*29
20220704 100307+00:00 $IIMDA,29.9,I,1.011,B,13.1,C,,C,88.6,,,C,,T,,M,,N,,M*2C
20220704 100307+00:00 $HCHDT,123,T*37
20220704 100307+00:00 $GPRMC,100302,A,4907.4898,N,12617.9100,W,9.41,125,040722,12.2,E,A,V*69
20220704 100307+00:00 $WIMWV,99.4,R,2.29,N,A*2E
20220704 100309+00:00 $IIMDA,29.9,I,1.011,B,13.1,C,,C,88.6,,,C,,T,,M,,N,,M*2C
20220704 100309+00:00 $HCHDT,123.2,T*2B
20220704 100309+00:00 $GPRMC,100304,A,4907.4898,N,12617.9100,W,9.41,125,040722,12.2,E,A,V*6F
20220704 100309+00:00 $WIMWV,263.19,R,0.99,N,A*2C
20220704 100311+00:00 $IIMDA,29.9,I,1.011,B,13.1,C,,C,88.6,,,C,,T,,M,,N,,M*2C
20220704 100311+00:00 $HCHDT,123.6,T*2F
20220704 100311+00:00 $GPRMC,100306,A,4907.4898,N,12617.8998,W,9.41,125,040722,12.2,E,A,V*65
20220704 100311+00:00 $WIMWV,152.89,R,2.39,N,A*2C
20220704 100313+00:00 $IIMDA,29.9,I,1.011,B,13.1,C,,C,88.6,,,C,,T,,M,,N,,M*2C
20220704 100313+00:00 $HCHDT,123.8,T*21
20220704 100313+00:00 $GPRMC,100308,A,4907.4796,N,12617.8896,W,9.51,125,040722,12.2,E,A,V*64
20220704 100313+00:00 $WIMWV,144.6,R,2.29,N,A*1D
20220704 100315+00:00 $IIMDA,29.9,I,1.011,B,13.1,C,,C,88.6,,,C,,T,,M,,N,,M*2C
20220704 100315+00:00 $HCHDT,123.4,T*2D
20220704 100315+00:00 $GPRMC,100310,A,4907.4796,N,12617.8896,W,9.51,125,040722,12.2,E,A,V*6D
20220704 100315+00:00 $WIMWV,177.39,R,2.99,N,A*2A
20220704 100317+00:00 $IIMDA,29.9,I,1.011,B,13.1,C,,C,88.6,,,C,,T,,M,,N,,M*2C
20220704 100317+00:00 $HCHDT,122.7,T*2F
20220704 100317+00:00 $GPRMC,100312,A,4907.4796,N,12617.8800,W,9.51,125,040722,12.2,E,A,V*60
20220704 100317+00:00 $WIMWV,186.39,R,3.19,N,A*2D
20220704 100319+00:00 $IIMDA,29.9,I,1.011,B,13.1,C,,C,88.6,,,C,,T,,M,,N,,M*2C
20220704 100319+00:00 $HCHDT,122.3,T*2B
20220704 100319+00:00 $GPRMC,100314,A,4907.4700,N,12617.8698,W,9.51,125,040722,12.2,E,A,V*66
20220704 100319+00:00 $WIMWV,189.69,R,3.79,N,A*21
20220704 100321+00:00 $IIMDA,29.9,I,1.011,B,13.1,C,,C,88.5,,,C,,T,,M,,N,,M*2F
20220704 100321+00:00 $HCHDT,122.2,T*2A
20220704 100321+00:00 $GPRMC,100316,A,4907.4700,N,12617.8698,W,9.41,124,040722,12.2,E,A,V*64
20220704 100321+00:00 $WIMWV,197.6,R,3.19,N,A*11
20220704 100323+00:00 $IIMDA,29.9,I,1.011,B,13.1,C,,C,88.4,,,C,,T,,M,,N,,M*2E
20220704 100323+00:00 $HCHDT,122.7,T*2F
20220704 100323+00:00 $GPRMC,100318,A,4907.4700,N,12617.8596,W,9.41,124,040722,12.2,E,A,V*67
20220704 100323+00:00 $WIMWV,200.59,R,3.09,N,A*27
20220704 100325+00:00 $IIMDA,29.9,I,1.011,B,13.1,C,,C,88.4,,,C,,T,,M,,N,,M*2E
20220704 100325+00:00 $HCHDT,123.3,T*2A
20220704 100325+00:00 $GPRMC,100320,A,4907.4700,N,12617.8500,W,9.41,124,040722,12.2,E,A,V*63
20220704 100325+00:00 $WIMWV,158.69,R,3.19,N,A*2B
20220704 100327+00:00 $IIMDA,29.9,I,1.011,B,13.1,C,,C,88.4,,,C,,T,,M,,N,,M*2E
20220704 100327+00:00 $HCHDT,123.3,T*2A
20220704 100327+00:00 $GPRMC,100322,A,4907.4598,N,12617.8500,W,9.41,124,040722,12.2,E,A,V*62
20220704 100327+00:00 $WIMWV,147.89,R,2.2,N,A*10
20220704 100329+00:00 $IIMDA,29.9,I,1.011,B,13.1,C,,C,88.3,,,C,,T,,M,,N,,M*29
20220704 100329+00:00 $HCHDT,123.3,T*2A
20220704 100329+00:00 $GPRMC,100324,A,4907.4598,N,12617.8398,W,9.41,124,040722,12.2,E,A,V*63
20220704 100329+00:00 $WIMWV,221.59,R,2.59,N,A*20
20220704 100331+00:00 $IIMDA,29.9,I,1.011,B,13.1,C,,C,88.3,,,C,,T,,M,,N,,M*29
20220704 100331+00:00 $HCHDT,123.2,T*2B
20220704 100331+00:00 $GPRMC,100326,A,4907.4598,N,12617.8296,W,9.41,124,040722,12.2,E,A,V*6E
20220704 100331+00:00 $WIMWV,161.6,R,3.79,N,A*1E
20220704 100333+00:00 $IIMDA,29.9,I,1.011,B,13.1,C,,C,88.3,,,C,,T,,M,,N,,M*29
20220704 100333+00:00 $HCHDT,123.6,T*2F
20220704 100333+00:00 $GPRMC,100328,A,4907.4496,N,12617.8296,W,9.41,124,040722,12.2,E,A,V*6F
20220704 100333+00:00 $WIMWV,208.79,R,2.2,N,A*17
20220704 100335+00:00 $IIMDA,29.9,I,1.011,B,13.1,C,,C,88.2,,,C,,T,,M,,N,,M*28
20220704 100335+00:00 $HCHDT,124,T*30
20220704 100335+00:00 $GPRMC,100330,A,4907.4496,N,12617.8200,W,9.41,125,040722,12.2,E,A,V*68
20220704 100335+00:00 $WIMWV,269.99,R,0.89,N,A*2F
20220704 100337+00:00 $IIMDA,29.9,I,1.011,B,13.1,C,,C,88.2,,,C,,T,,M,,N,,M*28
20220704 100337+00:00 $HCHDT,124.4,T*2A
20220704 100337+00:00 $GPRMC,100332,A,4907.4496,N,12617.8098,W,9.51,125,040722,12.2,E,A,V*68
20220704 100337+00:00 $WIMWV,175.79,R,1.4,N,A*1B
20220704 100339+00:00 $IIMDA,29.9,I,1.011,B,13.1,C,,C,88.2,,,C,,T,,M,,N,,M*28
20220704 100339+00:00 $HCHDT,124.8,T*26
20220704 100339+00:00 $GPRMC,100334,A,4907.4400,N,12617.8098,W,9.51,125,040722,12.2,E,A,V*61
20220704 100339+00:00 $WIMWV,149.99,R,3.6,N,A*1A
20220704 100341+00:00 $IIMDA,29.9,I,1.011,B,13.1,C,,C,88.3,,,C,,T,,M,,N,,M*29
20220704 100341+00:00 $HCHDT,124.7,T*29
20220704 100341+00:00 $GPRMC,100336,A,4907.4400,N,12617.7996,W,9.41,125,040722,12.2,E,A,V*6A
20220704 100341+00:00 $WIMWV,116.69,R,2.59,N,A*24
20220704 100343+00:00 $IIMDA,29.9,I,1.011,B,13.1,C,,C,88.3,,,C,,T,,M,,N,,M*29
20220704 100343+00:00 $HCHDT,124.8,T*26
20220704 100343+00:00 $GPRMC,100338,A,4907.4400,N,12617.7996,W,9.41,126,040722,12.2,E,A,V*67
20220704 100343+00:00 $WIMWV,91.7,R,1.09,N,A*24
20220704 100345+00:00 $IIMDA,29.9,I,1.011,B,13.1,C,,C,88.3,,,C,,T,,M,,N,,M*29
20220704 100345+00:00 $HCHDT,125,T*31
20220704 100345+00:00 $GPRMC,100340,A,4907.4400,N,12617.7900,W,9.41,126,040722,12.2,E,A,V*67
20220704 100345+00:00 $WIMWV,176.09,R,1.4,N,A*1F
20220704 100347+00:00 $IIMDA,29.9,I,1.011,B,13.1,C,,C,88.3,,,C,,T,,M,,N,,M*29
20220704 100347+00:00 $HCHDT,124.9,T*27
20220704 100347+00:00 $GPRMC,100342,A,4907.4298,N,12617.7798,W,9.51,126,040722,12.2,E,A,V*6C
20220704 100347+00:00 $WIMWV,145.89,R,2.9,N,A*19
20220704 100349+00:00 $IIMDA,29.9,I,1.011,B,13.1,C,,C,88.4,,,C,,T,,M,,N,,M*2E
20220704 100349+00:00 $HCHDT,124.9,T*27
20220704 100349+00:00 $GPRMC,100344,A,4907.4298,N,12617.7798,W,9.51,126,040722,12.2,E,A,V*6A
20220704 100349+00:00 $WIMWV,237.1,R,1.79,N,A*1B
20220704 100351+00:00 $IIMDA,29.9,I,1.011,B,13.1,C,,C,88.3,,,C,,T,,M,,N,,M*29
20220704 100351+00:00 $HCHDT,124.9,T*27
20220704 100351+00:00 $GPRMC,100346,A,4907.4298,N,12617.7696,W,9.51,126,040722,12.2,E,A,V*67
20220704 100351+00:00 $WIMWV,119,R,3.6,N,A*31
20220704 100353+00:00 $IIMDA,29.9,I,1.011,B,13.1,C,,C,88.4,,,C,,T,,M,,N,,M*2E
20220704 100353+00:00 $HCHDT,124.8,T*26
20220704 100353+00:00 $GPRMC,100348,A,4907.4196,N,12617.7600,W,9.51,125,040722,12.2,E,A,V*68
20220704 100353+00:00 $WIMWV,154.19,R,1.69,N,A*25
20220704 100355+00:00 $IIMDA,29.9,I,1.011,B,13.1,C,,C,88.4,,,C,,T,,M,,N,,M*2E
20220704 100355+00:00 $HCHDT,124.9,T*27
20220704 100355+00:00 $GPRMC,100350,A,4907.4196,N,12617.7600,W,9.51,125,040722,12.2,E,A,V*61
20220704 100355+00:00 $WIMWV,145.5,R,1.5,N,A*22
20220704 100357+00:00 $IIMDA,29.9,I,1.011,B,13.1,C,,C,88.5,,,C,,T,,M,,N,,M*2F
20220704 100357+00:00 $HCHDT,124,T*30
20220704 100357+00:00 $GPRMC,100352,A,4907.4196,N,12617.7498,W,9.51,125,040722,12.2,E,A,V*60
20220704 100357+00:00 $WIMWV,203.8,R,1.09,N,A*12
20220704 100359+00:00 $IIMDA,29.9,I,1.011,B,13.1,C,,C,88.5,,,C,,T,,M,,N,,M*2F
20220704 100359+00:00 $HCHDT,123.1,T*28
20220704 100359+00:00 $GPRMC,100354,A,4907.4100,N,12617.7396,W,9.51,125,040722,12.2,E,A,V*60
20220704 100359+00:00 $WIMWV,91.7,R,0.99,N,A*2C
20220704 100401+00:00 $IIMDA,29.9,I,1.011,B,13.1,C,,C,88.5,,,C,,T,,M,,N,,M*2F
20220704 100401+00:00 $HCHDT,122.9,T*21
20220704 100401+00:00 $GPRMC,100356,A,4907.4100,N,12617.7396,W,9.51,125,040722,12.2,E,A,V*62
20220704 100401+00:00 $WIMWV,175.89,R,2.49,N,A*2E
20220704 100403+00:00 $IIMDA,29.9,I,1.011,B,13.1,C,,C,88.5,,,C,,T,,M,,N,,M*2F
20220704 100403+00:00 $HCHDT,123,T*37
20220704 100403+00:00 $GPRMC,100358,A,4907.4100,N,12617.7300,W,9.51,125,040722,12.2,E,A,V*63
20220704 100403+00:00 $WIMWV,163.49,R,2.68,N,A*26
20220704 100405+00:00 $IIMDA,29.9,I,1.011,B,13.1,C,,C,88.5,,,C,,T,,M,,N,,M*2F
20220704 100405+00:00 $HCHDT,123.3,T*2A
20220704 100405+00:00 $GPRMC,100400,A,4907.4100,N,12617.7198,W,9.51,125,040722,12.2,E,A,V*6A
20220704 100405+00:00 $WIMWV,182.29,R,3.89,N,A*21
20220704 100407+00:00 $IIMDA,29.9,I,1.011,B,13.1,C,,C,88.5,,,C,,T,,M,,N,,M*2F
20220704 100407+00:00 $HCHDT,123,T*37
20220704 100407+00:00 $GPRMC,100402,A,4907.3998,N,12617.7198,W,9.41,124,040722,12.2,E,A,V*66
20220704 100407+00:00 $WIMWV,197.8,R,3.6,N,A*21
20220704 100409+00:00 $IIMDA,29.9,I,1.011,B,13.1,C,,C,88.5,,,C,,T,,M,,N,,M*2F
20220704 100409+00:00 $HCHDT,122.5,T*2D
20220704 100409+00:00 $GPRMC,100404,A,4907.3998,N,12617.7096,W,9.41,124,040722,12.2,E,A,V*6F
20220704 100409+00:00 $WIMWV,202,R,3.6,N,A*38
20220704 100411+00:00 $IIMDA,29.9,I,1.011,B,13.1,C,,C,88.4,,,C,,T,,M,,N,,M*2E
20220704 100411+00:00 $HCHDT,122.6,T*2E
20220704 100411+00:00 $GPRMC,100406,A,4907.3998,N,12617.7000,W,9.41,124,040722,12.2,E,A,V*62
20220704 100411+00:00 $WIMWV,156.1,R,2.39,N,A*18
20220704 100413+00:00 $IIMDA,29.9,I,1.011,B,13.1,C,,C,88.3,,,C,,T,,M,,N,,M*29
20220704 100413+00:00 $HCHDT,122.8,T*20
20220704 100413+00:00 $GPRMC,100408,A,4907.3896,N,12617.7000,W,9.51,124,040722,12.2,E,A,V*62
20220704 100413+00:00 $WIMWV,128.89,R,3.79,N,A*24
20220704 100415+00:00 $IIMDA,29.9,I,1.011,B,13.1,C,,C,88.3,,,C,,T,,M,,N,,M*29
20220704 100415+00:00 $HCHDT,123,T*37
20220704 100415+00:00 $GPRMC,100410,A,4907.3896,N,12617.6898,W,9.51,124,040722,12.2,E,A,V*63
20220704 100415+00:00 $WIMWV,209.89,R,1.09,N,A*21
20220704 100417+00:00 $IIMDA,29.9,I,1.011,B,13.1,C,,C,88.3,,,C,,T,,M,,N,,M*29
20220704 100417+00:00 $HCHDT,123.4,T*2D
20220704 100417+00:00 $GPRMC,100412,A,4907.3896,N,12617.6796,W,9.41,124,040722,12.2,E,A,V*61
20220704 100417+00:00 $WIMWV,169.49,R,3.6,N,A*15
20220704 100419+00:00 $IIMDA,29.9,I,1.011,B,13.1,C,,C,88.3,,,C,,T,,M,,N,,M*29
20220704 100419+00:00 $HCHDT,123.7,T*2E
20220704 100419+00:00 $GPRMC,100414,A,4907.3800,N,12617.6796,W,9.41,124,040722,12.2,E,A,V*68
20220704 100419+00:00 $WIMWV,138.59,R,3.09,N,A*2F
20220704 100421+00:00 $IIMDA,29.9,I,1.011,B,13.1,C,,C,88.3,,,C,,T,,M,,N,,M*29
20220704 100421+00:00 $HCHDT,123.7,T*2E
20220704 100421+00:00 $GPRMC,100416,A,4907.3800,N,12617.6700,W,9.41,124,040722,12.2,E,A,V*65
20220704 100421+00:00 $WIMWV,144.09,R,3.09,N,A*21
20220704 100423+00:00 $IIMDA,29.9,I,1.011,B,13.1,C,,C,88.2,,,C,,T,,M,,N,,M*28
20220704 100423+00:00 $HCHDT,123.4,T*2D
20220704 100423+00:00 $GPRMC,100418,A,4907.3800,N,12617.6598,W,9.41,125,040722,12.2,E,A,V*69
20220704 100423+00:00 $WIMWV,197.49,R,3.69,N,A*2D
20220704 100425+00:00 $IIMDA,29.9,I,1.011,B,13.1,C,,C,88.2,,,C,,T,,M,,N,,M*28
20220704 100425+00:00 $HCHDT,123.9,T*20
20220704 100425+00:00 $GPRMC,100420,A,4907.3800,N,12617.6598,W,9.41,125,040722,12.2,E,A,V*62
20220704 100425+00:00 $WIMWV,182.89,R,3.98,N,A*2B
20220704 100427+00:00 $IIMDA,29.9,I,1.011,B,13.1,C,,C,88.2,,,C,,T,,M,,N,,M*28
20220704 100427+00:00 $HCHDT,124.1,T*2F
20220704 100427+00:00 $GPRMC,100422,A,4907.3698,N,12617.6496,W,9.41,125,040722,12.2,E,A,V*60
20220704 100427+00:00 $WIMWV,145.79,R,3.19,N,A*26
20220704 100429+00:00 $IIMDA,29.9,I,1.011,B,13.1,C,,C,88.1,,,C,,T,,M,,N,,M*2B
20220704 100429+00:00 $HCHDT,123.4,T*2D
20220704 100429+00:00 $GPRMC,100424,A,4907.3698,N,12617.6400,W,9.41,125,040722,12.2,E,A,V*69
20220704 100429+00:00 $WIMWV,165.49,R,3.29,N,A*24
20220704 100431+00:00 $IIMDA,29.9,I,1.011,B,13.1,C,,C,88.1,,,C,,T,,M,,N,,M*2B
20220704 100431+00:00 $HCHDT,122.9,T*21
20220704 100431+00:00 $GPRMC,100426,A,4907.3698,N,12617.6400,W,9.41,125,040722,12.2,E,A,V*6B
20220704 100431+00:00 $WIMWV,184.29,R,3.89,N,A*27
20220704 100433+00:00 $IIMDA,29.9,I,1.011,B,13.1,C,,C,88,,,C,,T,,M,,N,,M*34
20220704 100433+00:00 $HCHDT,123.2,T*2B
20220704 100433+00:00 $GPRMC,100428,A,4907.3596,N,12617.6298,W,9.41,125,040722,12.2,E,A,V*6F
20220704 100433+00:00 $WIMWV,200.99,R,3.6,N,A*14
20220704 100435+00:00 $IIMDA,29.9,I,1.011,B,13.1,C,,C,87.9,,,C,,T,,M,,N,,M*2C
20220704 100435+00:00 $HCHDT,123.2,T*2B
20220704 100435+00:00 $GPRMC,100430,A,4907.3596,N,12617.6196,W,9.41,125,040722,12.2,E,A,V*6B
20220704 100435+00:00 $WIMWV,210.99,R,2.29,N,A*29
20220704 100437+00:00 $IIMDA,29.9,I,1.011,B,13.1,C,,C,87.8,,,C,,T,,M,,N,,M*2D
20220704 100437+00:00 $HCHDT,123,T*37
20220704 100437+00:00 $GPRMC,100432,A,4907.3596,N,12617.6196,W,9.51,125,040722,12.2,E,A,V*68
20220704 100437+00:00 $WIMWV,129.69,R,1.79,N,A*29
20220704 100439+00:00 $IIMDA,29.9,I,1.011,B,13.1,C,,C,87.8,,,C,,T,,M,,N,,M*2D
20220704 100439+00:00 $HCHDT,122.8,T*20
20220704 100439+00:00 $GPRMC,100434,A,4907.3500,N,12617.6100,W,9.51,124,040722,12.2,E,A,V*6F
20220704 100439+00:00 $WIMWV,199.09,R,1.98,N,A*2B
20220704 100441+00:00 $IIMDA,29.9,I,1.011,B,13.1,C,,C,87.7,,,C,,T,,M,,N,,M*22
20220704 100441+00:00 $HCHDT,123.4,T*2D
20220704 100441+00:00 $GPRMC,100436,A,4907.3500,N,12617.5998,W,9.51,124,040722,12.2,E,A,V*67
20220704 100441+00:00 $WIMWV,197.4,R,2.68,N,A*14
20220704 100443+00:00 $IIMDA,29.9,I,1.011,B,13.1,C,,C,87.7,,,C,,T,,M,,N,,M*22
20220704 100443+00:00 $HCHDT,123.7,T*2E
20220704 100443+00:00 $GPRMC,100438,A,4907.3500,N,12617.5998,W,9.41,125,040722,12.2,E,A,V*69
20220704 100443+00:00 $WIMWV,200.29,R,2.29,N,A*23
20220704 100445+00:00 $IIMDA,29.9,I,1.011,B,13.1,C,,C,87.8,,,C,,T,,M,,N,,M*2D
20220704 100445+00:00 $HCHDT,123.6,T*2F
20220704 100445+00:00 $GPRMC,100440,A,4907.3500,N,12617.5896,W,9.41,125,040722,12.2,E,A,V*69
20220704 100445+00:00 $WIMWV,124.1,R,2.49,N,A*1A
20220704 100447+00:00 $IIMDA,29.9,I,1.011,B,13.1,C,,C,87.8,,,C,,T,,M,,N,,M*2D
20220704 100447+00:00 $HCHDT,123.6,T*2F
20220704 100447+00:00 $GPRMC,100442,A,4907.3398,N,12617.5800,W,9.41,125,040722,12.2,E,A,V*63
20220704 100447+00:00 $WIMWV,125.99,R,2.59,N,A*2B
20220704 100449+00:00 $IIMDA,29.9,I,1.011,B,13.1,C,,C,87.8,,,C,,T,,M,,N,,M*2D
20220704 100449+00:00 $HCHDT,123.4,T*2D
20220704 100449+00:00 $GPRMC,100444,A,4907.3398,N,12617.5800,W,9.41,125,040722,12.2,E,A,V*65
20220704 100449+00:00 $WIMWV,125.79,R,3.38,N,A*23
20220704 100451+00:00 $IIMDA,29.9,I,1.011,B,13.1,C,,C,87.9,,,C,,T,,M,,N,,M*2C
20220704 100451+00:00 $HCHDT,123.9,T*20
20220704 100451+00:00 $GPRMC,100446,A,4907.3398,N,12617.5698,W,9.41,125,040722,12.2,E,A,V*68
20220704 100451+00:00 $WIMWV,217,R,1.98,N,A*09
20220704 100453+00:00 $IIMDA,29.9,I,1.011,B,13.1,C,,C,87.9,,,C,,T,,M,,N,,M*2C
20220704 100453+00:00 $HCHDT,124.3,T*2D
20220704 100453+00:00 $GPRMC,100448,A,4907.3296,N,12617.5596,W,9.51,125,040722,12.2,E,A,V*65
20220704 100453+00:00 $WIMWV,167.8,R,0.89,N,A*1A
20220704 100455+00:00 $IIMDA,29.9,I,1.011,B,13.1,C,,C,88,,,C,,T,,M,,N,,M*34
20220704 100455+00:00 $HCHDT,124.8,T*26
20220704 100455+00:00 $GPRMC,100450,A,4907.3296,N,12617.5596,W,9.51,125,040722,12.2,E,A,V*6C
20220704 100455+00:00 $WIMWV,154.29,R,0.99,N,A*28
20220704 100457+00:00 $IIMDA,29.9,I,1.011,B,13.1,C,,C,88,,,C,,T,,M,,N,,M*34
20220704 100457+00:00 $HCHDT,124.7,T*29
20220704 100457+00:00 $GPRMC,100452,A,4907.3296,N,12617.5500,W,9.51,125,040722,12.2,E,A,V*61
20220704 100457+00:00 $WIMWV,169.89,R,3.89,N,A*2E
20220704 100459+00:00 $IIMDA,29.9,I,1.011,B,13.1,C,,C,88.1,,,C,,T,,M,,N,,M*2B
20220704 100459+00:00 $HCHDT,123.7,T*2E
20220704 100459+00:00 $GPRMC,100454,A,4907.3296,N,12617.5500,W,9.41,125,040722,12.2,E,A,V*66
20220704 100459+00:00 $WIMWV,140.59,R,2.2,N,A*1A
20220704 100501+00:00 $IIMDA,29.9,I,1.011,B,13.1,C,,C,88.1,,,C,,T,,M,,N,,M*2B
20220704 100501+00:00 $HCHDT,123.5,T*2C
20220704 100501+00:00 $GPRMC,100456,A,4907.3200,N,12617.5398,W,9.41,125,040722,12.2,E,A,V*6C
20220704 100501+00:00 $WIMWV,158.5,R,2.2,N,A*2A
20220704 100503+00:00 $IIMDA,29.9,I,1.011,B,13.1,C,,C,88.2,,,C,,T,,M,,N,,M*28
20220704 100503+00:00 $HCHDT,124.1,T*2F
20220704 100503+00:00 $GPRMC,100458,A,4907.3200,N,12617.5296,W,9.41,125,040722,12.2,E,A,V*6D
20220704 100503+00:00 $WIMWV,232.79,R,2.29,N,A*27
20220704 100505+00:00 $IIMDA,29.9,I,1.011,B,13.1,C,,C,88.2,,,C,,T,,M,,N,,M*28
20220704 100505+00:00 $HCHDT,124,T*30
20220704 100505+00:00 $GPRMC,100500,A,4907.3200,N,12617.5296,W,9.41,125,040722,12.2,E,A,V*61
20220704 100505+00:00 $WIMWV,188.59,R,2.1,N,A*1D
20220704 100507+00:00 $IIMDA,29.9,I,1.011,B,13.1,C,,C,88.3,,,C,,T,,M,,N,,M*29
20220704 100507+00:00 $HCHDT,124,T*30
20220704 100507+00:00 $GPRMC,100502,A,4907.3098,N,12617.5200,W,9.51,125,040722,12.2,E,A,V*6E
20220704 100507+00:00 $WIMWV,180.6,R,5.19,N,A*11
20220704 100509+00:00 $IIMDA,29.9,I,1.011,B,13.1,C,,C,88.3,,,C,,T,,M,,N,,M*29
20220704 100509+00:00 $HCHDT,124,T*30
20220704 100509+00:00 $GPRMC,100504,A,4907.3098,N,12617.5098,W,9.41,124,040722,12.2,E,A,V*6B
20220704 100509+00:00 $WIMWV,184.29,R,2.2,N,A*15
20220704 100511+00:00 $IIMDA,29.9,I,1.011,B,13.1,C,,C,88.3,,,C,,T,,M,,N,,M*29
20220704 100511+00:00 $HCHDT,124,T*30
20220704 100511+00:00 $GPRMC,100506,A,4907.3098,N,12617.5098,W,9.41,124,040722,12.2,E,A,V*69
20220704 100511+00:00 $WIMWV,203.69,R,2.68,N,A*21
20220704 100513+00:00 $IIMDA,29.9,I,1.011,B,13.1,C,,C,88.2,,,C,,T,,M,,N,,M*28
20220704 100513+00:00 $HCHDT,124.4,T*2A
20220704 100513+00:00 $GPRMC,100508,A,4907.2996,N,12617.4996,W,9.41,124,040722,12.2,E,A,V*67
20220704 100513+00:00 $WIMWV,184.69,R,2.68,N,A*2D
20220704 100515+00:00 $IIMDA,29.9,I,1.011,B,13.1,C,,C,88.2,,,C,,T,,M,,N,,M*28
20220704 100515+00:00 $HCHDT,124.8,T*26
20220704 100515+00:00 $GPRMC,100510,A,4907.2996,N,12617.4900,W,9.41,124,040722,12.2,E,A,V*61
20220704 100515+00:00 $WIMWV,191.4,R,2.68,N,A*12
20220704 100517+00:00 $IIMDA,29.9,I,1.011,B,13.1,C,,C,88.2,,,C,,T,,M,,N,,M*28
20220704 100517+00:00 $HCHDT,124.8,T*26
20220704 100517+00:00 $GPRMC,100512,A,4907.2996,N,12617.4900,W,9.41,125,040722,12.2,E,A,V*62
20220704 100517+00:00 $WIMWV,177.19,R,2.8,N,A*10
20220704 100519+00:00 $IIMDA,29.9,I,1.011,B,13.1,C,,C,88.2,,,C,,T,,M,,N,,M*28
20220704 100519+00:00 $HCHDT,124.5,T*2B
20220704 100519+00:00 $GPRMC,100514,A,4907.2996,N,12617.4798,W,9.41,125,040722,12.2,E,A,V*6B
20220704 100519+00:00 $WIMWV,194.39,R,2.59,N,A*2B
20220704 100521+00:00 $IIMDA,29.9,I,1.011,B,13.1,C,,C,88.1,,,C,,T,,M,,N,,M*2B
20220704 100521+00:00 $HCHDT,124.1,T*2F
20220704 100521+00:00 $GPRMC,100516,A,4907.2900,N,12617.4696,W,9.41,125,040722,12.2,E,A,V*69
20220704 100521+00:00 $WIMWV,140.79,R,3.38,N,A*20
20220704 100523+00:00 $IIMDA,29.9,I,1.011,B,13.1,C,,C,88.1,,,C,,T,,M,,N,,M*2B
20220704 100523+00:00 $HCHDT,123.7,T*2E
20220704 100523+00:00 $GPRMC,100518,A,4907.2900,N,12617.4696,W,9.41,125,040722,12.2,E,A,V*67
20220704 100523+00:00 $WIMWV,153.59,R,2.49,N,A*27
20220704 100525+00:00 $IIMDA,29.9,I,1.011,B,13.1,C,,C,88.1,,,C,,T,,M,,N,,M*2B
20220704 100525+00:00 $HCHDT,123.8,T*21
20220704 100525+00:00 $GPRMC,100520,A,4907.2900,N,12617.4600,W,9.41,124,040722,12.2,E,A,V*62
20220704 100525+00:00 $WIMWV,154.8,R,2.59,N,A*15
20220704 100527+00:00 $IIMDA,29.9,I,1.011,B,13.1,C,,C,88.1,,,C,,T,,M,,N,,M*2B
20220704 100527+00:00 $HCHDT,123.8,T*21
20220704 100527+00:00 $GPRMC,100522,A,4907.2798,N,12617.4498,W,9.41,124,040722,12.2,E,A,V*6C
20220704 100527+00:00 $WIMWV,195.2,R,3.19,N,A*17
20220704 100529+00:00 $IIMDA,29.9,I,1.011,B,13.1,C,,C,88.1,,,C,,T,,M,,N,,M*2B
20220704 100529+00:00 $HCHDT,123.6,T*2F
20220704 100529+00:00 $GPRMC,100524,A,4907.2798,N,12617.4498,W,9.41,124,040722,12.2,E,A,V*6A
20220704 100529+00:00 $WIMWV,226.69,R,4.08,N,A*26
20220704 100531+00:00 $IIMDA,29.9,I,1.011,B,13.1,C,,C,88.1,,,C,,T,,M,,N,,M*2B
20220704 100531+00:00 $HCHDT,124,T*30
20220704 100531+00:00 $GPRMC,100526,A,4907.2798,N,12617.4396,W,9.41,124,040722,12.2,E,A,V*61
20220704 100531+00:00 $WIMWV,209.89,R,3.29,N,A*21
20220704 100533+00:00 $IIMDA,29.9,I,1.011,B,13.1,C,,C,88.2,,,C,,T,,M,,N,,M*28
20220704 100533+00:00 $HCHDT,124.3,T*2D
20220704 100533+00:00 $GPRMC,100528,A,4907.2696,N,12617.4300,W,9.41,124,040722,12.2,E,A,V*6F
20220704 100533+00:00 $WIMWV,245.39,R,2.8,N,A*10
20220704 100535+00:00 $IIMDA,29.9,I,1.011,B,13.1,C,,C,88.2,,,C,,T,,M,,N,,M*28
20220704 100535+00:00 $HCHDT,123.8,T*21
20220704 100535+00:00 $GPRMC,100530,A,4907.2696,N,12617.4300,W,9.41,124,040722,12.2,E,A,V*66
20220704 100535+00:00 $WIMWV,197.99,R,2.68,N,A*20
20220704 100537+00:00 $IIMDA,29.9,I,1.011,B,13.1,C,,C,88.2,,,C,,T,,M,,N,,M*28
20220704 100537+00:00 $HCHDT,123.5,T*2C
20220704 100537+00:00 $GPRMC,100532,A,4907.2696,N,12617.4198,W,9.41,124,040722,12.2,E,A,V*67
20220704 100537+00:00 $WIMWV,180.6,R,1.89,N,A*1C
20220704 100539+00:00 $IIMDA,29.9,I,1.011,B,13.1,C,,C,88.2,,,C,,T,,M,,N,,M*28
20220704 100539+00:00 $HCHDT,123.4,T*2D
20220704 100539+00:00 $GPRMC,100534,A,4907.2696,N,12617.4096,W,9.41,124,040722,12.2,E,A,V*6E
20220704 100539+00:00 $WIMWV,148.2,R,3.69,N,A*10
20220704 100541+00:00 $IIMDA,29.9,I,1.011,B,13.1,C,,C,88.2,,,C,,T,,M,,N,,M*28
20220704 100541+00:00 $HCHDT,123.4,T*2D
20220704 100541+00:00 $GPRMC,100536,A,4907.2600,N,12617.4096,W,9.41,124,040722,12.2,E,A,V*63
20220704 100541+00:00 $WIMWV,172.2,R,4.59,N,A*1D
20220704 100543+00:00 $IIMDA,29.9,I,1.011,B,13.1,C,,C,88.2,,,C,,T,,M,,N,,M*28
20220704 100543+00:00 $HCHDT,123.5,T*2C
20220704 100543+00:00 $GPRMC,100538,A,4907.2600,N,12617.4000,W,9.41,124,040722,12.2,E,A,V*62
20220704 100543+00:00 $WIMWV,190.39,R,3.5,N,A*17
20220704 100545+00:00 $IIMDA,29.9,I,1.011,B,13.1,C,,C,88.1,,,C,,T,,M,,N,,M*2B
20220704 100545+00:00 $HCHDT,123.8,T*21
20220704 100545+00:00 $GPRMC,100540,A,4907.2600,N,12617.3898,W,9.41,124,040722,12.2,E,A,V*63
20220704 100545+00:00 $WIMWV,185,R,3.79,N,A*0C
20220704 100547+00:00 $IIMDA,29.9,I,1.011,B,13.1,C,,C,88.1,,,C,,T,,M,,N,,M*2B
20220704 100547+00:00 $HCHDT,123.7,T*2E
20220704 100547+00:00 $GPRMC,100542,A,4907.2498,N,12617.3898,W,9.41,124,040722,12.2,E,A,V*62
20220704 100547+00:00 $WIMWV,172,R,3.89,N,A*0B
20220704 100549+00:00 $IIMDA,29.9,I,1.011,B,13.1,C,,C,88,,,C,,T,,M,,N,,M*34
20220704 100549+00:00 $HCHDT,123.1,T*28
20220704 100549+00:00 $GPRMC,100544,A,4907.2498,N,12617.3796,W,9.41,124,040722,12.2,E,A,V*65
20220704 100549+00:00 $WIMWV,180.6,R,3.5,N,A*2A
20220704 100551+00:00 $IIMDA,29.9,I,1.011,B,13.1,C,,C,88,,,C,,T,,M,,N,,M*34
20220704 100551+00:00 $HCHDT,123.1,T*28
20220704 100551+00:00 $GPRMC,100546,A,4907.2498,N,12617.3700,W,9.41,124,040722,12.2,E,A,V*68
20220704 100551+00:00 $WIMWV,175.59,R,2.39,N,A*24
20220704 100553+00:00 $IIMDA,29.9,I,1.011,B,13.1,C,,C,88,,,C,,T,,M,,N,,M*34
20220704 100553+00:00 $HCHDT,123.3,T*2A
20220704 100553+00:00 $GPRMC,100548,A,4907.2498,N,12617.3700,W,9.41,124,040722,12.2,E,A,V*66
20220704 100553+00:00 $WIMWV,195.89,R,3.19,N,A*24
20220704 100555+00:00 $IIMDA,29.9,I,1.011,B,13.1,C,,C,88,,,C,,T,,M,,N,,M*34
20220704 100555+00:00 $HCHDT,123.4,T*2D
20220704 100555+00:00 $GPRMC,100550,A,4907.2396,N,12617.3598,W,9.41,124,040722,12.2,E,A,V*65
20220704 100555+00:00 $WIMWV,129.79,R,3.5,N,A*11
20220704 100557+00:00 $IIMDA,29.9,I,1.011,B,13.1,C,,C,88,,,C,,T,,M,,N,,M*34
20220704 100557+00:00 $HCHDT,123.9,T*20
20220704 100557+00:00 $GPRMC,100552,A,4907.2396,N,12617.3496,W,9.41,124,040722,12.2,E,A,V*68
20220704 100557+00:00 $WIMWV,152.8,R,2.29,N,A*14
20220704 100559+00:00 $IIMDA,29.9,I,1.011,B,13.1,C,,C,88,,,C,,T,,M,,N,,M*34
20220704 100559+00:00 $HCHDT,124.4,T*2A
20220704 100559+00:00 $GPRMC,100554,A,4907.2396,N,12617.3496,W,9.41,124,040722,12.2,E,A,V*6E
20220704 100559+00:00 $WIMWV,185.09,R,3.69,N,A*2A
20220704 100601+00:00 $IIMDA,29.9,I,1.011,B,13.1,C,,C,88,,,C,,T,,M,,N,,M*34
20220704 100601+00:00 $HCHDT,124.6,T*28
20220704 100601+00:00 $GPRMC,100556,A,4907.2300,N,12617.3400,W,9.41,124,040722,12.2,E,A,V*6C
20220704 100601+00:00 $WIMWV,118.8,R,3.19,N,A*18
20220704 100603+00:00 $IIMDA,29.9,I,1.011,B,13.1,C,,C,88,,,C,,T,,M,,N,,M*34
20220704 100603+00:00 $HCHDT,124.8,T*26
20220704 100603+00:00 $GPRMC,100558,A,4907.2300,N,12617.3298,W,9.41,124,040722,12.2,E,A,V*65
20220704 100603+00:00 $WIMWV,195.89,R,2.8,N,A*15
20220704 100605+00:00 $IIMDA,29.9,I,1.011,B,13.1,C,,C,88,,,C,,T,,M,,N,,M*34
20220704 100605+00:00 $HCHDT,124.9,T*27
20220704 100605+00:00 $GPRMC,100600,A,4907.2300,N,12617.3298,W,9.41,124,040722,12.2,E,A,V*6B
20220704 100605+00:00 $WIMWV,176.69,R,1.89,N,A*2C
20220704 100607+00:00 $IIMDA,29.9,I,1.011,B,13.1,C,,C,88.1,,,C,,T,,M,,N,,M*2B
20220704 100607+00:00 $HCHDT,125.1,T*2E
20220704 100607+00:00 $GPRMC,100602,A,4907.2198,N,12617.3196,W,9.41,125,040722,12.2,E,A,V*66
20220704 100607+00:00 $WIMWV,203.49,R,2.9,N,A*14
20220704 100609+00:00 $IIMDA,29.9,I,1.011,B,13.1,C,,C,88.1,,,C,,T,,M,,N,,M*2B
20220704 100609+00:00 $HCHDT,125.1,T*2E
20220704 100609+00:00 $GPRMC,100604,A,4907.2198,N,12617.3100,W,9.41,125,040722,12.2,E,A,V*6F
20220704 100609+00:00 $WIMWV,205.1,R,2.49,N,A*1A
20220704 100611+00:00 $IIMDA,29.9,I,1.011,B,13.1,C,,C,88.1,,,C,,T,,M,,N,,M*2B
20220704 100611+00:00 $HCHDT,124.6,T*28
20220704 100611+00:00 $GPRMC,100606,A,4907.2198,N,12617.3100,W,9.41,125,040722,12.2,E,A,V*6D
20220704 100611+00:00 $WIMWV,193.49,R,2.9,N,A*1E
20220704 100613+00:00 $IIMDA,29.9,I,1.011,B,13.1,C,,C,88.1,,,C,,T,,M,,N,,M*2B
20220704 100613+00:00 $HCHDT,123.8,T*21
20220704 100613+00:00 $GPRMC,100608,A,4907.2198,N,12617.2998,W,9.41,125,040722,12.2,E,A,V*6B
20220704 100613+00:00 $WIMWV,206.09,R,2.2,N,A*1E
20220704 100615+00:00 $IIMDA,29.9,I,1.011,B,13.1,C,,C,88.1,,,C,,T,,M,,N,,M*2B
20220704 100615+00:00 $HCHDT,123,T*37
20220704 100615+00:00 $GPRMC,100610,A,4907.2096,N,12617.2998,W,9.41,125,040722,12.2,E,A,V*6D
20220704 100615+00:00 $WIMWV,171.89,R,3.5,N,A*13
20220704 100617+00:00 $IIMDA,29.9,I,1.011,B,13.1,C,,C,88.2,,,C,,T,,M,,N,,M*28
20220704 100617+00:00 $HCHDT,122.9,T*21
20220704 100617+00:00 $GPRMC,100612,A,4907.2096,N,12617.2896,W,9.41,124,040722,12.2,E,A,V*61
20220704 100617+00:00 $WIMWV,160.59,R,2.68,N,A*24
20220704 100619+00:00 $IIMDA,29.9,I,1.011,B,13.1,C,,C,88.2,,,C,,T,,M,,N,,M*28
20220704 100619+00:00 $HCHDT,123.4,T*2D
20220704 100619+00:00 $GPRMC,100614,A,4907.2096,N,12617.2800,W,9.41,124,040722,12.2,E,A,V*68
20220704 100619+00:00 $WIMWV,154.29,R,2.49,N,A*27
20220704 100621+00:00 $IIMDA,29.9,I,1.011,B,13.1,C,,C,88.3,,,C,,T,,M,,N,,M*29
20220704 100621+00:00 $HCHDT,124.1,T*2F
20220704 100621+00:00 $GPRMC,100616,A,4907.2000,N,12617.2800,W,9.51,124,040722,12.2,E,A,V*64
20220704 100621+00:00 $WIMWV,184.6,R,2.49,N,A*17
20220704 100623+00:00 $IIMDA,29.9,I,1.011,B,13.2,C,,C,88.3,,,C,,T,,M,,N,,M*2A
20220704 100623+00:00 $HCHDT,124.3,T*2D
20220704 100623+00:00 $GPRMC,100618,A,4907.2000,N,12617.2698,W,9.51,124,040722,12.2,E,A,V*65
20220704 100623+00:00 $WIMWV,151.79,R,2.8,N,A*12
20220704 100625+00:00 $IIMDA,29.9,I,1.011,B,13.2,C,,C,88.4,,,C,,T,,M,,N,,M*2D
20220704 100625+00:00 $HCHDT,124.3,T*2D
20220704 100625+00:00 $GPRMC,100620,A,4907.2000,N,12617.2596,W,9.51,124,040722,12.2,E,A,V*63
20220704 100625+00:00 $WIMWV,167.09,R,2.9,N,A*11
20220704 100627+00:00 $IIMDA,29.9,I,1.011,B,13.2,C,,C,88.4,,,C,,T,,M,,N,,M*2D
20220704 100627+00:00 $HCHDT,124.3,T*2D
20220704 100627+00:00 $GPRMC,100622,A,4907.2000,N,12617.2596,W,9.41,124,040722,12.2,E,A,V*60
20220704 100627+00:00 $WIMWV,158.5,R,2.99,N,A*18
20220704 100629+00:00 $IIMDA,29.9,I,1.011,B,13.2,C,,C,88.4,,,C,,T,,M,,N,,M*2D
20220704 100629+00:00 $HCHDT,124.6,T*28
20220704 100629+00:00 $GPRMC,100624,A,4907.1898,N,12617.2500,W,9.41,124,040722,12.2,E,A,V*63
20220704 100629+00:00 $WIMWV,180.6,R,2.9,N,A*27
20220704 100631+00:00 $IIMDA,29.9,I,1.011,B,13.2,C,,C,88.4,,,C,,T,,M,,N,,M*2D
20220704 100631+00:00 $HCHDT,125,T*31
20220704 100631+00:00 $GPRMC,100626,A,4907.1898,N,12617.2398,W,9.41,125,040722,12.2,E,A,V*67
20220704 100631+00:00 $WIMWV,206.69,R,0.99,N,A*28
20220704 100633+00:00 $IIMDA,29.9,I,1.011,B,13.2,C,,C,88.4,,,C,,T,,M,,N,,M*2D
20220704 100633+00:00 $HCHDT,125.5,T*2A
20220704 100633+00:00 $GPRMC,100628,A,4907.1796,N,12617.2296,W,9.51,125,040722,12.2,E,A,V*66
20220704 100633+00:00 $WIMWV,246.29,R,1.79,N,A*27
20220704 100635+00:00 $IIMDA,29.9,I,1.011,B,13.2,C,,C,88.4,,,C,,T,,M,,N,,M*2D
20220704 100635+00:00 $HCHDT,125.1,T*2E
20220704 100635+00:00 $GPRMC,100630,A,4907.1796,N,12617.2200,W,9.51,125,040722,12.2,E,A,V*60
20220704 100635+00:00 $WIMWV,205.69,R,1.98,N,A*2B
20220704 100637+00:00 $IIMDA,29.9,I,1.011,B,13.2,C,,C,88.4,,,C,,T,,M,,N,,M*2D
20220704 100637+00:00 $HCHDT,124.2,T*2C
20220704 100637+00:00 $GPRMC,100632,A,4907.1796,N,12617.2200,W,9.51,125,040722,12.2,E,A,V*62
20220704 100637+00:00 $WIMWV,184.89,R,2.68,N,A*23
20220704 100639+00:00 $IIMDA,29.9,I,1.011,B,13.2,C,,C,88.4,,,C,,T,,M,,N,,M*2D
20220704 100639+00:00 $HCHDT,123.2,T*2B
20220704 100639+00:00 $GPRMC,100634,A,4907.1796,N,12617.2200,W,9.51,125,040722,12.2,E,A,V*64
20220704 100639+00:00 $WIMWV,186.39,R,2.9,N,A*1D
20220704 100641+00:00 $IIMDA,29.9,I,1.011,B,13.2,C,,C,88.4,,,C,,T,,M,,N,,M*2D
20220704 100641+00:00 $HCHDT,123.2,T*2B
20220704 100641+00:00 $GPRMC,100636,A,4907.1700,N,12617.2098,W,9.51,125,040722,12.2,E,A,V*6A
20220704 100641+00:00 $WIMWV,176.9,R,2.59,N,A*14
20220704 100643+00:00 $IIMDA,29.9,I,1.011,B,13.2,C,,C,88.4,,,C,,T,,M,,N,,M*2D
20220704 100643+00:00 $HCHDT,124.2,T*2C
20220704 100643+00:00 $GPRMC,100638,A,4907.1700,N,12617.1996,W,9.51,125,040722,12.2,E,A,V*60
20220704 100643+00:00 $WIMWV,137.19,R,2.1,N,A*1D
20220704 100645+00:00 $IIMDA,29.9,I,1.011,B,13.2,C,,C,88.4,,,C,,T,,M,,N,,M*2D
20220704 100645+00:00 $HCHDT,124.7,T*29
20220704 100645+00:00 $GPRMC,100640,A,4907.1700,N,12617.1996,W,9.51,125,040722,12.2,E,A,V*6F
20220704 100645+00:00 $WIMWV,119.39,R,3.29,N,A*28
20220704 100647+00:00 $IIMDA,29.9,I,1.011,B,13.2,C,,C,88.4,,,C,,T,,M,,N,,M*2D
20220704 100647+00:00 $HCHDT,124.3,T*2D
20220704 100647+00:00 $GPRMC,100642,A,4907.1598,N,12617.1900,W,9.51,125,040722,12.2,E,A,V*61
20220704 100647+00:00 $WIMWV,159.59,R,2.1,N,A*11
20220704 100649+00:00 $IIMDA,29.9,I,1.011,B,13.2,C,,C,88.4,,,C,,T,,M,,N,,M*2D
20220704 100649+00:00 $HCHDT,123.7,T*2E
20220704 100649+00:00 $GPRMC,100644,A,4907.1598,N,12617.1798,W,9.51,125,040722,12.2,E,A,V*68
20220704 100649+00:00 $WIMWV,126.89,R,3.98,N,A*25
20220704 100651+00:00 $IIMDA,29.9,I,1.011,B,13.2,C,,C,88.4,,,C,,T,,M,,N,,M*2D
20220704 100651+00:00 $HCHDT,123.2,T*2B
20220704 100651+00:00 $GPRMC,100646,A,4907.1598,N,12617.1798,W,9.41,125,040722,12.2,E,A,V*6B
20220704 100651+00:00 $WIMWV,130.79,R,1.4,N,A*1A
20220704 100653+00:00 $IIMDA,29.9,I,1.011,B,13.2,C,,C,88.4,,,C,,T,,M,,N,,M*2D
20220704 100653+00:00 $HCHDT,123.1,T*28
20220704 100653+00:00 $GPRMC,100648,A,4907.1598,N,12617.1696,W,9.41,124,040722,12.2,E,A,V*6B
20220704 100653+00:00 $WIMWV,139.8,R,1.4,N,A*25
20220704 100655+00:00 $IIMDA,29.9,I,1.011,B,13.2,C,,C,88.4,,,C,,T,,M,,N,,M*2D
20220704 100655+00:00 $HCHDT,123.7,T*2E
20220704 100655+00:00 $GPRMC,100650,A,4907.1496,N,12617.1600,W,9.51,124,040722,12.2,E,A,V*63
20220704 100655+00:00 $WIMWV,153.09,R,2.68,N,A*21
20220704 100657+00:00 $IIMDA,29.9,I,1.011,B,13.2,C,,C,88.4,,,C,,T,,M,,N,,M*2D
20220704 100657+00:00 $HCHDT,124.7,T*29
20220704 100657+00:00 $GPRMC,100652,A,4907.1496,N,12617.1600,W,9.51,124,040722,12.2,E,A,V*61
20220704 100657+00:00 $WIMWV,123.7,R,6.49,N,A*1F
20220704 100659+00:00 $IIMDA,29.9,I,1.011,B,13.2,C,,C,88.5,,,C,,T,,M,,N,,M*2C
20220704 100659+00:00 $HCHDT,125,T*31
20220704 100659+00:00 $GPRMC,100654,A,4907.1496,N,12617.1498,W,9.41,125,040722,12.2,E,A,V*64
20220704 100659+00:00 $WIMWV,178.09,R,3.19,N,A*2F
20220704 100701+00:00 $IIMDA,29.9,I,1.011,B,13.2,C,,C,88.4,,,C,,T,,M,,N,,M*2D
20220704 100701+00:00 $HCHDT,124.6,T*28
20220704 100701+00:00 $GPRMC,100656,A,4907.1400,N,12617.1396,W,9.41,125,040722,12.2,E,A,V*60
20220704 100701+00:00 $WIMWV,143.19,R,4.39,N,A*23
20220704 100703+00:00 $IIMDA,29.9,I,1.011,B,13.2,C,,C,88.5,,,C,,T,,M,,N,,M*2C
20220704 100703+00:00 $HCHDT,124.1,T*2F
20220704 100703+00:00 $GPRMC,100658,A,4907.1400,N,12617.1396,W,9.41,125,040722,12.2,E,A,V*6E
20220704 100703+00:00 $WIMWV,127.2,R,3.6,N,A*20
20220704 100705+00:00 $IIMDA,29.9,I,1.011,B,13.2,C,,C,88.4,,,C,,T,,M,,N,,M*2D
20220704 100705+00:00 $HCHDT,124.3,T*2D
20220704 100705+00:00 $GPRMC,100700,A,4907.1400,N,12617.1300,W,9.41,125,040722,12.2,E,A,V*6D
20220704 100705+00:00 $WIMWV,169.8,R,3.69,N,A*19
20220704 100707+00:00 $IIMDA,29.9,I,1.011,B,13.2,C,,C,88.4,,,C,,T,,M,,N,,M*2D
20220704 100707+00:00 $HCHDT,124.6,T*28
20220704 100707+00:00 $GPRMC,100702,A,4907.1400,N,12617.1198,W,9.41,125,040722,12.2,E,A,V*6C
20220704 100707+00:00 $WIMWV,172.29,R,2.68,N,A*20
20220704 100709+00:00 $IIMDA,29.9,I,1.011,B,13.2,C,,C,88.3,,,C,,T,,M,,N,,M*2A
20220704 100709+00:00 $HCHDT,124.9,T*27
20220704 100709+00:00 $GPRMC,100704,A,4907.1298,N,12617.1096,W,9.51,125,040722,12.2,E,A,V*63
20220704 100709+00:00 $WIMWV,128.39,R,4.78,N,A*29
20220704 100711+00:00 $IIMDA,29.9,I,1.011,B,13.2,C,,C,88.2,,,C,,T,,M,,N,,M*2B
20220704 100711+00:00 $HCHDT,124.9,T*27
20220704 100711+00:00 $GPRMC,100706,A,4907.1298,N,12617.1096,W,9.51,125,040722,12.2,E,A,V*61
20220704 100711+00:00 $WIMWV,175.59,R,4.59,N,A*24
20220704 100713+00:00 $IIMDA,29.9,I,1.011,B,13.2,C,,C,88.2,,,C,,T,,M,,N,,M*2B
20220704 100713+00:00 $HCHDT,124.3,T*2D
20220704 100713+00:00 $GPRMC,100708,A,4907.1196,N,12617.1000,W,9.41,125,040722,12.2,E,A,V*6C
20220704 100713+00:00 $WIMWV,183.59,R,5.19,N,A*28
20220704 100715+00:00 $IIMDA,29.9,I,1.011,B,13.2,C,,C,88.1,,,C,,T,,M,,N,,M*28
20220704 100715+00:00 $HCHDT,124.4,T*2A
20220704 100715+00:00 $GPRMC,100710,A,4907.1196,N,12617.1000,W,9.41,125,040722,12.2,E,A,V*65
20220704 100715+00:00 $WIMWV,180.6,R,0.49,N,A*11
20220704 100717+00:00 $IIMDA,29.9,I,1.011,B,13.2,C,,C,88,,,C,,T,,M,,N,,M*37
20220704 100717+00:00 $HCHDT,124.8,T*26
20220704 100717+00:00 $GPRMC,100712,A,4907.1196,N,12617.0898,W,9.41,125,040722,12.2,E,A,V*6F
20220704 100717+00:00 $WIMWV,174.69,R,3.38,N,A*26
20220704 100719+00:00 $IIMDA,29.9,I,1.011,B,13.2,C,,C,87.9,,,C,,T,,M,,N,,M*2F
20220704 100719+00:00 $HCHDT,125,T*31
20220704 100719+00:00 $GPRMC,100714,A,4907.1196,N,12617.0898,W,9.41,125,040722,12.2,E,A,V*69
20220704 100719+00:00 $WIMWV,184.29,R,2.59,N,A*2B
20220704 100721+00:00 $IIMDA,29.9,I,1.011,B,13.2,C,,C,87.8,,,C,,T,,M,,N,,M*2E
20220704 100721+00:00 $HCHDT,124.6,T*28
20220704 100721+00:00 $GPRMC,100716,A,4907.1100,N,12617.0796,W,9.51,125,040722,12.2,E,A,V*64
20220704 100721+00:00 $WIMWV,123.5,R,3.89,N,A*14
20220704 100723+00:00 $IIMDA,29.9,I,1.011,B,13.2,C,,C,87.7,,,C,,T,,M,,N,,M*21
20220704 100723+00:00 $HCHDT,123.9,T*20
20220704 100723+00:00 $GPRMC,100718,A,4907.1100,N,12617.0700,W,9.51,125,040722,12.2,E,A,V*65
20220704 100723+00:00 $WIMWV,177.69,R,3.38,N,A*25
20220704 100725+00:00 $IIMDA,29.9,I,1.011,B,13.2,C,,C,87.6,,,C,,T,,M,,N,,M*20
20220704 100725+00:00 $HCHDT,123,T*37
20220704 100725+00:00 $GPRMC,100720,A,4907.1100,N,12617.0700,W,9.51,125,040722,12.2,E,A,V*6E
20220704 100725+00:00 $WIMWV,183.7,R,4.49,N,A*17
20220704 100727+00:00 $IIMDA,29.9,I,1.011,B,13.2,C,,C,87.6,,,C,,T,,M,,N,,M*20
20220704 100727+00:00 $HCHDT,122.5,T*2D
20220704 100727+00:00 $GPRMC,100722,A,4907.0998,N,12617.0496,W,9.41,125,040722,12.2,E,A,V*69
20220704 100727+00:00 $WIMWV,176.2,R,4.3,N,A*26
20220704 100729+00:00 $IIMDA,29.9,I,1.011,B,13.2,C,,C,87.5,,,C,,T,,M,,N,,M*23
20220704 100729+00:00 $HCHDT,122.8,T*20
20220704 100729+00:00 $GPRMC,100724,A,4907.0998,N,12617.0496,W,9.41,125,040722,12.2,E,A,V*6F
20220704 100729+00:00 $WIMWV,141.6,R,2.59,N,A*1F
20220704 100731+00:00 $IIMDA,29.9,I,1.011,B,13.2,C,,C,87.5,,,C,,T,,M,,N,,M*23
20220704 100731+00:00 $HCHDT,123.8,T*21
20220704 100731+00:00 $GPRMC,100726,A,4907.0998,N,12617.0496,W,9.41,124,040722,12.2,E,A,V*6C
20220704 100731+00:00 $WIMWV,124.1,R,1.69,N,A*1B
20220704 100733+00:00 $IIMDA,29.9,I,1.011,B,13.2,C,,C,87.4,,,C,,T,,M,,N,,M*22
20220704 100733+00:00 $HCHDT,124.5,T*2B
20220704 100733+00:00 $GPRMC,100728,A,4907.0998,N,12617.0400,W,9.41,124,040722,12.2,E,A,V*6D
20220704 100733+00:00 $WIMWV,238,R,0.99,N,A*04
20220704 100735+00:00 $IIMDA,29.9,I,1.011,B,13.2,C,,C,87.4,,,C,,T,,M,,N,,M*22
20220704 100735+00:00 $HCHDT,124.2,T*2C
20220704 100735+00:00 $GPRMC,100730,A,4907.0896,N,12617.0298,W,9.51,124,040722,12.2,E,A,V*6D
20220704 100735+00:00 $WIMWV,187,R,4.49,N,A*0A
20220704 100737+00:00 $IIMDA,29.9,I,1.011,B,13.2,C,,C,87.4,,,C,,T,,M,,N,,M*22
20220704 100737+00:00 $HCHDT,123.8,T*21
20220704 100737+00:00 $GPRMC,100732,A,4907.0896,N,12617.0298,W,9.51,124,040722,12.2,E,A,V*6F
20220704 100737+00:00 $WIMWV,186.69,R,2.59,N,A*2D
20220704 100739+00:00 $IIMDA,29.9,I,1.011,B,13.2,C,,C,87.4,,,C,,T,,M,,N,,M*22
20220704 100739+00:00 $HCHDT,124,T*30
20220704 100739+00:00 $GPRMC,100734,A,4907.0896,N,12617.0196,W,9.41,124,040722,12.2,E,A,V*65
20220704 100739+00:00 $WIMWV,165.4,R,1.59,N,A*18
20220704 100741+00:00 $IIMDA,29.9,I,1.011,B,13.2,C,,C,87.4,,,C,,T,,M,,N,,M*22
20220704 100741+00:00 $HCHDT,124.5,T*2B
20220704 100741+00:00 $GPRMC,100736,A,4907.0800,N,12617.0100,W,9.41,124,040722,12.2,E,A,V*67
20220704 100741+00:00 $WIMWV,170.79,R,3.38,N,A*23
