20220705 010000+00:00 $IIMDA,29.9,I,1.014,B,10.8,C,,C,94.6,,,C,,T,,M,,N,,M*2E
20220705 010000+00:00 $HCHDT,45,T*06
20220705 010000+00:00 $GPRMC,005956,A,4816.5600,N,12323.2500,W,10.11,51,050722,11.8,E,A,V*63
20220705 010000+00:00 $WIMWV,276.09,R,9.39,N,A*2A
20220705 010002+00:00 $IIMDA,29.9,I,1.014,B,10.8,C,,C,94.5,,,C,,T,,M,,N,,M*2D
20220705 010002+00:00 $HCHDT,44.9,T*10
20220705 010002+00:00 $GPRMC,005958,A,4816.5600,N,12323.2398,W,10.11,51,050722,11.8,E,A,V*6A
20220705 010002+00:00 $WIMWV,275.19,R,8.98,N,A*22
20220705 010004+00:00 $IIMDA,29.9,I,1.014,B,10.8,C,,C,94.5,,,C,,T,,M,,N,,M*2D
20220705 010004+00:00 $HCHDT,45.2,T*1A
20220705 010004+00:00 $GPRMC,010000,A,4816.5696,N,12323.2296,W,10.11,51,050722,11.8,E,A,V*6A
20220705 010004+00:00 $WIMWV,274.69,R,9.58,N,A*29
20220705 010006+00:00 $IIMDA,29.9,I,1.014,B,10.8,C,,C,94.5,,,C,,T,,M,,N,,M*2D
20220705 010006+00:00 $HCHDT,45.4,T*1C
20220705 010006+00:00 $GPRMC,010002,A,4816.5696,N,12323.2296,W,10.11,51,050722,11.8,E,A,V*68
20220705 010006+00:00 $WIMWV,273.3,R,10.28,N,A*2D
20220705 010008+00:00 $IIMDA,29.9,I,1.014,B,10.8,C,,C,94.5,,,C,,T,,M,,N,,M*2D
20220705 010008+00:00 $HCHDT,45.3,T*1B
20220705 010008+00:00 $GPRMC,010004,A,4816.5696,N,12323.2200,W,10.11,51,050722,11.8,E,A,V*61
20220705 010008+00:00 $WIMWV,271.99,R,10.09,N,A*1F
20220705 010010+00:00 $IIMDA,29.9,I,1.014,B,10.8,C,,C,94.5,,,C,,T,,M,,N,,M*2D
20220705 010010+00:00 $HCHDT,45.5,T*1D
20220705 010010+00:00 $GPRMC,010006,A,4816.5798,N,12323.2098,W,10.11,51,050722,11.8,E,A,V*6F
20220705 010010+00:00 $WIMWV,272.79,R,9.8,N,A*1B
20220705 010012+00:00 $IIMDA,29.9,I,1.014,B,10.8,C,,C,94.6,,,C,,T,,M,,N,,M*2E
20220705 010012+00:00 $HCHDT,45.8,T*10
20220705 010012+00:00 $GPRMC,010008,A,4816.5798,N,12323.2098,W,10.11,51,050722,11.8,E,A,V*61
20220705 010012+00:00 $WIMWV,273.99,R,8.98,N,A*2C
20220705 010014+00:00 $IIMDA,29.9,I,1.014,B,10.8,C,,C,94.5,,,C,,T,,M,,N,,M*2D
20220705 010014+00:00 $HCHDT,45.8,T*10
20220705 010014+00:00 $GPRMC,010010,A,4816.5798,N,12323.1996,W,10.11,51,050722,11.8,E,A,V*6C
20220705 010014+00:00 $WIMWV,273.09,R,9.1,N,A*14
20220705 010016+00:00 $IIMDA,29.9,I,1.014,B,10.8,C,,C,94.6,,,C,,T,,M,,N,,M*2E
20220705 010016+00:00 $HCHDT,45.8,T*10
20220705 010016+00:00 $GPRMC,010012,A,4816.5900,N,12323.1900,W,10.11,51,050722,11.8,E,A,V*6E
20220705 010016+00:00 $WIMWV,272.69,R,8.59,N,A*2F
20220705 010018+00:00 $IIMDA,29.9,I,1.014,B,10.8,C,,C,94.6,,,C,,T,,M,,N,,M*2E
20220705 010018+00:00 $HCHDT,46.1,T*1A
20220705 010018+00:00 $GPRMC,010014,A,4816.5900,N,12323.1900,W,10.11,51,050722,11.8,E,A,V*68
20220705 010018+00:00 $WIMWV,272.59,R,9.1,N,A*10
20220705 010020+00:00 $IIMDA,29.9,I,1.014,B,10.8,C,,C,94.6,,,C,,T,,M,,N,,M*2E
20220705 010020+00:00 $HCHDT,46.6,T*1D
20220705 010020+00:00 $GPRMC,010016,A,4816.5900,N,12323.1798,W,10.11,52,050722,11.8,E,A,V*66
20220705 010020+00:00 $WIMWV,272.29,R,9.39,N,A*2C
20220705 010022+00:00 $IIMDA,29.9,I,1.014,B,10.8,C,,C,94.6,,,C,,T,,M,,N,,M*2E
20220705 010022+00:00 $HCHDT,46.3,T*18
20220705 010022+00:00 $GPRMC,010018,A,4816.5996,N,12323.1696,W,10.11,52,050722,11.8,E,A,V*68
20220705 010022+00:00 $WIMWV,273.49,R,9.19,N,A*29
20220705 010024+00:00 $IIMDA,29.9,I,1.014,B,10.8,C,,C,94.6,,,C,,T,,M,,N,,M*2E
20220705 010024+00:00 $HCHDT,45.8,T*10
20220705 010024+00:00 $GPRMC,010020,A,4816.5996,N,12323.1696,W,9.99,52,050722,11.8,E,A,V*5B
20220705 010024+00:00 $WIMWV,272.2,R,9.19,N,A*17
20220705 010026+00:00 $IIMDA,29.9,I,1.014,B,10.8,C,,C,94.6,,,C,,T,,M,,N,,M*2E
20220705 010026+00:00 $HCHDT,46.1,T*1A
20220705 010026+00:00 $GPRMC,010022,A,4816.5996,N,12323.1600,W,9.99,52,050722,11.8,E,A,V*56
20220705 010026+00:00 $WIMWV,271.59,R,10.09,N,A*13
20220705 010028+00:00 $IIMDA,29.9,I,1.014,B,10.8,C,,C,94.6,,,C,,T,,M,,N,,M*2E
20220705 010028+00:00 $HCHDT,46.6,T*1D
20220705 010028+00:00 $GPRMC,010024,A,4816.6098,N,12323.1498,W,9.99,52,050722,11.8,E,A,V*57
20220705 010028+00:00 $WIMWV,273.49,R,8.59,N,A*2C
20220705 010030+00:00 $IIMDA,29.9,I,1.014,B,10.8,C,,C,94.6,,,C,,T,,M,,N,,M*2E
20220705 010030+00:00 $HCHDT,46.5,T*1E
20220705 010030+00:00 $GPRMC,010026,A,4816.6098,N,12323.1498,W,9.99,52,050722,11.8,E,A,V*55
20220705 010030+00:00 $WIMWV,271.69,R,9.29,N,A*2A
20220705 010032+00:00 $IIMDA,29.9,I,1.014,B,10.8,C,,C,94.6,,,C,,T,,M,,N,,M*2E
20220705 010032+00:00 $HCHDT,46,T*05
20220705 010032+00:00 $GPRMC,010028,A,4816.6098,N,12323.1396,W,9.99,52,050722,11.8,E,A,V*52
20220705 010032+00:00 $WIMWV,275.09,R,8.59,N,A*2E
20220705 010034+00:00 $IIMDA,29.9,I,1.014,B,10.8,C,,C,94.6,,,C,,T,,M,,N,,M*2E
20220705 010034+00:00 $HCHDT,45.8,T*10
20220705 010034+00:00 $GPRMC,010030,A,4816.6200,N,12323.1300,W,9.99,52,050722,11.8,E,A,V*57
20220705 010034+00:00 $WIMWV,274.09,R,8.4,N,A*17
20220705 010036+00:00 $IIMDA,29.9,I,1.014,B,10.8,C,,C,94.6,,,C,,T,,M,,N,,M*2E
20220705 010036+00:00 $HCHDT,46,T*05
20220705 010036+00:00 $GPRMC,010032,A,4816.6200,N,12323.1300,W,9.99,52,050722,11.8,E,A,V*55
20220705 010036+00:00 $WIMWV,271.69,R,8.88,N,A*20
20220705 010038+00:00 $IIMDA,29.9,I,1.014,B,10.8,C,,C,94.6,,,C,,T,,M,,N,,M*2E
20220705 010038+00:00 $HCHDT,45.7,T*1F
20220705 010038+00:00 $GPRMC,010034,A,4816.6296,N,12323.1198,W,9.99,52,050722,11.8,E,A,V*5F
20220705 010038+00:00 $WIMWV,272.29,R,9.19,N,A*2E
20220705 010040+00:00 $IIMDA,29.9,I,1.014,B,10.8,C,,C,94.6,,,C,,T,,M,,N,,M*2E
20220705 010040+00:00 $HCHDT,44.9,T*10
20220705 010040+00:00 $GPRMC,010036,A,4816.6296,N,12323.1096,W,9.99,52,050722,11.8,E,A,V*52
20220705 010040+00:00 $WIMWV,272.2,R,9.68,N,A*11
20220705 010042+00:00 $IIMDA,29.9,I,1.014,B,10.8,C,,C,94.6,,,C,,T,,M,,N,,M*2E
20220705 010042+00:00 $HCHDT,44.5,T*1C
20220705 010042+00:00 $GPRMC,010038,A,4816.6296,N,12323.1096,W,9.99,52,050722,11.8,E,A,V*5C
20220705 010042+00:00 $WIMWV,272.79,R,9.58,N,A*2E
20220705 010044+00:00 $IIMDA,29.9,I,1.014,B,10.8,C,,C,94.6,,,C,,T,,M,,N,,M*2E
20220705 010044+00:00 $HCHDT,44.7,T*1E
20220705 010044+00:00 $GPRMC,010040,A,4816.6398,N,12323.1000,W,9.99,51,050722,11.8,E,A,V*50
20220705 010044+00:00 $WIMWV,272.39,R,9.1,N,A*16
20220705 010046+00:00 $IIMDA,29.9,I,1.014,B,10.8,C,,C,94.6,,,C,,T,,M,,N,,M*2E
20220705 010046+00:00 $HCHDT,44.9,T*10
20220705 010046+00:00 $GPRMC,010042,A,4816.6398,N,12323.1000,W,9.99,51,050722,11.8,E,A,V*52
20220705 010046+00:00 $WIMWV,273.89,R,8.79,N,A*22
20220705 010048+00:00 $IIMDA,29.9,I,1.014,B,10.8,C,,C,94.6,,,C,,T,,M,,N,,M*2E
20220705 010048+00:00 $HCHDT,44.7,T*1E
20220705 010048+00:00 $GPRMC,010044,A,4816.6398,N,12323.0898,W,9.99,51,050722,11.8,E,A,V*5C
20220705 010048+00:00 $WIMWV,272.49,R,9.19,N,A*28
20220705 010050+00:00 $IIMDA,29.9,I,1.014,B,10.8,C,,C,94.6,,,C,,T,,M,,N,,M*2E
20220705 010050+00:00 $HCHDT,44.3,T*1A
20220705 010050+00:00 $GPRMC,010046,A,4816.6500,N,12323.0796,W,9.99,51,050722,11.8,E,A,V*58
20220705 010050+00:00 $WIMWV,272.09,R,10.09,N,A*15
20220705 010052+00:00 $IIMDA,29.9,I,1.014,B,10.8,C,,C,94.6,,,C,,T,,M,,N,,M*2E
20220705 010052+00:00 $HCHDT,44.7,T*1E
20220705 010052+00:00 $GPRMC,010048,A,4816.6500,N,12323.0796,W,9.99,51,050722,11.8,E,A,V*56
20220705 010052+00:00 $WIMWV,273.39,R,9.39,N,A*2C
20220705 010054+00:00 $IIMDA,29.9,I,1.014,B,10.8,C,,C,94.6,,,C,,T,,M,,N,,M*2E
20220705 010054+00:00 $HCHDT,45.2,T*1A
20220705 010054+00:00 $GPRMC,010050,A,4816.6500,N,12323.0700,W,9.99,50,050722,11.8,E,A,V*51
20220705 010054+00:00 $WIMWV,271.59,R,9.29,N,A*29
20220705 010056+00:00 $IIMDA,29.9,I,1.014,B,10.8,C,,C,94.6,,,C,,T,,M,,N,,M*2E
20220705 010056+00:00 $HCHDT,45.3,T*1B
20220705 010056+00:00 $GPRMC,010052,A,4816.6596,N,12323.0598,W,9.99,50,050722,11.8,E,A,V*5F
20220705 010056+00:00 $WIMWV,271.49,R,9.29,N,A*28
20220705 010058+00:00 $IIMDA,29.9,I,1.014,B,10.8,C,,C,94.6,,,C,,T,,M,,N,,M*2E
20220705 010058+00:00 $HCHDT,45.2,T*1A
20220705 010058+00:00 $GPRMC,010054,A,4816.6596,N,12323.0598,W,9.99,50,050722,11.8,E,A,V*59
20220705 010058+00:00 $WIMWV,274.19,R,9.58,N,A*2E
20220705 010100+00:00 $IIMDA,29.9,I,1.014,B,10.8,C,,C,94.6,,,C,,T,,M,,N,,M*2E
20220705 010100+00:00 $HCHDT,45.1,T*19
20220705 010100+00:00 $GPRMC,010056,A,4816.6596,N,12323.0496,W,9.99,50,050722,11.8,E,A,V*54
20220705 010100+00:00 $WIMWV,275.19,R,8.79,N,A*2D
20220705 010102+00:00 $IIMDA,29.9,I,1.014,B,10.8,C,,C,94.6,,,C,,T,,M,,N,,M*2E
20220705 010102+00:00 $HCHDT,45.6,T*1E
20220705 010102+00:00 $GPRMC,010058,A,4816.6698,N,12323.0400,W,9.99,50,050722,11.8,E,A,V*58
20220705 010102+00:00 $WIMWV,272.2,R,8.79,N,A*10
20220705 010104+00:00 $IIMDA,29.9,I,1.014,B,10.8,C,,C,94.6,,,C,,T,,M,,N,,M*2E
20220705 010104+00:00 $HCHDT,46.2,T*19
20220705 010104+00:00 $GPRMC,010100,A,4816.6698,N,12323.0400,W,9.99,50,050722,11.8,E,A,V*54
20220705 010104+00:00 $WIMWV,272.69,R,9.29,N,A*29
20220705 010106+00:00 $IIMDA,29.9,I,1.014,B,10.8,C,,C,94.6,,,C,,T,,M,,N,,M*2E
20220705 010106+00:00 $HCHDT,46.2,T*19
20220705 010106+00:00 $GPRMC,010102,A,4816.6698,N,12323.0298,W,9.99,51,050722,11.8,E,A,V*50
20220705 010106+00:00 $WIMWV,272.39,R,9.29,N,A*2C
20220705 010108+00:00 $IIMDA,29.9,I,1.014,B,10.8,C,,C,94.6,,,C,,T,,M,,N,,M*2E
20220705 010108+00:00 $HCHDT,46.1,T*1A
20220705 010108+00:00 $GPRMC,010104,A,4816.6800,N,12323.0196,W,9.99,51,050722,11.8,E,A,V*54
20220705 010108+00:00 $WIMWV,272.49,R,9.8,N,A*18
20220705 010110+00:00 $IIMDA,29.9,I,1.014,B,10.8,C,,C,94.6,,,C,,T,,M,,N,,M*2E
20220705 010110+00:00 $HCHDT,45.9,T*11
20220705 010110+00:00 $GPRMC,010106,A,4816.6800,N,12323.0196,W,9.99,51,050722,11.8,E,A,V*56
20220705 010110+00:00 $WIMWV,272.49,R,8.98,N,A*20
20220705 010112+00:00 $IIMDA,29.9,I,1.014,B,10.8,C,,C,94.6,,,C,,T,,M,,N,,M*2E
20220705 010112+00:00 $HCHDT,46,T*05
20220705 010112+00:00 $GPRMC,010108,A,4816.6896,N,12323.0100,W,9.99,51,050722,11.8,E,A,V*58
20220705 010112+00:00 $WIMWV,271.99,R,8.59,N,A*23
20220705 010114+00:00 $IIMDA,29.9,I,1.014,B,10.8,C,,C,94.6,,,C,,T,,M,,N,,M*2E
20220705 010114+00:00 $HCHDT,45.9,T*11
20220705 010114+00:00 $GPRMC,010110,A,4816.6896,N,12322.9998,W,9.99,51,050722,11.8,E,A,V*50
20220705 010114+00:00 $WIMWV,271.99,R,9.29,N,A*25
20220705 010116+00:00 $IIMDA,29.9,I,1.014,B,10.8,C,,C,94.7,,,C,,T,,M,,N,,M*2F
20220705 010116+00:00 $HCHDT,44.7,T*1E
20220705 010116+00:00 $GPRMC,010112,A,4816.6896,N,12322.9998,W,9.99,51,050722,11.8,E,A,V*52
20220705 010116+00:00 $WIMWV,273.89,R,8.88,N,A*2C
20220705 010118+00:00 $IIMDA,29.9,I,1.014,B,10.8,C,,C,94.6,,,C,,T,,M,,N,,M*2E
20220705 010118+00:00 $HCHDT,43.2,T*1C
20220705 010118+00:00 $GPRMC,010114,A,4816.6998,N,12322.9896,W,9.99,51,050722,11.8,E,A,V*54
20220705 010118+00:00 $WIMWV,273.3,R,9.68,N,A*11
20220705 010120+00:00 $IIMDA,29.9,I,1.014,B,10.7,C,,C,94.6,,,C,,T,,M,,N,,M*21
20220705 010120+00:00 $HCHDT,41.9,T*15
20220705 010120+00:00 $GPRMC,010116,A,4816.6998,N,12322.9896,W,9.99,51,050722,11.8,E,A,V*56
20220705 010120+00:00 $WIMWV,273.09,R,10.19,N,A*15
20220705 010122+00:00 $IIMDA,29.9,I,1.014,B,10.7,C,,C,94.7,,,C,,T,,M,,N,,M*20
20220705 010122+00:00 $HCHDT,41,T*02
20220705 010122+00:00 $GPRMC,010118,A,4816.6998,N,12322.9800,W,9.99,50,050722,11.8,E,A,V*56
20220705 010122+00:00 $WIMWV,273.49,R,9.99,N,A*21
20220705 010124+00:00 $IIMDA,29.9,I,1.014,B,10.7,C,,C,94.7,,,C,,T,,M,,N,,M*20
20220705 010124+00:00 $HCHDT,40.3,T*1E
20220705 010124+00:00 $GPRMC,010120,A,4816.7100,N,12322.9698,W,9.99,50,050722,11.8,E,A,V*5A
20220705 010124+00:00 $WIMWV,273.09,R,10.38,N,A*16
20220705 010126+00:00 $IIMDA,29.9,I,1.014,B,10.7,C,,C,94.6,,,C,,T,,M,,N,,M*21
20220705 010126+00:00 $HCHDT,39.6,T*15
20220705 010126+00:00 $GPRMC,010122,A,4816.7100,N,12322.9698,W,9.99,49,050722,11.8,E,A,V*50
20220705 010126+00:00 $WIMWV,276.19,R,9.99,N,A*21
20220705 010128+00:00 $IIMDA,29.9,I,1.014,B,10.7,C,,C,94.7,,,C,,T,,M,,N,,M*20
20220705 010128+00:00 $HCHDT,39.3,T*10
20220705 010128+00:00 $GPRMC,010124,A,4816.7100,N,12322.9596,W,9.89,48,050722,11.8,E,A,V*5B
20220705 010128+00:00 $WIMWV,275.09,R,9.99,N,A*23
20220705 010130+00:00 $IIMDA,29.9,I,1.014,B,10.7,C,,C,94.7,,,C,,T,,M,,N,,M*20
20220705 010130+00:00 $HCHDT,39.5,T*16
20220705 010130+00:00 $GPRMC,010126,A,4816.7196,N,12322.9596,W,9.89,48,050722,11.8,E,A,V*56
20220705 010130+00:00 $WIMWV,274.09,R,9.89,N,A*23
20220705 010132+00:00 $IIMDA,29.9,I,1.014,B,10.7,C,,C,94.7,,,C,,T,,M,,N,,M*20
20220705 010132+00:00 $HCHDT,40,T*03
20220705 010132+00:00 $GPRMC,010128,A,4816.7196,N,12322.9500,W,9.89,47,050722,11.8,E,A,V*58
20220705 010132+00:00 $WIMWV,275.79,R,9.89,N,A*25
20220705 010134+00:00 $IIMDA,29.9,I,1.014,B,10.7,C,,C,94.7,,,C,,T,,M,,N,,M*20
20220705 010134+00:00 $HCHDT,40.1,T*1C
20220705 010134+00:00 $GPRMC,010130,A,4816.7298,N,12322.9398,W,9.89,47,050722,11.8,E,A,V*5B
20220705 010134+00:00 $WIMWV,275.39,R,10.09,N,A*11
20220705 010136+00:00 $IIMDA,29.9,I,1.014,B,10.7,C,,C,94.6,,,C,,T,,M,,N,,M*21
20220705 010136+00:00 $HCHDT,40.1,T*1C
20220705 010136+00:00 $GPRMC,010132,A,4816.7298,N,12322.9398,W,9.89,47,050722,11.8,E,A,V*59
20220705 010136+00:00 $WIMWV,273.3,R,9.68,N,A*11
20220705 010138+00:00 $IIMDA,29.9,I,1.014,B,10.7,C,,C,94.7,,,C,,T,,M,,N,,M*20
20220705 010138+00:00 $HCHDT,40.2,T*1F
20220705 010138+00:00 $GPRMC,010134,A,4816.7298,N,12322.9296,W,9.99,46,050722,11.8,E,A,V*50
20220705 010138+00:00 $WIMWV,273.99,R,9.68,N,A*22
20220705 010140+00:00 $IIMDA,29.9,I,1.014,B,10.7,C,,C,94.7,,,C,,T,,M,,N,,M*20
20220705 010140+00:00 $HCHDT,40.5,T*18
20220705 010140+00:00 $GPRMC,010136,A,4816.7400,N,12322.9296,W,9.99,47,050722,11.8,E,A,V*54
20220705 010140+00:00 $WIMWV,273.99,R,10.09,N,A*1D
20220705 010142+00:00 $IIMDA,29.9,I,1.014,B,10.7,C,,C,94.7,,,C,,T,,M,,N,,M*20
20220705 010142+00:00 $HCHDT,40.7,T*1A
20220705 010142+00:00 $GPRMC,010138,A,4816.7400,N,12322.9200,W,9.99,47,050722,11.8,E,A,V*55
20220705 010142+00:00 $WIMWV,272.89,R,9.58,N,A*21
20220705 010144+00:00 $IIMDA,29.9,I,1.014,B,10.7,C,,C,94.7,,,C,,T,,M,,N,,M*20
20220705 010144+00:00 $HCHDT,40.4,T*19
20220705 010144+00:00 $GPRMC,010140,A,4816.7400,N,12322.9098,W,9.99,47,050722,11.8,E,A,V*59
20220705 010144+00:00 $WIMWV,274.19,R,10.38,N,A*10
20220705 010146+00:00 $IIMDA,29.9,I,1.014,B,10.7,C,,C,94.7,,,C,,T,,M,,N,,M*20
20220705 010146+00:00 $HCHDT,40,T*03
20220705 010146+00:00 $GPRMC,010142,A,4816.7496,N,12322.9098,W,9.99,47,050722,11.8,E,A,V*54
20220705 010146+00:00 $WIMWV,273.99,R,9.68,N,A*22
20220705 010148+00:00 $IIMDA,29.9,I,1.014,B,10.7,C,,C,94.7,,,C,,T,,M,,N,,M*20
20220705 010148+00:00 $HCHDT,40.4,T*19
20220705 010148+00:00 $GPRMC,010144,A,4816.7496,N,12322.8996,W,9.99,47,050722,11.8,E,A,V*54
20220705 010148+00:00 $WIMWV,276.69,R,9.58,N,A*2B
20220705 010150+00:00 $IIMDA,29.9,I,1.014,B,10.7,C,,C,94.7,,,C,,T,,M,,N,,M*20
20220705 010150+00:00 $HCHDT,40.7,T*1A
20220705 010150+00:00 $GPRMC,010146,A,4816.7598,N,12322.8996,W,9.99,47,050722,11.8,E,A,V*59
20220705 010150+00:00 $WIMWV,274.59,R,9.39,N,A*2D
20220705 010152+00:00 $IIMDA,29.9,I,1.014,B,10.7,C,,C,94.7,,,C,,T,,M,,N,,M*20
20220705 010152+00:00 $HCHDT,40.7,T*1A
20220705 010152+00:00 $GPRMC,010148,A,4816.7598,N,12322.8900,W,9.99,47,050722,11.8,E,A,V*58
20220705 010152+00:00 $WIMWV,274.69,R,9.49,N,A*29
20220705 010154+00:00 $IIMDA,29.9,I,1.014,B,10.7,C,,C,94.7,,,C,,T,,M,,N,,M*20
20220705 010154+00:00 $HCHDT,40.2,T*1F
20220705 010154+00:00 $GPRMC,010150,A,4816.7598,N,12322.8798,W,9.89,47,050722,11.8,E,A,V*5F
20220705 010154+00:00 $WIMWV,274.99,R,10.28,N,A*19
20220705 010156+00:00 $IIMDA,29.9,I,1.014,B,10.7,C,,C,94.7,,,C,,T,,M,,N,,M*20
20220705 010156+00:00 $HCHDT,40.1,T*1C
20220705 010156+00:00 $GPRMC,010152,A,4816.7700,N,12322.8798,W,9.89,47,050722,11.8,E,A,V*5E
20220705 010156+00:00 $WIMWV,275.09,R,9.99,N,A*23
20220705 010158+00:00 $IIMDA,29.9,I,1.014,B,10.7,C,,C,94.7,,,C,,T,,M,,N,,M*20
20220705 010158+00:00 $HCHDT,40.4,T*19
20220705 010158+00:00 $GPRMC,010154,A,4816.7700,N,12322.8696,W,9.89,47,050722,11.8,E,A,V*57
20220705 010158+00:00 $WIMWV,273.09,R,10.19,N,A*15
20220705 010200+00:00 $IIMDA,29.9,I,1.014,B,10.7,C,,C,94.7,,,C,,T,,M,,N,,M*20
20220705 010200+00:00 $HCHDT,40.3,T*1E
20220705 010200+00:00 $GPRMC,010156,A,4816.7796,N,12322.8696,W,9.89,47,050722,11.8,E,A,V*5A
20220705 010200+00:00 $WIMWV,273.09,R,10.09,N,A*14
20220705 010202+00:00 $IIMDA,29.9,I,1.014,B,10.7,C,,C,94.7,,,C,,T,,M,,N,,M*20
20220705 010202+00:00 $HCHDT,40,T*03
20220705 010202+00:00 $GPRMC,010158,A,4816.7796,N,12322.8600,W,9.89,47,050722,11.8,E,A,V*5B
20220705 010202+00:00 $WIMWV,276.89,R,9.58,N,A*25
20220705 010204+00:00 $IIMDA,29.9,I,1.014,B,10.7,C,,C,94.7,,,C,,T,,M,,N,,M*20
20220705 010204+00:00 $HCHDT,40.1,T*1C
20220705 010204+00:00 $GPRMC,010200,A,4816.7796,N,12322.8498,W,9.89,47,050722,11.8,E,A,V*56
20220705 010204+00:00 $WIMWV,275.5,R,9.99,N,A*1F
20220705 010206+00:00 $IIMDA,29.9,I,1.014,B,10.7,C,,C,94.7,,,C,,T,,M,,N,,M*20
20220705 010206+00:00 $HCHDT,40.1,T*1C
20220705 010206+00:00 $GPRMC,010202,A,4816.7898,N,12322.8498,W,9.89,47,050722,11.8,E,A,V*55
20220705 010206+00:00 $WIMWV,276.19,R,9.39,N,A*2B
20220705 010208+00:00 $IIMDA,29.9,I,1.014,B,10.7,C,,C,94.7,,,C,,T,,M,,N,,M*20
20220705 010208+00:00 $HCHDT,39.7,T*14
20220705 010208+00:00 $GPRMC,010204,A,4816.7898,N,12322.8396,W,9.89,46,050722,11.8,E,A,V*5B
20220705 010208+00:00 $WIMWV,276.99,R,9.99,N,A*29
20220705 010210+00:00 $IIMDA,29.9,I,1.014,B,10.7,C,,C,94.7,,,C,,T,,M,,N,,M*20
20220705 010210+00:00 $HCHDT,39.5,T*16
20220705 010210+00:00 $GPRMC,010206,A,4816.7898,N,12322.8396,W,9.89,46,050722,11.8,E,A,V*59
20220705 010210+00:00 $WIMWV,274.79,R,10.19,N,A*15
20220705 010212+00:00 $IIMDA,29.9,I,1.014,B,10.7,C,,C,94.7,,,C,,T,,M,,N,,M*20
20220705 010212+00:00 $HCHDT,39.8,T*1B
20220705 010212+00:00 $GPRMC,010208,A,4816.8000,N,12322.8300,W,9.89,46,050722,11.8,E,A,V*5E
20220705 010212+00:00 $WIMWV,274.99,R,10.09,N,A*1A
20220705 010214+00:00 $IIMDA,29.9,I,1.014,B,10.7,C,,C,94.7,,,C,,T,,M,,N,,M*20
20220705 010214+00:00 $HCHDT,40,T*03
20220705 010214+00:00 $GPRMC,010210,A,4816.8000,N,12322.8198,W,9.89,46,050722,11.8,E,A,V*54
20220705 010214+00:00 $WIMWV,274.99,R,9.8,N,A*13
20220705 010216+00:00 $IIMDA,29.9,I,1.014,B,10.7,C,,C,94.7,,,C,,T,,M,,N,,M*20
20220705 010216+00:00 $HCHDT,39.7,T*14
20220705 010216+00:00 $GPRMC,010212,A,4816.8096,N,12322.8198,W,9.89,46,050722,11.8,E,A,V*59
20220705 010216+00:00 $WIMWV,278.09,R,9.39,N,A*24
20220705 010218+00:00 $IIMDA,29.9,I,1.014,B,10.7,C,,C,94.7,,,C,,T,,M,,N,,M*20
20220705 010218+00:00 $HCHDT,39.4,T*17
20220705 010218+00:00 $GPRMC,010214,A,4816.8096,N,12322.8096,W,9.89,46,050722,11.8,E,A,V*50
20220705 010218+00:00 $WIMWV,275.5,R,9.68,N,A*11
20220705 010220+00:00 $IIMDA,29.9,I,1.014,B,10.7,C,,C,94.7,,,C,,T,,M,,N,,M*20
20220705 010220+00:00 $HCHDT,39.6,T*15
20220705 010220+00:00 $GPRMC,010216,A,4816.8096,N,12322.8096,W,9.89,46,050722,11.8,E,A,V*52
20220705 010220+00:00 $WIMWV,274.69,R,9.39,N,A*2E
20220705 010222+00:00 $IIMDA,29.9,I,1.014,B,10.7,C,,C,94.7,,,C,,T,,M,,N,,M*20
20220705 010222+00:00 $HCHDT,39.9,T*1A
20220705 010222+00:00 $GPRMC,010218,A,4816.8198,N,12322.8000,W,9.89,46,050722,11.8,E,A,V*5C
20220705 010222+00:00 $WIMWV,274.79,R,9.49,N,A*28
20220705 010224+00:00 $IIMDA,29.9,I,1.014,B,10.7,C,,C,94.7,,,C,,T,,M,,N,,M*20
20220705 010224+00:00 $HCHDT,39.6,T*15
20220705 010224+00:00 $GPRMC,010220,A,4816.8198,N,12322.7898,W,9.89,46,050722,11.8,E,A,V*51
20220705 010224+00:00 $WIMWV,275.29,R,9.39,N,A*2B
20220705 010226+00:00 $IIMDA,29.9,I,1.014,B,10.7,C,,C,94.7,,,C,,T,,M,,N,,M*20
20220705 010226+00:00 $HCHDT,39.6,T*15
20220705 010226+00:00 $GPRMC,010222,A,4816.8198,N,12322.7898,W,9.89,46,050722,11.8,E,A,V*53
20220705 010226+00:00 $WIMWV,276.79,R,9.39,N,A*2D
20220705 010228+00:00 $IIMDA,29.9,I,1.014,B,10.7,C,,C,94.7,,,C,,T,,M,,N,,M*20
20220705 010228+00:00 $HCHDT,40.2,T*1F
20220705 010228+00:00 $GPRMC,010224,A,4816.8300,N,12322.7796,W,9.89,46,050722,11.8,E,A,V*57
20220705 010228+00:00 $WIMWV,273.09,R,9.89,N,A*24
20220705 010230+00:00 $IIMDA,29.9,I,1.014,B,10.7,C,,C,94.7,,,C,,T,,M,,N,,M*20
20220705 010230+00:00 $HCHDT,40.5,T*18
20220705 010230+00:00 $GPRMC,010226,A,4816.8300,N,12322.7796,W,9.89,46,050722,11.8,E,A,V*55
20220705 010230+00:00 $WIMWV,272.69,R,9.39,N,A*28
20220705 010232+00:00 $IIMDA,29.9,I,1.014,B,10.7,C,,C,94.7,,,C,,T,,M,,N,,M*20
20220705 010232+00:00 $HCHDT,40.3,T*1E
20220705 010232+00:00 $GPRMC,010228,A,4816.8396,N,12322.7700,W,9.89,46,050722,11.8,E,A,V*5B
20220705 010232+00:00 $WIMWV,274.79,R,9.29,N,A*2E
20220705 010234+00:00 $IIMDA,29.9,I,1.014,B,10.7,C,,C,94.7,,,C,,T,,M,,N,,M*20
20220705 010234+00:00 $HCHDT,40,T*03
20220705 010234+00:00 $GPRMC,010230,A,4816.8396,N,12322.7598,W,9.89,47,050722,11.8,E,A,V*50
20220705 010234+00:00 $WIMWV,274.79,R,9.29,N,A*2E
20220705 010236+00:00 $IIMDA,29.9,I,1.014,B,10.7,C,,C,94.7,,,C,,T,,M,,N,,M*20
20220705 010236+00:00 $HCHDT,40.1,T*1C
20220705 010236+00:00 $GPRMC,010232,A,4816.8396,N,12322.7598,W,9.89,47,050722,11.8,E,A,V*52
20220705 010236+00:00 $WIMWV,274.99,R,9.8,N,A*13
20220705 010238+00:00 $IIMDA,29.9,I,1.014,B,10.7,C,,C,94.7,,,C,,T,,M,,N,,M*20
20220705 010238+00:00 $HCHDT,40.8,T*15
20220705 010238+00:00 $GPRMC,010234,A,4816.8498,N,12322.7496,W,9.89,47,050722,11.8,E,A,V*52
20220705 010238+00:00 $WIMWV,275.5,R,9.1,N,A*2E
20220705 010240+00:00 $IIMDA,29.9,I,1.014,B,10.7,C,,C,94.7,,,C,,T,,M,,N,,M*20
20220705 010240+00:00 $HCHDT,40.5,T*18
20220705 010240+00:00 $GPRMC,010236,A,4816.8498,N,12322.7496,W,9.89,47,050722,11.8,E,A,V*50
20220705 010240+00:00 $WIMWV,275.79,R,9.49,N,A*29
20220705 010242+00:00 $IIMDA,29.9,I,1.014,B,10.7,C,,C,94.7,,,C,,T,,M,,N,,M*20
20220705 010242+00:00 $HCHDT,39.9,T*1A
20220705 010242+00:00 $GPRMC,010238,A,4816.8498,N,12322.7400,W,9.89,47,050722,11.8,E,A,V*51
20220705 010242+00:00 $WIMWV,277.59,R,9.68,N,A*2A
20220705 010244+00:00 $IIMDA,29.9,I,1.014,B,10.7,C,,C,94.7,,,C,,T,,M,,N,,M*20
20220705 010244+00:00 $HCHDT,40,T*03
20220705 010244+00:00 $GPRMC,010240,A,4816.8600,N,12322.7298,W,9.89,47,050722,11.8,E,A,V*5A
20220705 010244+00:00 $WIMWV,276.59,R,9.8,N,A*1D
20220705 010246+00:00 $IIMDA,29.9,I,1.014,B,10.7,C,,C,94.7,,,C,,T,,M,,N,,M*20
20220705 010246+00:00 $HCHDT,40.3,T*1E
20220705 010246+00:00 $GPRMC,010242,A,4816.8600,N,12322.7298,W,9.89,47,050722,11.8,E,A,V*58
20220705 010246+00:00 $WIMWV,274.79,R,9.99,N,A*25
20220705 010248+00:00 $IIMDA,29.9,I,1.014,B,10.7,C,,C,94.7,,,C,,T,,M,,N,,M*20
20220705 010248+00:00 $HCHDT,40.1,T*1C
20220705 010248+00:00 $GPRMC,010244,A,4816.8696,N,12322.7196,W,9.89,47,050722,11.8,E,A,V*5C
20220705 010248+00:00 $WIMWV,274.4,R,9.49,N,A*12
20220705 010250+00:00 $IIMDA,29.9,I,1.014,B,10.7,C,,C,94.7,,,C,,T,,M,,N,,M*20
20220705 010250+00:00 $HCHDT,39.5,T*16
20220705 010250+00:00 $GPRMC,010246,A,4816.8696,N,12322.7196,W,9.89,47,050722,11.8,E,A,V*5E
20220705 010250+00:00 $WIMWV,276.19,R,9.99,N,A*21
20220705 010252+00:00 $IIMDA,29.9,I,1.014,B,10.7,C,,C,94.7,,,C,,T,,M,,N,,M*20
20220705 010252+00:00 $HCHDT,39.3,T*10
20220705 010252+00:00 $GPRMC,010248,A,4816.8696,N,12322.7100,W,9.89,47,050722,11.8,E,A,V*5F
20220705 010252+00:00 $WIMWV,274.09,R,10.19,N,A*12
20220705 010254+00:00 $IIMDA,29.9,I,1.014,B,10.7,C,,C,94.6,,,C,,T,,M,,N,,M*21
20220705 010254+00:00 $HCHDT,39.6,T*15
20220705 010254+00:00 $GPRMC,010250,A,4816.8798,N,12322.6998,W,9.89,46,050722,11.8,E,A,V*50
20220705 010254+00:00 $WIMWV,272.99,R,9.99,N,A*2D
20220705 010256+00:00 $IIMDA,29.9,I,1.014,B,10.7,C,,C,94.6,,,C,,T,,M,,N,,M*21
20220705 010256+00:00 $HCHDT,39.7,T*14
20220705 010256+00:00 $GPRMC,010252,A,4816.8798,N,12322.6998,W,9.89,46,050722,11.8,E,A,V*52
20220705 010256+00:00 $WIMWV,277.99,R,9.58,N,A*25
20220705 010258+00:00 $IIMDA,29.9,I,1.014,B,10.7,C,,C,94.7,,,C,,T,,M,,N,,M*20
20220705 010258+00:00 $HCHDT,39.5,T*16
20220705 010258+00:00 $GPRMC,010254,A,4816.8900,N,12322.6896,W,9.89,46,050722,11.8,E,A,V*54
20220705 010258+00:00 $WIMWV,273.89,R,9.89,N,A*2C
20220705 010300+00:00 $IIMDA,29.9,I,1.014,B,10.7,C,,C,94.6,,,C,,T,,M,,N,,M*21
20220705 010300+00:00 $HCHDT,39.4,T*17
20220705 010300+00:00 $GPRMC,010256,A,4816.8900,N,12322.6896,W,9.89,46,050722,11.8,E,A,V*56
20220705 010300+00:00 $WIMWV,277.19,R,9.19,N,A*28
20220705 010302+00:00 $IIMDA,29.9,I,1.014,B,10.7,C,,C,94.7,,,C,,T,,M,,N,,M*20
20220705 010302+00:00 $HCHDT,39.9,T*1A
20220705 010302+00:00 $GPRMC,010258,A,4816.8900,N,12322.6800,W,9.89,46,050722,11.8,E,A,V*57
20220705 010302+00:00 $WIMWV,276.89,R,9.89,N,A*29
20220705 010304+00:00 $IIMDA,29.9,I,1.014,B,10.7,C,,C,94.6,,,C,,T,,M,,N,,M*21
20220705 010304+00:00 $HCHDT,40,T*03
20220705 010304+00:00 $GPRMC,010300,A,4816.8996,N,12322.6698,W,9.89,46,050722,11.8,E,A,V*5B
20220705 010304+00:00 $WIMWV,275.39,R,9.39,N,A*2A
20220705 010306+00:00 $IIMDA,29.9,I,1.014,B,10.7,C,,C,94.6,,,C,,T,,M,,N,,M*21
20220705 010306+00:00 $HCHDT,39.9,T*1A
20220705 010306+00:00 $GPRMC,010302,A,4816.8996,N,12322.6698,W,9.89,46,050722,11.8,E,A,V*59
20220705 010306+00:00 $WIMWV,279.09,R,9.58,N,A*22
20220705 010308+00:00 $IIMDA,29.9,I,1.014,B,10.7,C,,C,94.6,,,C,,T,,M,,N,,M*21
20220705 010308+00:00 $HCHDT,40.1,T*1C
20220705 010308+00:00 $GPRMC,010304,A,4816.8996,N,12322.6596,W,9.89,46,050722,11.8,E,A,V*52
20220705 010308+00:00 $WIMWV,275.59,R,10.19,N,A*16
20220705 010310+00:00 $IIMDA,29.9,I,1.014,B,10.7,C,,C,94.6,,,C,,T,,M,,N,,M*21
20220705 010310+00:00 $HCHDT,40.5,T*18
20220705 010310+00:00 $GPRMC,010306,A,4816.9098,N,12322.6596,W,9.89,46,050722,11.8,E,A,V*56
20220705 010310+00:00 $WIMWV,273.09,R,10.28,N,A*17
20220705 010312+00:00 $IIMDA,29.9,I,1.014,B,10.7,C,,C,94.6,,,C,,T,,M,,N,,M*21
20220705 010312+00:00 $HCHDT,40.5,T*18
20220705 010312+00:00 $GPRMC,010308,A,4816.9098,N,12322.6500,W,9.89,46,050722,11.8,E,A,V*57
20220705 010312+00:00 $WIMWV,272.89,R,10.19,N,A*1C
20220705 010314+00:00 $IIMDA,29.9,I,1.014,B,10.7,C,,C,94.6,,,C,,T,,M,,N,,M*21
20220705 010314+00:00 $HCHDT,40.1,T*1C
20220705 010314+00:00 $GPRMC,010310,A,4816.9200,N,12322.6398,W,9.89,46,050722,11.8,E,A,V*5A
20220705 010314+00:00 $WIMWV,274.69,R,9.29,N,A*2F
20220705 010316+00:00 $IIMDA,29.9,I,1.014,B,10.7,C,,C,94.6,,,C,,T,,M,,N,,M*21
20220705 010316+00:00 $HCHDT,40.2,T*1F
20220705 010316+00:00 $GPRMC,010312,A,4816.9200,N,12322.6398,W,9.99,46,050722,11.8,E,A,V*59
20220705 010316+00:00 $WIMWV,273.09,R,9.39,N,A*2F
20220705 010318+00:00 $IIMDA,29.9,I,1.014,B,10.7,C,,C,94.6,,,C,,T,,M,,N,,M*21
20220705 010318+00:00 $HCHDT,40.5,T*18
20220705 010318+00:00 $GPRMC,010314,A,4816.9200,N,12322.6296,W,9.99,46,050722,11.8,E,A,V*50
20220705 010318+00:00 $WIMWV,273.79,R,9.99,N,A*22
20220705 010320+00:00 $IIMDA,29.9,I,1.014,B,10.7,C,,C,94.6,,,C,,T,,M,,N,,M*21
20220705 010320+00:00 $HCHDT,40.4,T*19
20220705 010320+00:00 $GPRMC,010316,A,4816.9296,N,12322.6296,W,9.89,46,050722,11.8,E,A,V*5C
20220705 010320+00:00 $WIMWV,276.09,R,8.88,N,A*21
20220705 010322+00:00 $IIMDA,29.9,I,1.014,B,10.7,C,,C,94.6,,,C,,T,,M,,N,,M*21
20220705 010322+00:00 $HCHDT,40.1,T*1C
20220705 010322+00:00 $GPRMC,010318,A,4816.9296,N,12322.6200,W,9.89,46,050722,11.8,E,A,V*5D
20220705 010322+00:00 $WIMWV,272.89,R,9.68,N,A*22
20220705 010324+00:00 $IIMDA,29.9,I,1.014,B,10.7,C,,C,94.6,,,C,,T,,M,,N,,M*21
20220705 010324+00:00 $HCHDT,40,T*03
20220705 010324+00:00 $GPRMC,010320,A,4816.9296,N,12322.6098,W,9.89,46,050722,11.8,E,A,V*55
20220705 010324+00:00 $WIMWV,272.69,R,10.28,N,A*10
20220705 010326+00:00 $IIMDA,29.9,I,1.014,B,10.7,C,,C,94.6,,,C,,T,,M,,N,,M*21
20220705 010326+00:00 $HCHDT,40,T*03
20220705 010326+00:00 $GPRMC,010322,A,4816.9398,N,12322.6098,W,9.99,46,050722,11.8,E,A,V*59
20220705 010326+00:00 $WIMWV,275.29,R,9.58,N,A*2C
20220705 010328+00:00 $IIMDA,29.9,I,1.014,B,10.7,C,,C,94.6,,,C,,T,,M,,N,,M*21
20220705 010328+00:00 $HCHDT,40,T*03
20220705 010328+00:00 $GPRMC,010324,A,4816.9398,N,12322.5996,W,9.99,46,050722,11.8,E,A,V*5B
20220705 010328+00:00 $WIMWV,273.59,R,9.8,N,A*18
20220705 010330+00:00 $IIMDA,29.9,I,1.014,B,10.7,C,,C,94.6,,,C,,T,,M,,N,,M*21
20220705 010330+00:00 $HCHDT,39.7,T*14
20220705 010330+00:00 $GPRMC,010326,A,4816.9500,N,12322.5996,W,9.99,46,050722,11.8,E,A,V*5E
20220705 010330+00:00 $WIMWV,275.39,R,9.39,N,A*2A
20220705 010332+00:00 $IIMDA,29.9,I,1.014,B,10.7,C,,C,94.6,,,C,,T,,M,,N,,M*21
20220705 010332+00:00 $HCHDT,39.6,T*15
20220705 010332+00:00 $GPRMC,010328,A,4816.9500,N,12322.5900,W,9.99,46,050722,11.8,E,A,V*5F
20220705 010332+00:00 $WIMWV,273.3,R,9.89,N,A*1E
20220705 010334+00:00 $IIMDA,29.9,I,1.014,B,10.7,C,,C,94.6,,,C,,T,,M,,N,,M*21
20220705 010334+00:00 $HCHDT,39.8,T*1B
20220705 010334+00:00 $GPRMC,010330,A,4816.9500,N,12322.5798,W,9.99,46,050722,11.8,E,A,V*59
20220705 010334+00:00 $WIMWV,275.59,R,9.99,N,A*26
20220705 010336+00:00 $IIMDA,29.9,I,1.014,B,10.7,C,,C,94.6,,,C,,T,,M,,N,,M*21
20220705 010336+00:00 $HCHDT,40.2,T*1F
20220705 010336+00:00 $GPRMC,010332,A,4816.9596,N,12322.5798,W,9.89,45,050722,11.8,E,A,V*56
20220705 010336+00:00 $WIMWV,273.49,R,9.8,N,A*19
20220705 010338+00:00 $IIMDA,29.9,I,1.014,B,10.7,C,,C,94.6,,,C,,T,,M,,N,,M*21
20220705 010338+00:00 $HCHDT,40.2,T*1F
20220705 010338+00:00 $GPRMC,010334,A,4816.9596,N,12322.5696,W,9.99,45,050722,11.8,E,A,V*5E
20220705 010338+00:00 $WIMWV,275.59,R,9.89,N,A*27
20220705 010340+00:00 $IIMDA,29.9,I,1.014,B,10.7,C,,C,94.6,,,C,,T,,M,,N,,M*21
20220705 010340+00:00 $HCHDT,39.9,T*1A
20220705 010340+00:00 $GPRMC,010336,A,4816.9698,N,12322.5696,W,9.99,45,050722,11.8,E,A,V*51
20220705 010340+00:00 $WIMWV,273.09,R,10.09,N,A*14
20220705 010342+00:00 $IIMDA,29.9,I,1.014,B,10.7,C,,C,94.6,,,C,,T,,M,,N,,M*21
20220705 010342+00:00 $HCHDT,40,T*03
20220705 010342+00:00 $GPRMC,010338,A,4816.9698,N,12322.5600,W,9.99,45,050722,11.8,E,A,V*50
20220705 010342+00:00 $WIMWV,275.19,R,9.89,N,A*23
20220705 010344+00:00 $IIMDA,29.9,I,1.014,B,10.7,C,,C,94.6,,,C,,T,,M,,N,,M*21
20220705 010344+00:00 $HCHDT,40.3,T*1E
20220705 010344+00:00 $GPRMC,010340,A,4816.9698,N,12322.5600,W,9.99,45,050722,11.8,E,A,V*5F
20220705 010344+00:00 $WIMWV,273.3,R,10.79,N,A*29
20220705 010346+00:00 $IIMDA,29.9,I,1.014,B,10.7,C,,C,94.6,,,C,,T,,M,,N,,M*21
20220705 010346+00:00 $HCHDT,40.5,T*18
20220705 010346+00:00 $GPRMC,010342,A,4816.9800,N,12322.5498,W,9.99,45,050722,11.8,E,A,V*51
20220705 010346+00:00 $WIMWV,275.09,R,9.49,N,A*2E
20220705 010348+00:00 $IIMDA,29.9,I,1.014,B,10.7,C,,C,94.6,,,C,,T,,M,,N,,M*21
20220705 010348+00:00 $HCHDT,40.2,T*1F
20220705 010348+00:00 $GPRMC,010344,A,4816.9800,N,12322.5396,W,9.89,45,050722,11.8,E,A,V*5F
20220705 010348+00:00 $WIMWV,275.39,R,9.99,N,A*20
20220705 010350+00:00 $IIMDA,29.9,I,1.014,B,10.7,C,,C,94.6,,,C,,T,,M,,N,,M*21
20220705 010350+00:00 $HCHDT,40,T*03
20220705 010350+00:00 $GPRMC,010346,A,4816.9896,N,12322.5396,W,9.99,45,050722,11.8,E,A,V*53
20220705 010350+00:00 $WIMWV,276.29,R,10.09,N,A*13
20220705 010352+00:00 $IIMDA,29.9,I,1.014,B,10.7,C,,C,94.6,,,C,,T,,M,,N,,M*21
20220705 010352+00:00 $HCHDT,40.3,T*1E
20220705 010352+00:00 $GPRMC,010348,A,4816.9896,N,12322.5300,W,9.89,45,050722,11.8,E,A,V*53
20220705 010352+00:00 $WIMWV,276.39,R,9.49,N,A*2E
20220705 010354+00:00 $IIMDA,29.9,I,1.014,B,10.7,C,,C,94.6,,,C,,T,,M,,N,,M*21
20220705 010354+00:00 $HCHDT,40.6,T*1B
20220705 010354+00:00 $GPRMC,010350,A,4816.9896,N,12322.5300,W,9.89,45,050722,11.8,E,A,V*5A
20220705 010354+00:00 $WIMWV,276.29,R,9.8,N,A*1A
20220705 010356+00:00 $IIMDA,29.9,I,1.014,B,10.7,C,,C,94.6,,,C,,T,,M,,N,,M*21
20220705 010356+00:00 $HCHDT,40.3,T*1E
20220705 010356+00:00 $GPRMC,010352,A,4816.9998,N,12322.5198,W,9.89,45,050722,11.8,E,A,V*54
20220705 010356+00:00 $WIMWV,274.09,R,10.38,N,A*11
20220705 010358+00:00 $IIMDA,29.9,I,1.014,B,10.7,C,,C,94.6,,,C,,T,,M,,N,,M*21
20220705 010358+00:00 $HCHDT,40.1,T*1C
20220705 010358+00:00 $GPRMC,010354,A,4816.9998,N,12322.5096,W,9.89,45,050722,11.8,E,A,V*5D
20220705 010358+00:00 $WIMWV,273.59,R,9.68,N,A*2E
20220705 010400+00:00 $IIMDA,29.9,I,1.014,B,10.7,C,,C,94.6,,,C,,T,,M,,N,,M*21
20220705 010400+00:00 $HCHDT,40.2,T*1F
20220705 010400+00:00 $GPRMC,010356,A,4816.9998,N,12322.5096,W,9.89,45,050722,11.8,E,A,V*5F
20220705 010400+00:00 $WIMWV,273.39,R,10.38,N,A*15
20220705 010402+00:00 $IIMDA,29.9,I,1.014,B,10.7,C,,C,94.6,,,C,,T,,M,,N,,M*21
20220705 010402+00:00 $HCHDT,40.3,T*1E
20220705 010402+00:00 $GPRMC,010358,A,4817.0100,N,12322.5000,W,9.89,45,050722,11.7,E,A,V*50
20220705 010402+00:00 $WIMWV,275.19,R,9.39,N,A*28
20220705 010404+00:00 $IIMDA,29.9,I,1.014,B,10.7,C,,C,94.6,,,C,,T,,M,,N,,M*21
20220705 010404+00:00 $HCHDT,39.8,T*1B
20220705 010404+00:00 $GPRMC,010400,A,4817.0100,N,12322.5000,W,9.89,45,050722,11.7,E,A,V*5A
20220705 010404+00:00 $WIMWV,273.89,R,9.58,N,A*20
20220705 010406+00:00 $IIMDA,29.9,I,1.014,B,10.7,C,,C,94.6,,,C,,T,,M,,N,,M*21
20220705 010406+00:00 $HCHDT,39.5,T*16
20220705 010406+00:00 $GPRMC,010402,A,4817.0196,N,12322.4898,W,9.89,45,050722,11.7,E,A,V*5F
20220705 010406+00:00 $WIMWV,273.59,R,9.39,N,A*2A
20220705 010408+00:00 $IIMDA,29.9,I,1.014,B,10.7,C,,C,94.6,,,C,,T,,M,,N,,M*21
20220705 010408+00:00 $HCHDT,39.8,T*1B
20220705 010408+00:00 $GPRMC,010404,A,4817.0196,N,12322.4898,W,9.89,45,050722,11.7,E,A,V*59
20220705 010408+00:00 $WIMWV,273.89,R,9.89,N,A*2C
20220705 010410+00:00 $IIMDA,29.9,I,1.014,B,10.7,C,,C,94.6,,,C,,T,,M,,N,,M*21
20220705 010410+00:00 $HCHDT,40.1,T*1C
20220705 010410+00:00 $GPRMC,010406,A,4817.0196,N,12322.4796,W,9.89,45,050722,11.7,E,A,V*5A
20220705 010410+00:00 $WIMWV,274.19,R,9.8,N,A*1B
20220705 010412+00:00 $IIMDA,29.9,I,1.014,B,10.7,C,,C,94.6,,,C,,T,,M,,N,,M*21
20220705 010412+00:00 $HCHDT,40.1,T*1C
20220705 010412+00:00 $GPRMC,010408,A,4817.0298,N,12322.4700,W,9.89,45,050722,11.7,E,A,V*56
20220705 010412+00:00 $WIMWV,273.59,R,9.49,N,A*2D
20220705 010414+00:00 $IIMDA,29.9,I,1.014,B,10.7,C,,C,94.6,,,C,,T,,M,,N,,M*21
20220705 010414+00:00 $HCHDT,40,T*03
20220705 010414+00:00 $GPRMC,010410,A,4817.0298,N,12322.4700,W,9.89,45,050722,11.7,E,A,V*5F
20220705 010414+00:00 $WIMWV,274.59,R,10.59,N,A*13
20220705 010416+00:00 $IIMDA,29.9,I,1.014,B,10.7,C,,C,94.6,,,C,,T,,M,,N,,M*21
20220705 010416+00:00 $HCHDT,40.3,T*1E
20220705 010416+00:00 $GPRMC,010412,A,4817.0400,N,12322.4598,W,9.89,45,050722,11.7,E,A,V*59
20220705 010416+00:00 $WIMWV,276.09,R,10.09,N,A*11
20220705 010418+00:00 $IIMDA,29.9,I,1.014,B,10.7,C,,C,94.6,,,C,,T,,M,,N,,M*21
20220705 010418+00:00 $HCHDT,40.5,T*18
20220705 010418+00:00 $GPRMC,010414,A,4817.0400,N,12322.4598,W,9.89,45,050722,11.7,E,A,V*5F
20220705 010418+00:00 $WIMWV,275.69,R,9.89,N,A*24
20220705 010420+00:00 $IIMDA,29.9,I,1.014,B,10.7,C,,C,94.6,,,C,,T,,M,,N,,M*21
20220705 010420+00:00 $HCHDT,40.4,T*19
20220705 010420+00:00 $GPRMC,010416,A,4817.0400,N,12322.4496,W,9.89,45,050722,11.7,E,A,V*52
20220705 010420+00:00 $WIMWV,275.29,R,9.49,N,A*2C
20220705 010422+00:00 $IIMDA,29.9,I,1.014,B,10.7,C,,C,94.6,,,C,,T,,M,,N,,M*21
20220705 010422+00:00 $HCHDT,40.3,T*1E
20220705 010422+00:00 $GPRMC,010418,A,4817.0496,N,12322.4400,W,9.89,45,050722,11.7,E,A,V*5C
20220705 010422+00:00 $WIMWV,273.3,R,10.09,N,A*2E
20220705 010424+00:00 $IIMDA,29.9,I,1.014,B,10.7,C,,C,94.6,,,C,,T,,M,,N,,M*21
20220705 010424+00:00 $HCHDT,40.5,T*18
20220705 010424+00:00 $GPRMC,010420,A,4817.0496,N,12322.4400,W,9.89,45,050722,11.7,E,A,V*57
20220705 010424+00:00 $WIMWV,273.59,R,10.09,N,A*11
20220705 010426+00:00 $IIMDA,29.9,I,1.014,B,10.7,C,,C,94.6,,,C,,T,,M,,N,,M*21
20220705 010426+00:00 $HCHDT,40.7,T*1A
20220705 010426+00:00 $GPRMC,010422,A,4817.0598,N,12322.4298,W,9.89,45,050722,11.7,E,A,V*5D
20220705 010426+00:00 $WIMWV,271.59,R,10.28,N,A*10
20220705 010428+00:00 $IIMDA,29.9,I,1.014,B,10.7,C,,C,94.6,,,C,,T,,M,,N,,M*21
20220705 010428+00:00 $HCHDT,40.6,T*1B
20220705 010428+00:00 $GPRMC,010424,A,4817.0598,N,12322.4298,W,9.89,45,050722,11.7,E,A,V*5B
20220705 010428+00:00 $WIMWV,274.69,R,9.49,N,A*29
20220705 010430+00:00 $IIMDA,29.9,I,1.014,B,10.7,C,,C,94.6,,,C,,T,,M,,N,,M*21
20220705 010430+00:00 $HCHDT,40.5,T*18
20220705 010430+00:00 $GPRMC,010426,A,4817.0598,N,12322.4196,W,9.89,45,050722,11.7,E,A,V*54
20220705 010430+00:00 $WIMWV,273.79,R,9.99,N,A*22
20220705 010432+00:00 $IIMDA,29.9,I,1.014,B,10.7,C,,C,94.6,,,C,,T,,M,,N,,M*21
20220705 010432+00:00 $HCHDT,40.5,T*18
20220705 010432+00:00 $GPRMC,010428,A,4817.0700,N,12322.4100,W,9.89,45,050722,11.7,E,A,V*56
20220705 010432+00:00 $WIMWV,274.79,R,9.19,N,A*2D
20220705 010434+00:00 $IIMDA,29.9,I,1.014,B,10.7,C,,C,94.6,,,C,,T,,M,,N,,M*21
20220705 010434+00:00 $HCHDT,40.6,T*1B
20220705 010434+00:00 $GPRMC,010430,A,4817.0700,N,12322.4100,W,9.89,45,050722,11.7,E,A,V*5F
20220705 010434+00:00 $WIMWV,273.49,R,10.09,N,A*10
20220705 010436+00:00 $IIMDA,29.9,I,1.014,B,10.7,C,,C,94.6,,,C,,T,,M,,N,,M*21
20220705 010436+00:00 $HCHDT,40.6,T*1B
20220705 010436+00:00 $GPRMC,010432,A,4817.0700,N,12322.3998,W,9.89,45,050722,11.7,E,A,V*53
20220705 010436+00:00 $WIMWV,271.39,R,10.19,N,A*14
20220705 010438+00:00 $IIMDA,29.9,I,1.014,B,10.7,C,,C,94.5,,,C,,T,,M,,N,,M*22
20220705 010438+00:00 $HCHDT,40.5,T*18
20220705 010438+00:00 $GPRMC,010434,A,4817.0796,N,12322.3998,W,9.89,45,050722,11.7,E,A,V*5A
20220705 010438+00:00 $WIMWV,273.3,R,9.89,N,A*1E
20220705 010440+00:00 $IIMDA,29.9,I,1.014,B,10.7,C,,C,94.6,,,C,,T,,M,,N,,M*21
20220705 010440+00:00 $HCHDT,40.5,T*18
20220705 010440+00:00 $GPRMC,010436,A,4817.0796,N,12322.3896,W,9.89,45,050722,11.7,E,A,V*57
20220705 010440+00:00 $WIMWV,273.39,R,10.28,N,A*14
20220705 010442+00:00 $IIMDA,29.9,I,1.014,B,10.7,C,,C,94.6,,,C,,T,,M,,N,,M*21
20220705 010442+00:00 $HCHDT,40.7,T*1A
20220705 010442+00:00 $GPRMC,010438,A,4817.0898,N,12322.3896,W,9.89,45,050722,11.7,E,A,V*58
20220705 010442+00:00 $WIMWV,275.79,R,9.8,N,A*1C
20220705 010444+00:00 $IIMDA,29.9,I,1.014,B,10.7,C,,C,94.6,,,C,,T,,M,,N,,M*21
20220705 010444+00:00 $HCHDT,40.6,T*1B
20220705 010444+00:00 $GPRMC,010440,A,4817.0898,N,12322.3800,W,9.89,45,050722,11.7,E,A,V*58
20220705 010444+00:00 $WIMWV,274.49,R,9.8,N,A*1E
20220705 010446+00:00 $IIMDA,29.9,I,1.014,B,10.7,C,,C,94.6,,,C,,T,,M,,N,,M*21
20220705 010446+00:00 $HCHDT,40.6,T*1B
20220705 010446+00:00 $GPRMC,010442,A,4817.0898,N,12322.3698,W,9.89,45,050722,11.7,E,A,V*55
20220705 010446+00:00 $WIMWV,275.59,R,9.8,N,A*1E
20220705 010448+00:00 $IIMDA,29.9,I,1.014,B,10.7,C,,C,94.6,,,C,,T,,M,,N,,M*21
20220705 010448+00:00 $HCHDT,40.8,T*15
20220705 010448+00:00 $GPRMC,010444,A,4817.1000,N,12322.3698,W,9.89,45,050722,11.7,E,A,V*5B
20220705 010448+00:00 $WIMWV,273.3,R,9.99,N,A*1F
20220705 010450+00:00 $IIMDA,29.9,I,1.014,B,10.7,C,,C,94.6,,,C,,T,,M,,N,,M*21
20220705 010450+00:00 $HCHDT,40.9,T*14
20220705 010450+00:00 $GPRMC,010446,A,4817.1000,N,12322.3596,W,9.89,45,050722,11.7,E,A,V*54
20220705 010450+00:00 $WIMWV,273.79,R,10.09,N,A*13
20220705 010452+00:00 $IIMDA,29.9,I,1.014,B,10.7,C,,C,94.6,,,C,,T,,M,,N,,M*21
20220705 010452+00:00 $HCHDT,40.8,T*15
20220705 010452+00:00 $GPRMC,010448,A,4817.1096,N,12322.3596,W,9.89,45,050722,11.7,E,A,V*55
20220705 010452+00:00 $WIMWV,273.09,R,10.28,N,A*17
20220705 010454+00:00 $IIMDA,29.9,I,1.014,B,10.7,C,,C,94.6,,,C,,T,,M,,N,,M*21
20220705 010454+00:00 $HCHDT,40.9,T*14
20220705 010454+00:00 $GPRMC,010450,A,4817.1096,N,12322.3500,W,9.89,46,050722,11.7,E,A,V*50
20220705 010454+00:00 $WIMWV,273.79,R,9.89,N,A*23
20220705 010456+00:00 $IIMDA,29.9,I,1.014,B,10.7,C,,C,94.6,,,C,,T,,M,,N,,M*21
20220705 010456+00:00 $HCHDT,41.1,T*1D
20220705 010456+00:00 $GPRMC,010452,A,4817.1096,N,12322.3398,W,9.89,46,050722,11.7,E,A,V*55
20220705 010456+00:00 $WIMWV,272.39,R,10.09,N,A*16
20220705 010458+00:00 $IIMDA,29.9,I,1.014,B,10.7,C,,C,94.6,,,C,,T,,M,,N,,M*21
20220705 010458+00:00 $HCHDT,41.1,T*1D
20220705 010458+00:00 $GPRMC,010454,A,4817.1198,N,12322.3398,W,9.89,46,050722,11.7,E,A,V*5C
20220705 010458+00:00 $WIMWV,275.29,R,9.1,N,A*10
20220705 010500+00:00 $IIMDA,29.9,I,1.014,B,10.7,C,,C,94.6,,,C,,T,,M,,N,,M*21
20220705 010500+00:00 $HCHDT,40.9,T*14
20220705 010500+00:00 $GPRMC,010456,A,4817.1198,N,12322.3296,W,9.89,46,050722,11.7,E,A,V*51
20220705 010500+00:00 $WIMWV,273.99,R,10.28,N,A*1E
20220705 010502+00:00 $IIMDA,29.9,I,1.014,B,10.7,C,,C,94.6,,,C,,T,,M,,N,,M*21
20220705 010502+00:00 $HCHDT,40.9,T*14
20220705 010502+00:00 $GPRMC,010458,A,4817.1198,N,12322.3296,W,9.89,46,050722,11.7,E,A,V*5F
20220705 010502+00:00 $WIMWV,272.2,R,9.99,N,A*1F
20220705 010504+00:00 $IIMDA,29.9,I,1.014,B,10.7,C,,C,94.6,,,C,,T,,M,,N,,M*21
20220705 010504+00:00 $HCHDT,41.1,T*1D
20220705 010504+00:00 $GPRMC,010500,A,4817.1300,N,12322.3200,W,9.89,46,050722,11.7,E,A,V*5F
20220705 010504+00:00 $WIMWV,272.79,R,9.89,N,A*22
20220705 010506+00:00 $IIMDA,29.9,I,1.014,B,10.7,C,,C,94.6,,,C,,T,,M,,N,,M*21
20220705 010506+00:00 $HCHDT,41.3,T*1F
20220705 010506+00:00 $GPRMC,010502,A,4817.1300,N,12322.3098,W,9.89,46,050722,11.7,E,A,V*5E
20220705 010506+00:00 $WIMWV,272.89,R,9.58,N,A*21
20220705 010508+00:00 $IIMDA,29.9,I,1.014,B,10.7,C,,C,94.6,,,C,,T,,M,,N,,M*21
20220705 010508+00:00 $HCHDT,41.2,T*1E
20220705 010508+00:00 $GPRMC,010504,A,4817.1396,N,12322.3098,W,9.89,46,050722,11.7,E,A,V*57
20220705 010508+00:00 $WIMWV,272.89,R,9.1,N,A*1D
20220705 010510+00:00 $IIMDA,29.9,I,1.014,B,10.7,C,,C,94.6,,,C,,T,,M,,N,,M*21
20220705 010510+00:00 $HCHDT,40.9,T*14
20220705 010510+00:00 $GPRMC,010506,A,4817.1396,N,12322.2996,W,9.89,46,050722,11.7,E,A,V*53
20220705 010510+00:00 $WIMWV,272.99,R,9.39,N,A*27
20220705 010512+00:00 $IIMDA,29.9,I,1.014,B,10.7,C,,C,94.6,,,C,,T,,M,,N,,M*21
20220705 010512+00:00 $HCHDT,40.8,T*15
20220705 010512+00:00 $GPRMC,010508,A,4817.1396,N,12322.2996,W,9.89,46,050722,11.7,E,A,V*5D
20220705 010512+00:00 $WIMWV,275.79,R,9.8,N,A*1C
20220705 010514+00:00 $IIMDA,29.9,I,1.014,B,10.7,C,,C,94.6,,,C,,T,,M,,N,,M*21
20220705 010514+00:00 $HCHDT,40.9,T*14
20220705 010514+00:00 $GPRMC,010510,A,4817.1498,N,12322.2900,W,9.89,46,050722,11.7,E,A,V*52
20220705 010514+00:00 $WIMWV,272.99,R,9.8,N,A*15
20220705 010516+00:00 $IIMDA,29.9,I,1.014,B,10.7,C,,C,94.6,,,C,,T,,M,,N,,M*21
20220705 010516+00:00 $HCHDT,40.7,T*1A
20220705 010516+00:00 $GPRMC,010512,A,4817.1498,N,12322.2900,W,9.89,46,050722,11.7,E,A,V*50
20220705 010516+00:00 $WIMWV,272.49,R,9.68,N,A*2E
20220705 010518+00:00 $IIMDA,29.9,I,1.014,B,10.7,C,,C,94.6,,,C,,T,,M,,N,,M*21
20220705 010518+00:00 $HCHDT,40.3,T*1E
20220705 010518+00:00 $GPRMC,010514,A,4817.1498,N,12322.2798,W,9.89,46,050722,11.7,E,A,V*59
20220705 010518+00:00 $WIMWV,273.09,R,9.89,N,A*24
20220705 010520+00:00 $IIMDA,29.9,I,1.014,B,10.7,C,,C,94.6,,,C,,T,,M,,N,,M*21
20220705 010520+00:00 $HCHDT,40.1,T*1C
20220705 010520+00:00 $GPRMC,010516,A,4817.1600,N,12322.2696,W,9.89,46,050722,11.7,E,A,V*57
20220705 010520+00:00 $WIMWV,273.39,R,9.89,N,A*27
20220705 010522+00:00 $IIMDA,29.9,I,1.014,B,10.7,C,,C,94.6,,,C,,T,,M,,N,,M*21
20220705 010522+00:00 $HCHDT,40.3,T*1E
20220705 010522+00:00 $GPRMC,010518,A,4817.1600,N,12322.2696,W,9.89,46,050722,11.7,E,A,V*59
20220705 010522+00:00 $WIMWV,274.4,R,9.99,N,A*1F
20220705 010524+00:00 $IIMDA,29.9,I,1.014,B,10.7,C,,C,94.6,,,C,,T,,M,,N,,M*21
20220705 010524+00:00 $HCHDT,40.4,T*19
20220705 010524+00:00 $GPRMC,010520,A,4817.1696,N,12322.2600,W,9.89,46,050722,11.7,E,A,V*52
20220705 010524+00:00 $WIMWV,275.09,R,9.39,N,A*29
20220705 010526+00:00 $IIMDA,29.9,I,1.014,B,10.7,C,,C,94.6,,,C,,T,,M,,N,,M*21
20220705 010526+00:00 $HCHDT,40.2,T*1F
20220705 010526+00:00 $GPRMC,010522,A,4817.1696,N,12322.2600,W,9.89,46,050722,11.7,E,A,V*50
20220705 010526+00:00 $WIMWV,274.4,R,8.98,N,A*1F
20220705 010528+00:00 $IIMDA,29.9,I,1.014,B,10.7,C,,C,94.6,,,C,,T,,M,,N,,M*21
20220705 010528+00:00 $HCHDT,40.3,T*1E
20220705 010528+00:00 $GPRMC,010524,A,4817.1696,N,12322.2498,W,9.89,46,050722,11.7,E,A,V*55
20220705 010528+00:00 $WIMWV,272.39,R,9.68,N,A*29
20220705 010530+00:00 $IIMDA,29.9,I,1.014,B,10.7,C,,C,94.6,,,C,,T,,M,,N,,M*21
20220705 010530+00:00 $HCHDT,40.5,T*18
20220705 010530+00:00 $GPRMC,010526,A,4817.1798,N,12322.2396,W,9.89,46,050722,11.7,E,A,V*51
20220705 010530+00:00 $WIMWV,274.4,R,9.49,N,A*12
20220705 010532+00:00 $IIMDA,29.9,I,1.014,B,10.7,C,,C,94.6,,,C,,T,,M,,N,,M*21
20220705 010532+00:00 $HCHDT,40.6,T*1B
20220705 010532+00:00 $GPRMC,010528,A,4817.1798,N,12322.2396,W,9.8,46,050722,11.7,E,A,V*66
20220705 010532+00:00 $WIMWV,272.09,R,9.89,N,A*25
20220705 010534+00:00 $IIMDA,29.9,I,1.014,B,10.7,C,,C,94.6,,,C,,T,,M,,N,,M*21
20220705 010534+00:00 $HCHDT,40.6,T*1B
20220705 010534+00:00 $GPRMC,010530,A,4817.1900,N,12322.2300,W,9.8,46,050722,11.7,E,A,V*6F
20220705 010534+00:00 $WIMWV,271.99,R,9.19,N,A*26
20220705 010536+00:00 $IIMDA,29.9,I,1.014,B,10.7,C,,C,94.6,,,C,,T,,M,,N,,M*21
20220705 010536+00:00 $HCHDT,40.6,T*1B
20220705 010536+00:00 $GPRMC,010532,A,4817.1900,N,12322.2300,W,9.8,46,050722,11.7,E,A,V*6D
20220705 010536+00:00 $WIMWV,272.89,R,9.58,N,A*21
20220705 010538+00:00 $IIMDA,29.9,I,1.014,B,10.7,C,,C,94.6,,,C,,T,,M,,N,,M*21
20220705 010538+00:00 $HCHDT,41,T*02
20220705 010538+00:00 $GPRMC,010534,A,4817.1900,N,12322.2198,W,9.8,46,050722,11.7,E,A,V*68
20220705 010538+00:00 $WIMWV,274.79,R,9.1,N,A*14
20220705 010540+00:00 $IIMDA,29.9,I,1.014,B,10.7,C,,C,94.6,,,C,,T,,M,,N,,M*21
20220705 010540+00:00 $HCHDT,41,T*02
20220705 010540+00:00 $GPRMC,010536,A,4817.1996,N,12322.2096,W,9.8,46,050722,11.7,E,A,V*6A
20220705 010540+00:00 $WIMWV,272.29,R,9.1,N,A*17
20220705 010542+00:00 $IIMDA,29.9,I,1.014,B,10.7,C,,C,94.6,,,C,,T,,M,,N,,M*21
20220705 010542+00:00 $HCHDT,40.8,T*15
20220705 010542+00:00 $GPRMC,010538,A,4817.1996,N,12322.2096,W,9.8,46,050722,11.7,E,A,V*64
20220705 010542+00:00 $WIMWV,272.79,R,9.1,N,A*12
20220705 010544+00:00 $IIMDA,29.9,I,1.014,B,10.7,C,,C,94.6,,,C,,T,,M,,N,,M*21
20220705 010544+00:00 $HCHDT,40.8,T*15
20220705 010544+00:00 $GPRMC,010540,A,4817.1996,N,12322.2000,W,9.8,46,050722,11.7,E,A,V*64
20220705 010544+00:00 $WIMWV,273.59,R,9.68,N,A*2E
20220705 010546+00:00 $IIMDA,29.9,I,1.014,B,10.7,C,,C,94.6,,,C,,T,,M,,N,,M*21
20220705 010546+00:00 $HCHDT,40.9,T*14
20220705 010546+00:00 $GPRMC,010542,A,4817.2098,N,12322.2000,W,9.8,46,050722,11.7,E,A,V*62
20220705 010546+00:00 $WIMWV,272.09,R,9.49,N,A*29
20220705 010548+00:00 $IIMDA,29.9,I,1.014,B,10.7,C,,C,94.6,,,C,,T,,M,,N,,M*21
20220705 010548+00:00 $HCHDT,40.8,T*15
20220705 010548+00:00 $GPRMC,010544,A,4817.2098,N,12322.1898,W,9.8,46,050722,11.7,E,A,V*6E
20220705 010548+00:00 $WIMWV,273.99,R,9.58,N,A*21
20220705 010550+00:00 $IIMDA,29.9,I,1.014,B,10.7,C,,C,94.6,,,C,,T,,M,,N,,M*21
20220705 010550+00:00 $HCHDT,40.6,T*1B
20220705 010550+00:00 $GPRMC,010546,A,4817.2200,N,12322.1898,W,9.8,46,050722,11.7,E,A,V*6F
20220705 010550+00:00 $WIMWV,272.89,R,9.8,N,A*14
20220705 010552+00:00 $IIMDA,29.9,I,1.014,B,10.7,C,,C,94.6,,,C,,T,,M,,N,,M*21
20220705 010552+00:00 $HCHDT,40.6,T*1B
20220705 010552+00:00 $GPRMC,010548,A,4817.2200,N,12322.1796,W,9.8,46,050722,11.7,E,A,V*60
20220705 010552+00:00 $WIMWV,272.69,R,9.8,N,A*1A
20220705 010554+00:00 $IIMDA,29.9,I,1.014,B,10.7,C,,C,94.6,,,C,,T,,M,,N,,M*21
20220705 010554+00:00 $HCHDT,40.8,T*15
20220705 010554+00:00 $GPRMC,010550,A,4817.2200,N,12322.1700,W,9.8,46,050722,11.7,E,A,V*66
20220705 010554+00:00 $WIMWV,273.09,R,9.39,N,A*2F
20220705 010556+00:00 $IIMDA,29.9,I,1.014,B,10.7,C,,C,94.6,,,C,,T,,M,,N,,M*21
20220705 010556+00:00 $HCHDT,40.9,T*14
20220705 010556+00:00 $GPRMC,010552,A,4817.2296,N,12322.1700,W,9.8,46,050722,11.7,E,A,V*6B
20220705 010556+00:00 $WIMWV,272.89,R,8.88,N,A*2D
20220705 010558+00:00 $IIMDA,29.9,I,1.014,B,10.7,C,,C,94.6,,,C,,T,,M,,N,,M*21
20220705 010558+00:00 $HCHDT,40.9,T*14
20220705 010558+00:00 $GPRMC,010554,A,4817.2296,N,12322.1598,W,9.8,46,050722,11.7,E,A,V*6E
20220705 010558+00:00 $WIMWV,273.49,R,9.58,N,A*2C
20220705 010600+00:00 $IIMDA,29.9,I,1.014,B,10.7,C,,C,94.6,,,C,,T,,M,,N,,M*21
20220705 010600+00:00 $HCHDT,40.9,T*14
20220705 010600+00:00 $GPRMC,010556,A,4817.2296,N,12322.1598,W,9.8,46,050722,11.7,E,A,V*6C
20220705 010600+00:00 $WIMWV,272.79,R,9.49,N,A*2E
20220705 010602+00:00 $IIMDA,29.9,I,1.014,B,10.7,C,,C,94.6,,,C,,T,,M,,N,,M*21
20220705 010602+00:00 $HCHDT,41,T*02
20220705 010602+00:00 $GPRMC,010558,A,4817.2398,N,12322.1496,W,9.8,46,050722,11.7,E,A,V*62
20220705 010602+00:00 $WIMWV,272.29,R,9.58,N,A*2B
20220705 010604+00:00 $IIMDA,29.9,I,1.014,B,10.7,C,,C,94.6,,,C,,T,,M,,N,,M*21
20220705 010604+00:00 $HCHDT,41.1,T*1D
20220705 010604+00:00 $GPRMC,010600,A,4817.2398,N,12322.1400,W,9.8,46,050722,11.7,E,A,V*63
20220705 010604+00:00 $WIMWV,272.39,R,9.8,N,A*1F
20220705 010606+00:00 $IIMDA,29.9,I,1.014,B,10.7,C,,C,94.6,,,C,,T,,M,,N,,M*21
20220705 010606+00:00 $HCHDT,41.2,T*1E
20220705 010606+00:00 $GPRMC,010602,A,4817.2500,N,12322.1400,W,9.8,46,050722,11.7,E,A,V*66
20220705 010606+00:00 $WIMWV,271.99,R,9.1,N,A*1F
20220705 010608+00:00 $IIMDA,29.9,I,1.014,B,10.7,C,,C,94.6,,,C,,T,,M,,N,,M*21
20220705 010608+00:00 $HCHDT,41.1,T*1D
20220705 010608+00:00 $GPRMC,010604,A,4817.2500,N,12322.1298,W,9.8,46,050722,11.7,E,A,V*67
20220705 010608+00:00 $WIMWV,271.59,R,9.58,N,A*2F
20220705 010610+00:00 $IIMDA,29.9,I,1.014,B,10.7,C,,C,94.6,,,C,,T,,M,,N,,M*21
20220705 010610+00:00 $HCHDT,41.2,T*1E
20220705 010610+00:00 $GPRMC,010606,A,4817.2500,N,12322.1298,W,9.8,46,050722,11.7,E,A,V*65
20220705 010610+00:00 $WIMWV,272.99,R,9.19,N,A*25
20220705 010612+00:00 $IIMDA,29.9,I,1.014,B,10.7,C,,C,94.6,,,C,,T,,M,,N,,M*21
20220705 010612+00:00 $HCHDT,41.3,T*1F
20220705 010612+00:00 $GPRMC,010608,A,4817.2596,N,12322.1196,W,9.8,46,050722,11.7,E,A,V*69
20220705 010612+00:00 $WIMWV,273.3,R,8.59,N,A*12
20220705 010614+00:00 $IIMDA,29.9,I,1.014,B,10.7,C,,C,94.6,,,C,,T,,M,,N,,M*21
20220705 010614+00:00 $HCHDT,41.3,T*1F
20220705 010614+00:00 $GPRMC,010610,A,4817.2596,N,12322.1100,W,9.8,46,050722,11.7,E,A,V*6F
20220705 010614+00:00 $WIMWV,273.79,R,8.28,N,A*29
20220705 010616+00:00 $IIMDA,29.9,I,1.014,B,10.7,C,,C,94.6,,,C,,T,,M,,N,,M*21
20220705 010616+00:00 $HCHDT,41.4,T*18
20220705 010616+00:00 $GPRMC,010612,A,4817.2596,N,12322.1100,W,9.8,46,050722,11.7,E,A,V*6D
20220705 010616+00:00 $WIMWV,273.99,R,9.19,N,A*24
20220705 010618+00:00 $IIMDA,29.9,I,1.014,B,10.7,C,,C,94.6,,,C,,T,,M,,N,,M*21
20220705 010618+00:00 $HCHDT,41.4,T*18
20220705 010618+00:00 $GPRMC,010614,A,4817.2698,N,12322.0998,W,9.8,47,050722,11.7,E,A,V*6F
20220705 010618+00:00 $WIMWV,271.99,R,9.49,N,A*23
20220705 010620+00:00 $IIMDA,29.9,I,1.014,B,10.7,C,,C,94.6,,,C,,T,,M,,N,,M*21
20220705 010620+00:00 $HCHDT,41.2,T*1E
20220705 010620+00:00 $GPRMC,010616,A,4817.2698,N,12322.0998,W,9.8,47,050722,11.7,E,A,V*6D
20220705 010620+00:00 $WIMWV,271.99,R,9.49,N,A*23
20220705 010622+00:00 $IIMDA,29.9,I,1.014,B,10.7,C,,C,94.6,,,C,,T,,M,,N,,M*21
20220705 010622+00:00 $HCHDT,40.5,T*18
20220705 010622+00:00 $GPRMC,010618,A,4817.2800,N,12322.0896,W,9.8,47,050722,11.7,E,A,V*63
20220705 010622+00:00 $WIMWV,274.59,R,8.98,N,A*27
20220705 010624+00:00 $IIMDA,29.9,I,1.014,B,10.7,C,,C,94.6,,,C,,T,,M,,N,,M*21
20220705 010624+00:00 $HCHDT,39.5,T*16
20220705 010624+00:00 $GPRMC,010620,A,4817.2800,N,12322.0896,W,9.8,46,050722,11.7,E,A,V*69
20220705 010624+00:00 $WIMWV,273.09,R,8.98,N,A*25
20220705 010626+00:00 $IIMDA,29.9,I,1.014,B,10.7,C,,C,94.6,,,C,,T,,M,,N,,M*21
20220705 010626+00:00 $HCHDT,38.2,T*10
20220705 010626+00:00 $GPRMC,010622,A,4817.2800,N,12322.0800,W,9.8,46,050722,11.7,E,A,V*64
20220705 010626+00:00 $WIMWV,273.39,R,9.29,N,A*2D
20220705 010628+00:00 $IIMDA,29.9,I,1.014,B,10.7,C,,C,94.6,,,C,,T,,M,,N,,M*21
20220705 010628+00:00 $HCHDT,37,T*03
20220705 010628+00:00 $GPRMC,010624,A,4817.2896,N,12322.0698,W,9.8,46,050722,11.7,E,A,V*62
20220705 010628+00:00 $WIMWV,274.49,R,9.39,N,A*2C
20220705 010630+00:00 $IIMDA,29.9,I,1.014,B,10.7,C,,C,94.6,,,C,,T,,M,,N,,M*21
20220705 010630+00:00 $HCHDT,36.3,T*1F
20220705 010630+00:00 $GPRMC,010626,A,4817.2896,N,12322.0698,W,9.8,45,050722,11.7,E,A,V*63
20220705 010630+00:00 $WIMWV,273.89,R,9.99,N,A*2D
20220705 010632+00:00 $IIMDA,29.9,I,1.014,B,10.7,C,,C,94.6,,,C,,T,,M,,N,,M*21
20220705 010632+00:00 $HCHDT,35.8,T*17
20220705 010632+00:00 $GPRMC,010628,A,4817.2998,N,12322.0596,W,9.7,45,050722,11.7,E,A,V*60
20220705 010632+00:00 $WIMWV,274.09,R,9.99,N,A*22
20220705 010634+00:00 $IIMDA,29.9,I,1.014,B,10.7,C,,C,94.6,,,C,,T,,M,,N,,M*21
20220705 010634+00:00 $HCHDT,35.6,T*19
20220705 010634+00:00 $GPRMC,010630,A,4817.2998,N,12322.0596,W,9.7,44,050722,11.7,E,A,V*68
20220705 010634+00:00 $WIMWV,273.89,R,9.99,N,A*2D
20220705 010636+00:00 $IIMDA,29.9,I,1.014,B,10.7,C,,C,94.6,,,C,,T,,M,,N,,M*21
20220705 010636+00:00 $HCHDT,35.7,T*18
20220705 010636+00:00 $GPRMC,010632,A,4817.2998,N,12322.0500,W,9.7,43,050722,11.7,E,A,V*62
20220705 010636+00:00 $WIMWV,273.89,R,10.09,N,A*1C
20220705 010638+00:00 $IIMDA,29.9,I,1.014,B,10.7,C,,C,94.6,,,C,,T,,M,,N,,M*21
20220705 010638+00:00 $HCHDT,36.1,T*1D
20220705 010638+00:00 $GPRMC,010634,A,4817.3100,N,12322.0500,W,9.7,43,050722,11.7,E,A,V*6C
20220705 010638+00:00 $WIMWV,274.49,R,10.38,N,A*15
20220705 010640+00:00 $IIMDA,29.9,I,1.014,B,10.7,C,,C,94.6,,,C,,T,,M,,N,,M*21
20220705 010640+00:00 $HCHDT,36.2,T*1E
20220705 010640+00:00 $GPRMC,010636,A,4817.3100,N,12322.0398,W,9.7,42,050722,11.7,E,A,V*68
20220705 010640+00:00 $WIMWV,275.09,R,9.8,N,A*1B
20220705 010642+00:00 $IIMDA,29.9,I,1.014,B,10.7,C,,C,94.6,,,C,,T,,M,,N,,M*21
20220705 010642+00:00 $HCHDT,36.3,T*1F
20220705 010642+00:00 $GPRMC,010638,A,4817.3196,N,12322.0398,W,9.7,42,050722,11.7,E,A,V*69
20220705 010642+00:00 $WIMWV,275.59,R,9.8,N,A*1E
20220705 010644+00:00 $IIMDA,29.9,I,1.014,B,10.7,C,,C,94.6,,,C,,T,,M,,N,,M*21
20220705 010644+00:00 $HCHDT,36.5,T*19
20220705 010644+00:00 $GPRMC,010640,A,4817.3196,N,12322.0296,W,9.7,42,050722,11.7,E,A,V*69
20220705 010644+00:00 $WIMWV,273.09,R,10.19,N,A*15
20220705 010646+00:00 $IIMDA,29.9,I,1.014,B,10.7,C,,C,94.6,,,C,,T,,M,,N,,M*21
20220705 010646+00:00 $HCHDT,37,T*03
20220705 010646+00:00 $GPRMC,010642,A,4817.3196,N,12322.0296,W,9.8,42,050722,11.7,E,A,V*64
20220705 010646+00:00 $WIMWV,274.49,R,9.58,N,A*2B
20220705 010648+00:00 $IIMDA,29.9,I,1.014,B,10.7,C,,C,94.6,,,C,,T,,M,,N,,M*21
20220705 010648+00:00 $HCHDT,37.4,T*19
20220705 010648+00:00 $GPRMC,010644,A,4817.3298,N,12322.0200,W,9.8,42,050722,11.7,E,A,V*60
20220705 010648+00:00 $WIMWV,273.59,R,9.49,N,A*2D
20220705 010650+00:00 $IIMDA,29.9,I,1.014,B,10.7,C,,C,94.6,,,C,,T,,M,,N,,M*21
20220705 010650+00:00 $HCHDT,37.2,T*1F
20220705 010650+00:00 $GPRMC,010646,A,4817.3298,N,12322.0098,W,9.8,42,050722,11.7,E,A,V*61
20220705 010650+00:00 $WIMWV,274.59,R,9.39,N,A*2D
20220705 010652+00:00 $IIMDA,29.9,I,1.014,B,10.7,C,,C,94.6,,,C,,T,,M,,N,,M*21
20220705 010652+00:00 $HCHDT,37.1,T*1C
20220705 010652+00:00 $GPRMC,010648,A,4817.3400,N,12322.0098,W,9.8,42,050722,11.7,E,A,V*68
20220705 010652+00:00 $WIMWV,274.69,R,9.19,N,A*2C
20220705 010654+00:00 $IIMDA,29.9,I,1.014,B,10.7,C,,C,94.6,,,C,,T,,M,,N,,M*21
20220705 010654+00:00 $HCHDT,37.3,T*1E
20220705 010654+00:00 $GPRMC,010650,A,4817.3400,N,12321.9996,W,9.8,42,050722,11.7,E,A,V*6C
20220705 010654+00:00 $WIMWV,273.3,R,9.99,N,A*1F
20220705 010656+00:00 $IIMDA,29.9,I,1.014,B,10.7,C,,C,94.6,,,C,,T,,M,,N,,M*21
20220705 010656+00:00 $HCHDT,37.3,T*1E
20220705 010656+00:00 $GPRMC,010652,A,4817.3400,N,12321.9996,W,9.8,42,050722,11.7,E,A,V*6E
20220705 010656+00:00 $WIMWV,276.69,R,9.1,N,A*17
20220705 010658+00:00 $IIMDA,29.9,I,1.014,B,10.7,C,,C,94.6,,,C,,T,,M,,N,,M*21
20220705 010658+00:00 $HCHDT,36.7,T*1B
20220705 010658+00:00 $GPRMC,010654,A,4817.3496,N,12321.9900,W,9.8,42,050722,11.7,E,A,V*68
20220705 010658+00:00 $WIMWV,273.49,R,9.68,N,A*2F
20220705 010700+00:00 $IIMDA,29.9,I,1.014,B,10.7,C,,C,94.6,,,C,,T,,M,,N,,M*21
20220705 010700+00:00 $HCHDT,36.4,T*18
20220705 010700+00:00 $GPRMC,010656,A,4817.3496,N,12321.9900,W,9.8,42,050722,11.7,E,A,V*6A
20220705 010700+00:00 $WIMWV,275.39,R,9.58,N,A*2D
20220705 010702+00:00 $IIMDA,29.9,I,1.014,B,10.7,C,,C,94.6,,,C,,T,,M,,N,,M*21
20220705 010702+00:00 $HCHDT,36.5,T*19
20220705 010702+00:00 $GPRMC,010658,A,4817.3598,N,12321.9798,W,9.8,42,050722,11.7,E,A,V*64
20220705 010702+00:00 $WIMWV,273.89,R,9.49,N,A*20
20220705 010704+00:00 $IIMDA,29.9,I,1.014,B,10.7,C,,C,94.6,,,C,,T,,M,,N,,M*21
20220705 010704+00:00 $HCHDT,36.4,T*18
20220705 010704+00:00 $GPRMC,010700,A,4817.3598,N,12321.9798,W,9.8,42,050722,11.7,E,A,V*68
20220705 010704+00:00 $WIMWV,274.09,R,9.49,N,A*2F
20220705 010706+00:00 $IIMDA,29.9,I,1.014,B,10.7,C,,C,94.6,,,C,,T,,M,,N,,M*21
20220705 010706+00:00 $HCHDT,35.8,T*17
20220705 010706+00:00 $GPRMC,010702,A,4817.3598,N,12321.9696,W,9.8,42,050722,11.7,E,A,V*65
20220705 010706+00:00 $WIMWV,273.49,R,9.19,N,A*29
20220705 010708+00:00 $IIMDA,29.9,I,1.014,B,10.7,C,,C,94.6,,,C,,T,,M,,N,,M*21
20220705 010708+00:00 $HCHDT,35.6,T*19
20220705 010708+00:00 $GPRMC,010704,A,4817.3700,N,12321.9696,W,9.8,42,050722,11.7,E,A,V*60
20220705 010708+00:00 $WIMWV,276.79,R,9.49,N,A*2A
20220705 010710+00:00 $IIMDA,29.9,I,1.014,B,10.7,C,,C,94.6,,,C,,T,,M,,N,,M*21
20220705 010710+00:00 $HCHDT,36,T*02
20220705 010710+00:00 $GPRMC,010706,A,4817.3700,N,12321.9600,W,9.8,42,050722,11.7,E,A,V*6D
20220705 010710+00:00 $WIMWV,274.19,R,9.89,N,A*22
20220705 010712+00:00 $IIMDA,29.9,I,1.014,B,10.7,C,,C,94.6,,,C,,T,,M,,N,,M*21
20220705 010712+00:00 $HCHDT,36.2,T*1E
20220705 010712+00:00 $GPRMC,010708,A,4817.3796,N,12321.9498,W,9.8,41,050722,11.7,E,A,V*6C
20220705 010712+00:00 $WIMWV,273.99,R,9.68,N,A*22
20220705 010714+00:00 $IIMDA,29.9,I,1.014,B,10.7,C,,C,94.6,,,C,,T,,M,,N,,M*21
20220705 010714+00:00 $HCHDT,35.9,T*16
20220705 010714+00:00 $GPRMC,010710,A,4817.3796,N,12321.9498,W,9.8,41,050722,11.7,E,A,V*65
20220705 010714+00:00 $WIMWV,274.59,R,9.58,N,A*2A
20220705 010716+00:00 $IIMDA,29.9,I,1.014,B,10.7,C,,C,94.6,,,C,,T,,M,,N,,M*21
20220705 010716+00:00 $HCHDT,35.8,T*17
20220705 010716+00:00 $GPRMC,010712,A,4817.3796,N,12321.9396,W,9.8,41,050722,11.7,E,A,V*6E
20220705 010716+00:00 $WIMWV,274.19,R,9.58,N,A*2E
20220705 010718+00:00 $IIMDA,29.9,I,1.014,B,10.7,C,,C,94.6,,,C,,T,,M,,N,,M*21
20220705 010718+00:00 $HCHDT,35.9,T*16
20220705 010718+00:00 $GPRMC,010714,A,4817.3898,N,12321.9396,W,9.8,41,050722,11.7,E,A,V*69
20220705 010718+00:00 $WIMWV,273.3,R,9.99,N,A*1F
20220705 010720+00:00 $IIMDA,29.9,I,1.014,B,10.7,C,,C,94.6,,,C,,T,,M,,N,,M*21
20220705 010720+00:00 $HCHDT,36.1,T*1D
20220705 010720+00:00 $GPRMC,010716,A,4817.3898,N,12321.9300,W,9.8,41,050722,11.7,E,A,V*64
20220705 010720+00:00 $WIMWV,274.4,R,8.88,N,A*1E
20220705 010722+00:00 $IIMDA,29.9,I,1.014,B,10.7,C,,C,94.6,,,C,,T,,M,,N,,M*21
20220705 010722+00:00 $HCHDT,36.2,T*1E
20220705 010722+00:00 $GPRMC,010718,A,4817.4000,N,12321.9300,W,9.8,41,050722,11.7,E,A,V*64
20220705 010722+00:00 $WIMWV,272.99,R,9.89,N,A*2C
20220705 010724+00:00 $IIMDA,29.9,I,1.014,B,10.7,C,,C,94.6,,,C,,T,,M,,N,,M*21
20220705 010724+00:00 $HCHDT,36.3,T*1F
20220705 010724+00:00 $GPRMC,010720,A,4817.4000,N,12321.9198,W,9.8,41,050722,11.7,E,A,V*6C
20220705 010724+00:00 $WIMWV,277.29,R,8.98,N,A*23
20220705 010726+00:00 $IIMDA,29.9,I,1.014,B,10.7,C,,C,94.6,,,C,,T,,M,,N,,M*21
20220705 010726+00:00 $HCHDT,36.3,T*1F
20220705 010726+00:00 $GPRMC,010722,A,4817.4000,N,12321.9198,W,9.8,41,050722,11.7,E,A,V*6E
20220705 010726+00:00 $WIMWV,273.79,R,9.58,N,A*2F
20220705 010728+00:00 $IIMDA,29.9,I,1.014,B,10.7,C,,C,94.6,,,C,,T,,M,,N,,M*21
20220705 010728+00:00 $HCHDT,36.2,T*1E
20220705 010728+00:00 $GPRMC,010724,A,4817.4096,N,12321.9096,W,9.8,41,050722,11.7,E,A,V*68
20220705 010728+00:00 $WIMWV,276.69,R,9.49,N,A*2B
20220705 010730+00:00 $IIMDA,29.9,I,1.014,B,10.7,C,,C,94.6,,,C,,T,,M,,N,,M*21
20220705 010730+00:00 $HCHDT,36,T*02
20220705 010730+00:00 $GPRMC,010726,A,4817.4096,N,12321.9096,W,9.8,41,050722,11.7,E,A,V*6A
20220705 010730+00:00 $WIMWV,275.69,R,9.29,N,A*2E
20220705 010732+00:00 $IIMDA,29.9,I,1.014,B,10.7,C,,C,94.5,,,C,,T,,M,,N,,M*22
20220705 010732+00:00 $HCHDT,35.9,T*16
20220705 010732+00:00 $GPRMC,010728,A,4817.4198,N,12321.9000,W,9.8,41,050722,11.7,E,A,V*64
20220705 010732+00:00 $WIMWV,275.29,R,9.1,N,A*10
20220705 010734+00:00 $IIMDA,29.9,I,1.014,B,10.7,C,,C,94.6,,,C,,T,,M,,N,,M*21
20220705 010734+00:00 $HCHDT,36,T*02
20220705 010734+00:00 $GPRMC,010730,A,4817.4198,N,12321.9000,W,9.8,41,050722,11.7,E,A,V*6D
20220705 010734+00:00 $WIMWV,274.09,R,9.39,N,A*28
20220705 010736+00:00 $IIMDA,29.9,I,1.014,B,10.7,C,,C,94.6,,,C,,T,,M,,N,,M*21
20220705 010736+00:00 $HCHDT,36.1,T*1D
20220705 010736+00:00 $GPRMC,010732,A,4817.4300,N,12321.8898,W,9.8,41,050722,11.7,E,A,V*64
20220705 010736+00:00 $WIMWV,274.99,R,9.58,N,A*26
20220705 010738+00:00 $IIMDA,29.9,I,1.014,B,10.7,C,,C,94.5,,,C,,T,,M,,N,,M*22
20220705 010738+00:00 $HCHDT,36,T*02
20220705 010738+00:00 $GPRMC,010734,A,4817.4300,N,12321.8796,W,9.8,41,050722,11.7,E,A,V*63
20220705 010738+00:00 $WIMWV,273.3,R,8.88,N,A*1E
20220705 010740+00:00 $IIMDA,29.9,I,1.014,B,10.7,C,,C,94.6,,,C,,T,,M,,N,,M*21
20220705 010740+00:00 $HCHDT,35.9,T*16
20220705 010740+00:00 $GPRMC,010736,A,4817.4300,N,12321.8796,W,9.8,41,050722,11.7,E,A,V*61
20220705 010740+00:00 $WIMWV,276.39,R,9.19,N,A*2B
20220705 010742+00:00 $IIMDA,29.9,I,1.014,B,10.7,C,,C,94.5,,,C,,T,,M,,N,,M*22
20220705 010742+00:00 $HCHDT,35.7,T*18
20220705 010742+00:00 $GPRMC,010738,A,4817.4396,N,12321.8700,W,9.8,41,050722,11.7,E,A,V*6F
20220705 010742+00:00 $WIMWV,273.99,R,9.58,N,A*21
