20220704 170000+00:00 $IIMDA,29.9,I,1.013,B,10.6,C,,C,96,,,C,,T,,M,,N,,M*3D
20220704 170000+00:00 $HCHDT,112,T*35
20220704 170000+00:00 $GPRMC,165954,A,4835.5296,N,12455.7496,W,8.71,113,040722,12,E,A,V*7D
20220704 170000+00:00 $WIMWV,359.19,R,7.79,N,A*2D
20220704 170002+00:00 $IIMDA,29.9,I,1.013,B,10.6,C,,C,96,,,C,,T,,M,,N,,M*3D
20220704 170002+00:00 $HCHDT,111,T*36
20220704 170002+00:00 $GPRMC,165958,A,4835.5296,N,12455.7400,W,8.71,113,040722,12,E,A,V*7E
20220704 170002+00:00 $WIMWV,13.89,R,8.28,N,A*12
20220704 170004+00:00 $IIMDA,29.9,I,1.013,B,10.6,C,,C,96,,,C,,T,,M,,N,,M*3D
20220704 170004+00:00 $HCHDT,110.5,T*2C
20220704 170004+00:00 $GPRMC,165958,A,4835.5296,N,12455.7400,W,8.71,113,040722,12,E,A,V*7E
20220704 170004+00:00 $WIMWV,356.79,R,7.39,N,A*20
20220704 170006+00:00 $IIMDA,29.9,I,1.013,B,10.6,C,,C,96,,,C,,T,,M,,N,,M*3D
20220704 170006+00:00 $HCHDT,110.2,T*2B
20220704 170006+00:00 $GPRMC,170002,A,4835.5200,N,12455.7298,W,8.59,113,040722,12,E,A,V*7E
20220704 170006+00:00 $WIMWV,24.4,R,4.59,N,A*29
20220704 170008+00:00 $IIMDA,29.9,I,1.013,B,10.6,C,,C,96,,,C,,T,,M,,N,,M*3D
20220704 170008+00:00 $HCHDT,110.2,T*2B
20220704 170008+00:00 $GPRMC,170002,A,4835.5200,N,12455.7196,W,8.59,113,040722,12,E,A,V*73
20220704 170008+00:00 $WIMWV,18.6,R,6.3,N,A*19
20220704 170010+00:00 $IIMDA,29.9,I,1.013,B,10.6,C,,C,96,,,C,,T,,M,,N,,M*3D
20220704 170010+00:00 $HCHDT,110.4,T*2D
20220704 170010+00:00 $GPRMC,170004,A,4835.5200,N,12455.7196,W,8.59,113,040722,12,E,A,V*75
20220704 170010+00:00 $WIMWV,357.99,R,9.19,N,A*23
20220704 170012+00:00 $IIMDA,29.9,I,1.013,B,10.6,C,,C,96,,,C,,T,,M,,N,,M*3D
20220704 170012+00:00 $HCHDT,110.3,T*2A
20220704 170012+00:00 $GPRMC,170006,A,4835.5200,N,12455.7100,W,8.59,112,040722,12,E,A,V*79
20220704 170012+00:00 $WIMWV,357.59,R,5.38,N,A*20
20220704 170014+00:00 $IIMDA,29.9,I,1.013,B,10.6,C,,C,96,,,C,,T,,M,,N,,M*3D
20220704 170014+00:00 $HCHDT,109.9,T*28
20220704 170014+00:00 $GPRMC,170008,A,4835.5200,N,12455.6998,W,8.71,112,040722,12,E,A,V*75
20220704 170014+00:00 $WIMWV,345.39,R,7.19,N,A*24
20220704 170016+00:00 $IIMDA,29.9,I,1.013,B,10.6,C,,C,96,,,C,,T,,M,,N,,M*3D
20220704 170016+00:00 $HCHDT,109.5,T*24
20220704 170016+00:00 $GPRMC,170010,A,4835.5098,N,12455.6998,W,8.71,112,040722,12,E,A,V*7F
20220704 170016+00:00 $WIMWV,8.4,R,8.59,N,A*1B
20220704 170018+00:00 $IIMDA,29.9,I,1.013,B,10.6,C,,C,96,,,C,,T,,M,,N,,M*3D
20220704 170018+00:00 $HCHDT,109.6,T*27
20220704 170018+00:00 $GPRMC,170012,A,4835.5098,N,12455.6896,W,8.71,111,040722,12,E,A,V*71
20220704 170018+00:00 $WIMWV,358.39,R,8.59,N,A*23
20220704 170020+00:00 $IIMDA,29.9,I,1.013,B,10.6,C,,C,96,,,C,,T,,M,,N,,M*3D
20220704 170020+00:00 $HCHDT,110.2,T*2B
20220704 170020+00:00 $GPRMC,170016,A,4835.5098,N,12455.6800,W,8.71,111,040722,12,E,A,V*7A
20220704 170020+00:00 $WIMWV,10.9,R,6.88,N,A*2D
20220704 170022+00:00 $IIMDA,29.9,I,1.013,B,10.6,C,,C,96,,,C,,T,,M,,N,,M*3D
20220704 170022+00:00 $HCHDT,110.3,T*2A
20220704 170022+00:00 $GPRMC,170016,A,4835.5098,N,12455.6800,W,8.59,111,040722,12,E,A,V*70
20220704 170022+00:00 $WIMWV,1.5,R,6.4,N,A*25
20220704 170024+00:00 $IIMDA,29.9,I,1.013,B,10.6,C,,C,96,,,C,,T,,M,,N,,M*3D
20220704 170024+00:00 $HCHDT,110.8,T*21
20220704 170024+00:00 $GPRMC,170018,A,4835.5098,N,12455.6698,W,8.59,111,040722,12,E,A,V*71
20220704 170024+00:00 $WIMWV,355.69,R,7.29,N,A*23
20220704 170026+00:00 $IIMDA,29.9,I,1.013,B,10.6,C,,C,96,,,C,,T,,M,,N,,M*3D
20220704 170026+00:00 $HCHDT,111.1,T*29
20220704 170026+00:00 $GPRMC,170020,A,4835.5098,N,12455.6596,W,8.59,112,040722,12,E,A,V*74
20220704 170026+00:00 $WIMWV,30.19,R,8.88,N,A*10
20220704 170028+00:00 $IIMDA,29.9,I,1.013,B,10.6,C,,C,96,,,C,,T,,M,,N,,M*3D
20220704 170028+00:00 $HCHDT,111.1,T*29
20220704 170028+00:00 $GPRMC,170022,A,4835.4996,N,12455.6596,W,8.59,112,040722,12,E,A,V*70
20220704 170028+00:00 $WIMWV,4.7,R,5.79,N,A*1B
20220704 170030+00:00 $IIMDA,29.9,I,1.013,B,10.6,C,,C,96,,,C,,T,,M,,N,,M*3D
20220704 170030+00:00 $HCHDT,111.5,T*2D
20220704 170030+00:00 $GPRMC,170024,A,4835.4996,N,12455.6500,W,8.71,112,040722,12,E,A,V*73
20220704 170030+00:00 $WIMWV,6.1,R,6.69,N,A*1D
20220704 170032+00:00 $IIMDA,29.9,I,1.013,B,10.6,C,,C,96,,,C,,T,,M,,N,,M*3D
20220704 170032+00:00 $HCHDT,111.7,T*2F
20220704 170032+00:00 $GPRMC,170028,A,4835.4996,N,12455.6398,W,8.71,112,040722,12,E,A,V*78
20220704 170032+00:00 $WIMWV,6.39,R,7.19,N,A*20
20220704 170034+00:00 $IIMDA,29.9,I,1.013,B,10.6,C,,C,96,,,C,,T,,M,,N,,M*3D
20220704 170034+00:00 $HCHDT,111.7,T*2F
20220704 170034+00:00 $GPRMC,170028,A,4835.4996,N,12455.6398,W,8.59,112,040722,12,E,A,V*72
20220704 170034+00:00 $WIMWV,359.19,R,7.29,N,A*28
20220704 170036+00:00 $IIMDA,29.9,I,1.013,B,10.6,C,,C,96,,,C,,T,,M,,N,,M*3D
20220704 170036+00:00 $HCHDT,111.1,T*29
20220704 170036+00:00 $GPRMC,170032,A,4835.4996,N,12455.6296,W,8.59,112,040722,12,E,A,V*76
20220704 170036+00:00 $WIMWV,7.2,R,5.79,N,A*1D
20220704 170038+00:00 $IIMDA,29.9,I,1.013,B,10.6,C,,C,96,,,C,,T,,M,,N,,M*3D
20220704 170038+00:00 $HCHDT,110.9,T*20
20220704 170038+00:00 $GPRMC,170032,A,4835.4900,N,12455.6200,W,8.59,112,040722,12,E,A,V*76
20220704 170038+00:00 $WIMWV,352.29,R,5.48,N,A*25
20220704 170040+00:00 $IIMDA,29.9,I,1.013,B,10.6,C,,C,96,,,C,,T,,M,,N,,M*3D
20220704 170040+00:00 $HCHDT,110.8,T*21
20220704 170040+00:00 $GPRMC,170034,A,4835.4900,N,12455.6200,W,8.71,113,040722,12,E,A,V*7B
20220704 170040+00:00 $WIMWV,10.3,R,8.69,N,A*26
20220704 170042+00:00 $IIMDA,29.9,I,1.013,B,10.6,C,,C,96,,,C,,T,,M,,N,,M*3D
20220704 170042+00:00 $HCHDT,111.4,T*2C
20220704 170042+00:00 $GPRMC,170036,A,4835.4900,N,12455.6098,W,8.71,113,040722,12,E,A,V*7A
20220704 170042+00:00 $WIMWV,7.49,R,8.28,N,A*2B
20220704 170044+00:00 $IIMDA,29.9,I,1.013,B,10.6,C,,C,96,,,C,,T,,M,,N,,M*3D
20220704 170044+00:00 $HCHDT,111.2,T*2A
20220704 170044+00:00 $GPRMC,170038,A,4835.4900,N,12455.5996,W,8.71,113,040722,12,E,A,V*70
20220704 170044+00:00 $WIMWV,356.19,R,6.49,N,A*20
20220704 170046+00:00 $IIMDA,29.9,I,1.013,B,10.6,C,,C,96,,,C,,T,,M,,N,,M*3D
20220704 170046+00:00 $HCHDT,110.9,T*20
20220704 170046+00:00 $GPRMC,170040,A,4835.4900,N,12455.5996,W,8.71,113,040722,12,E,A,V*7F
20220704 170046+00:00 $WIMWV,359.09,R,7,N,A*0C
20220704 170048+00:00 $IIMDA,29.9,I,1.013,B,10.6,C,,C,96,,,C,,T,,M,,N,,M*3D
20220704 170048+00:00 $HCHDT,111,T*36
20220704 170048+00:00 $GPRMC,170042,A,4835.4900,N,12455.5900,W,8.59,113,040722,12,E,A,V*78
20220704 170048+00:00 $WIMWV,359.39,R,7.1,N,A*10
20220704 170050+00:00 $IIMDA,29.9,I,1.013,B,10.6,C,,C,96,,,C,,T,,M,,N,,M*3D
20220704 170050+00:00 $HCHDT,111.1,T*29
20220704 170050+00:00 $GPRMC,170046,A,4835.4798,N,12455.5798,W,8.59,112,040722,12,E,A,V*7D
20220704 170050+00:00 $WIMWV,3.7,R,6.4,N,A*25
20220704 170052+00:00 $IIMDA,29.9,I,1.013,B,10.6,C,,C,96.1,,,C,,T,,M,,N,,M*22
20220704 170052+00:00 $HCHDT,110.9,T*20
20220704 170052+00:00 $GPRMC,170046,A,4835.4798,N,12455.5798,W,8.59,112,040722,12,E,A,V*7D
20220704 170052+00:00 $WIMWV,3.29,R,7.39,N,A*26
20220704 170054+00:00 $IIMDA,29.9,I,1.013,B,10.6,C,,C,96,,,C,,T,,M,,N,,M*3D
20220704 170054+00:00 $HCHDT,110.8,T*21
20220704 170054+00:00 $GPRMC,170048,A,4835.4798,N,12455.5696,W,8.71,112,040722,12,E,A,V*76
20220704 170054+00:00 $WIMWV,8.1,R,7.7,N,A*2A
20220704 170056+00:00 $IIMDA,29.9,I,1.013,B,10.6,C,,C,96.1,,,C,,T,,M,,N,,M*22
20220704 170056+00:00 $HCHDT,110.9,T*20
20220704 170056+00:00 $GPRMC,170050,A,4835.4798,N,12455.5600,W,8.71,112,040722,12,E,A,V*70
20220704 170056+00:00 $WIMWV,5.4,R,8.49,N,A*17
20220704 170058+00:00 $IIMDA,29.9,I,1.013,B,10.6,C,,C,96,,,C,,T,,M,,N,,M*3D
20220704 170058+00:00 $HCHDT,110.9,T*20
20220704 170058+00:00 $GPRMC,170052,A,4835.4798,N,12455.5600,W,8.71,112,040722,12,E,A,V*72
20220704 170058+00:00 $WIMWV,5.7,R,7.89,N,A*17
20220704 170100+00:00 $IIMDA,29.9,I,1.013,B,10.6,C,,C,96,,,C,,T,,M,,N,,M*3D
20220704 170100+00:00 $HCHDT,110.4,T*2D
20220704 170100+00:00 $GPRMC,170054,A,4835.4696,N,12455.5498,W,8.71,112,040722,12,E,A,V*78
20220704 170100+00:00 $WIMWV,6.1,R,7.58,N,A*1E
20220704 170102+00:00 $IIMDA,29.9,I,1.013,B,10.6,C,,C,96,,,C,,T,,M,,N,,M*3D
20220704 170102+00:00 $HCHDT,110.3,T*2A
20220704 170102+00:00 $GPRMC,170056,A,4835.4696,N,12455.5396,W,8.71,112,040722,12,E,A,V*73
20220704 170102+00:00 $WIMWV,355.39,R,8.28,N,A*28
20220704 170104+00:00 $IIMDA,29.9,I,1.013,B,10.6,C,,C,96.1,,,C,,T,,M,,N,,M*22
20220704 170104+00:00 $HCHDT,110.4,T*2D
20220704 170104+00:00 $GPRMC,170100,A,4835.4696,N,12455.5300,W,8.71,112,040722,12,E,A,V*7E
20220704 170104+00:00 $WIMWV,359.29,R,8.09,N,A*26
20220704 170106+00:00 $IIMDA,29.9,I,1.013,B,10.6,C,,C,96,,,C,,T,,M,,N,,M*3D
20220704 170106+00:00 $HCHDT,110.4,T*2D
20220704 170106+00:00 $GPRMC,170100,A,4835.4696,N,12455.5300,W,8.71,112,040722,12,E,A,V*7E
20220704 170106+00:00 $WIMWV,2.6,R,5.79,N,A*1C
20220704 170108+00:00 $IIMDA,29.9,I,1.013,B,10.6,C,,C,96,,,C,,T,,M,,N,,M*3D
20220704 170108+00:00 $HCHDT,110.5,T*2C
20220704 170108+00:00 $GPRMC,170102,A,4835.4696,N,12455.5198,W,8.71,112,040722,12,E,A,V*7F
20220704 170108+00:00 $WIMWV,357.29,R,7.48,N,A*22
20220704 170110+00:00 $IIMDA,29.9,I,1.013,B,10.6,C,,C,96,,,C,,T,,M,,N,,M*3D
20220704 170110+00:00 $HCHDT,110.5,T*2C
20220704 170110+00:00 $GPRMC,170106,A,4835.4696,N,12455.5096,W,8.71,112,040722,12,E,A,V*74
20220704 170110+00:00 $WIMWV,22.6,R,5.48,N,A*2C
20220704 170112+00:00 $IIMDA,29.9,I,1.013,B,10.6,C,,C,96.1,,,C,,T,,M,,N,,M*22
20220704 170112+00:00 $HCHDT,110.6,T*2F
20220704 170112+00:00 $GPRMC,170106,A,4835.4600,N,12455.5096,W,8.71,112,040722,12,E,A,V*7B
20220704 170112+00:00 $WIMWV,348.89,R,7.1,N,A*1B
20220704 170114+00:00 $IIMDA,29.9,I,1.013,B,10.6,C,,C,96.1,,,C,,T,,M,,N,,M*22
20220704 170114+00:00 $HCHDT,111.1,T*29
20220704 170114+00:00 $GPRMC,170108,A,4835.4600,N,12455.5000,W,8.71,112,040722,12,E,A,V*7A
20220704 170114+00:00 $WIMWV,7.3,R,7.58,N,A*1D
20220704 170116+00:00 $IIMDA,29.9,I,1.013,B,10.6,C,,C,96.1,,,C,,T,,M,,N,,M*22
20220704 170116+00:00 $HCHDT,111.6,T*2E
20220704 170116+00:00 $GPRMC,170110,A,4835.4600,N,12455.4898,W,8.71,112,040722,12,E,A,V*7B
20220704 170116+00:00 $WIMWV,5.8,R,8.18,N,A*1F
20220704 170118+00:00 $IIMDA,29.9,I,1.013,B,10.6,C,,C,96.1,,,C,,T,,M,,N,,M*22
20220704 170118+00:00 $HCHDT,111.9,T*21
20220704 170118+00:00 $GPRMC,170112,A,4835.4600,N,12455.4898,W,8.71,112,040722,12,E,A,V*79
20220704 170118+00:00 $WIMWV,8.3,R,8.18,N,A*19
20220704 170120+00:00 $IIMDA,29.9,I,1.013,B,10.6,C,,C,96,,,C,,T,,M,,N,,M*3D
20220704 170120+00:00 $HCHDT,111.7,T*2F
20220704 170120+00:00 $GPRMC,170114,A,4835.4600,N,12455.4796,W,8.71,112,040722,12,E,A,V*7E
20220704 170120+00:00 $WIMWV,0.6,R,7.39,N,A*18
20220704 170122+00:00 $IIMDA,29.9,I,1.013,B,10.6,C,,C,96,,,C,,T,,M,,N,,M*3D
20220704 170122+00:00 $HCHDT,111.4,T*2C
20220704 170122+00:00 $GPRMC,170118,A,4835.4498,N,12455.4700,W,8.71,113,040722,12,E,A,V*7F
20220704 170122+00:00 $WIMWV,351.49,R,9.8,N,A*18
20220704 170124+00:00 $IIMDA,29.9,I,1.013,B,10.6,C,,C,96,,,C,,T,,M,,N,,M*3D
20220704 170124+00:00 $HCHDT,111.3,T*2B
20220704 170124+00:00 $GPRMC,170120,A,4835.4498,N,12455.4700,W,8.71,113,040722,12,E,A,V*74
20220704 170124+00:00 $WIMWV,327.99,R,2.59,N,A*2B
20220704 170126+00:00 $IIMDA,29.9,I,1.013,B,10.6,C,,C,96.1,,,C,,T,,M,,N,,M*22
20220704 170126+00:00 $HCHDT,111.1,T*29
20220704 170126+00:00 $GPRMC,170122,A,4835.4498,N,12455.4598,W,8.71,113,040722,12,E,A,V*75
20220704 170126+00:00 $WIMWV,358.29,R,7.39,N,A*2B
20220704 170128+00:00 $IIMDA,29.9,I,1.013,B,10.6,C,,C,96.1,,,C,,T,,M,,N,,M*22
20220704 170128+00:00 $HCHDT,111.3,T*2B
20220704 170128+00:00 $GPRMC,170122,A,4835.4498,N,12455.4496,W,8.71,113,040722,12,E,A,V*7A
20220704 170128+00:00 $WIMWV,12.79,R,5.6,N,A*2D
20220704 170130+00:00 $IIMDA,29.9,I,1.013,B,10.6,C,,C,96.1,,,C,,T,,M,,N,,M*22
20220704 170130+00:00 $HCHDT,111.3,T*2B
20220704 170130+00:00 $GPRMC,170124,A,4835.4498,N,12455.4496,W,8.71,113,040722,12,E,A,V*7C
20220704 170130+00:00 $WIMWV,3.1,R,8.4,N,A*2D
20220704 170132+00:00 $IIMDA,29.9,I,1.013,B,10.6,C,,C,96.1,,,C,,T,,M,,N,,M*22
20220704 170132+00:00 $HCHDT,111,T*36
20220704 170132+00:00 $GPRMC,170126,A,4835.4498,N,12455.4400,W,8.71,113,040722,12,E,A,V*71
20220704 170132+00:00 $WIMWV,359.69,R,8.18,N,A*22
20220704 170134+00:00 $IIMDA,29.9,I,1.013,B,10.6,C,,C,96.1,,,C,,T,,M,,N,,M*22
20220704 170134+00:00 $HCHDT,110.6,T*2F
20220704 170134+00:00 $GPRMC,170128,A,4835.4396,N,12455.4298,W,8.71,113,040722,12,E,A,V*71
20220704 170134+00:00 $WIMWV,10,R,8.09,N,A*3D
20220704 170136+00:00 $IIMDA,29.9,I,1.013,B,10.6,C,,C,96,,,C,,T,,M,,N,,M*3D
20220704 170136+00:00 $HCHDT,110.5,T*2C
20220704 170136+00:00 $GPRMC,170130,A,4835.4396,N,12455.4298,W,8.71,113,040722,12,E,A,V*78
20220704 170136+00:00 $WIMWV,1.4,R,8.09,N,A*17
20220704 170138+00:00 $IIMDA,29.9,I,1.013,B,10.6,C,,C,96.1,,,C,,T,,M,,N,,M*22
20220704 170138+00:00 $HCHDT,110.8,T*21
20220704 170138+00:00 $GPRMC,170134,A,4835.4396,N,12455.4196,W,8.71,112,040722,12,E,A,V*70
20220704 170138+00:00 $WIMWV,359.29,R,7,N,A*0E
20220704 170140+00:00 $IIMDA,29.9,I,1.013,B,10.6,C,,C,96.1,,,C,,T,,M,,N,,M*22
20220704 170140+00:00 $HCHDT,111.2,T*2A
20220704 170140+00:00 $GPRMC,170134,A,4835.4396,N,12455.4100,W,8.59,112,040722,12,E,A,V*75
20220704 170140+00:00 $WIMWV,17.3,R,6.08,N,A*28
20220704 170142+00:00 $IIMDA,29.9,I,1.013,B,10.6,C,,C,96.1,,,C,,T,,M,,N,,M*22
20220704 170142+00:00 $HCHDT,110.7,T*2E
20220704 170142+00:00 $GPRMC,170136,A,4835.4396,N,12455.4100,W,8.59,113,040722,12,E,A,V*76
20220704 170142+00:00 $WIMWV,3.6,R,7.29,N,A*1A
20220704 170144+00:00 $IIMDA,29.9,I,1.013,B,10.6,C,,C,96.1,,,C,,T,,M,,N,,M*22
20220704 170144+00:00 $HCHDT,110.5,T*2C
20220704 170144+00:00 $GPRMC,170138,A,4835.4300,N,12455.3998,W,8.71,112,040722,12,E,A,V*72
20220704 170144+00:00 $WIMWV,343.49,R,6.59,N,A*20
20220704 170146+00:00 $IIMDA,29.9,I,1.013,B,10.6,C,,C,96,,,C,,T,,M,,N,,M*3D
20220704 170146+00:00 $HCHDT,110.9,T*20
20220704 170146+00:00 $GPRMC,170140,A,4835.4300,N,12455.3896,W,8.71,112,040722,12,E,A,V*72
20220704 170146+00:00 $WIMWV,359.19,R,6.08,N,A*2A
20220704 170148+00:00 $IIMDA,29.9,I,1.013,B,10.6,C,,C,96.1,,,C,,T,,M,,N,,M*22
20220704 170148+00:00 $HCHDT,111.3,T*2B
20220704 170148+00:00 $GPRMC,170144,A,4835.4300,N,12455.3896,W,8.71,112,040722,12,E,A,V*76
20220704 170148+00:00 $WIMWV,17,R,6.08,N,A*35
20220704 170150+00:00 $IIMDA,29.9,I,1.013,B,10.6,C,,C,96.1,,,C,,T,,M,,N,,M*22
20220704 170150+00:00 $HCHDT,111.3,T*2B
20220704 170150+00:00 $GPRMC,170144,A,4835.4300,N,12455.3800,W,8.71,112,040722,12,E,A,V*79
20220704 170150+00:00 $WIMWV,350.59,R,7.79,N,A*20
20220704 170152+00:00 $IIMDA,29.9,I,1.013,B,10.6,C,,C,96.1,,,C,,T,,M,,N,,M*22
20220704 170152+00:00 $HCHDT,110.9,T*20
20220704 170152+00:00 $GPRMC,170148,A,4835.4300,N,12455.3698,W,8.71,112,040722,12,E,A,V*7A
20220704 170152+00:00 $WIMWV,352.69,R,7.1,N,A*1E
20220704 170154+00:00 $IIMDA,29.9,I,1.013,B,10.6,C,,C,96.1,,,C,,T,,M,,N,,M*22
20220704 170154+00:00 $HCHDT,110.3,T*2A
20220704 170154+00:00 $GPRMC,170148,A,4835.4300,N,12455.3698,W,8.71,112,040722,12,E,A,V*7A
20220704 170154+00:00 $WIMWV,0.19,R,4.78,N,A*20
20220704 170156+00:00 $IIMDA,29.9,I,1.013,B,10.6,C,,C,96.1,,,C,,T,,M,,N,,M*22
20220704 170156+00:00 $HCHDT,110.7,T*2E
20220704 170156+00:00 $GPRMC,170150,A,4835.4198,N,12455.3596,W,8.71,112,040722,12,E,A,V*7D
20220704 170156+00:00 $WIMWV,356.39,R,8.69,N,A*2E
20220704 170158+00:00 $IIMDA,29.9,I,1.013,B,10.6,C,,C,96.1,,,C,,T,,M,,N,,M*22
20220704 170158+00:00 $HCHDT,110.9,T*20
20220704 170158+00:00 $GPRMC,170152,A,4835.4198,N,12455.3500,W,8.71,112,040722,12,E,A,V*70
20220704 170158+00:00 $WIMWV,19.6,R,7.39,N,A*20
20220704 170200+00:00 $IIMDA,29.9,I,1.013,B,10.6,C,,C,96.1,,,C,,T,,M,,N,,M*22
20220704 170200+00:00 $HCHDT,111.2,T*2A
20220704 170200+00:00 $GPRMC,170154,A,4835.4198,N,12455.3500,W,8.71,112,040722,12,E,A,V*76
20220704 170200+00:00 $WIMWV,357.49,R,6.49,N,A*24
20220704 170202+00:00 $IIMDA,29.9,I,1.013,B,10.6,C,,C,96.1,,,C,,T,,M,,N,,M*22
20220704 170202+00:00 $HCHDT,111.7,T*2F
20220704 170202+00:00 $GPRMC,170156,A,4835.4198,N,12455.3398,W,8.71,113,040722,12,E,A,V*72
20220704 170202+00:00 $WIMWV,4.1,R,7.89,N,A*10
20220704 170204+00:00 $IIMDA,29.9,I,1.013,B,10.6,C,,C,96.1,,,C,,T,,M,,N,,M*22
20220704 170204+00:00 $HCHDT,111.3,T*2B
20220704 170204+00:00 $GPRMC,170200,A,4835.4198,N,12455.3296,W,8.71,113,040722,12,E,A,V*7D
20220704 170204+00:00 $WIMWV,3.5,R,7.19,N,A*1A
20220704 170206+00:00 $IIMDA,29.9,I,1.013,B,10.6,C,,C,96.1,,,C,,T,,M,,N,,M*22
20220704 170206+00:00 $HCHDT,110.7,T*2E
20220704 170206+00:00 $GPRMC,170202,A,4835.4096,N,12455.3296,W,8.71,113,040722,12,E,A,V*70
20220704 170206+00:00 $WIMWV,23.1,R,7.89,N,A*25
20220704 170208+00:00 $IIMDA,29.9,I,1.013,B,10.6,C,,C,96,,,C,,T,,M,,N,,M*3D
20220704 170208+00:00 $HCHDT,110.6,T*2F
20220704 170208+00:00 $GPRMC,170202,A,4835.4096,N,12455.3200,W,8.71,113,040722,12,E,A,V*7F
20220704 170208+00:00 $WIMWV,356.29,R,5.6,N,A*1B
20220704 170210+00:00 $IIMDA,29.9,I,1.013,B,10.6,C,,C,96.1,,,C,,T,,M,,N,,M*22
20220704 170210+00:00 $HCHDT,110.6,T*2F
20220704 170210+00:00 $GPRMC,170204,A,4835.4096,N,12455.3098,W,8.71,112,040722,12,E,A,V*7B
20220704 170210+00:00 $WIMWV,19.1,R,3.98,N,A*28
20220704 170212+00:00 $IIMDA,29.9,I,1.013,B,10.6,C,,C,96.1,,,C,,T,,M,,N,,M*22
20220704 170212+00:00 $HCHDT,111.1,T*29
20220704 170212+00:00 $GPRMC,170206,A,4835.4096,N,12455.3098,W,8.71,112,040722,12,E,A,V*79
20220704 170212+00:00 $WIMWV,23.7,R,7.99,N,A*22
20220704 170214+00:00 $IIMDA,29.9,I,1.013,B,10.6,C,,C,96.1,,,C,,T,,M,,N,,M*22
20220704 170214+00:00 $HCHDT,111.2,T*2A
20220704 170214+00:00 $GPRMC,170208,A,4835.4096,N,12455.2996,W,8.71,113,040722,12,E,A,V*70
20220704 170214+00:00 $WIMWV,357.29,R,7.7,N,A*19
20220704 170216+00:00 $IIMDA,29.9,I,1.013,B,10.6,C,,C,96.1,,,C,,T,,M,,N,,M*22
20220704 170216+00:00 $HCHDT,110.9,T*20
20220704 170216+00:00 $GPRMC,170210,A,4835.4000,N,12455.2900,W,8.71,113,040722,12,E,A,V*79
20220704 170216+00:00 $WIMWV,2.4,R,5.19,N,A*18
20220704 170218+00:00 $IIMDA,29.9,I,1.013,B,10.6,C,,C,96.1,,,C,,T,,M,,N,,M*22
20220704 170218+00:00 $HCHDT,110.6,T*2F
20220704 170218+00:00 $GPRMC,170212,A,4835.4000,N,12455.2900,W,8.59,113,040722,12,E,A,V*71
20220704 170218+00:00 $WIMWV,353.79,R,6.4,N,A*1A
20220704 170220+00:00 $IIMDA,29.9,I,1.013,B,10.6,C,,C,96.1,,,C,,T,,M,,N,,M*22
20220704 170220+00:00 $HCHDT,111.1,T*29
20220704 170220+00:00 $GPRMC,170216,A,4835.4000,N,12455.2798,W,8.59,113,040722,12,E,A,V*7A
20220704 170220+00:00 $WIMWV,356.69,R,5.19,N,A*21
20220704 170222+00:00 $IIMDA,29.9,I,1.013,B,10.6,C,,C,96.1,,,C,,T,,M,,N,,M*22
20220704 170222+00:00 $HCHDT,110.9,T*20
20220704 170222+00:00 $GPRMC,170218,A,4835.4000,N,12455.2696,W,8.59,113,040722,12,E,A,V*7B
20220704 170222+00:00 $WIMWV,13.1,R,5.38,N,A*2E
20220704 170224+00:00 $IIMDA,29.9,I,1.013,B,10.6,C,,C,96.1,,,C,,T,,M,,N,,M*22
20220704 170224+00:00 $HCHDT,110.7,T*2E
20220704 170224+00:00 $GPRMC,170218,A,4835.4000,N,12455.2696,W,8.59,113,040722,12,E,A,V*7B
20220704 170224+00:00 $WIMWV,347.99,R,6.88,N,A*25
20220704 170226+00:00 $IIMDA,29.9,I,1.013,B,10.6,C,,C,96.1,,,C,,T,,M,,N,,M*22
20220704 170226+00:00 $HCHDT,111,T*36
20220704 170226+00:00 $GPRMC,170222,A,4835.4000,N,12455.2600,W,8.59,113,040722,12,E,A,V*7D
20220704 170226+00:00 $WIMWV,342.49,R,7.39,N,A*26
20220704 170228+00:00 $IIMDA,29.9,I,1.013,B,10.6,C,,C,96,,,C,,T,,M,,N,,M*3D
20220704 170228+00:00 $HCHDT,110.7,T*2E
20220704 170228+00:00 $GPRMC,170222,A,4835.3898,N,12455.2498,W,8.71,112,040722,12,E,A,V*7B
20220704 170228+00:00 $WIMWV,358.39,R,7.1,N,A*11
20220704 170230+00:00 $IIMDA,29.9,I,1.013,B,10.6,C,,C,96.1,,,C,,T,,M,,N,,M*22
20220704 170230+00:00 $HCHDT,110.5,T*2C
20220704 170230+00:00 $GPRMC,170224,A,4835.3898,N,12455.2498,W,8.71,112,040722,12,E,A,V*7D
20220704 170230+00:00 $WIMWV,358.19,R,9.1,N,A*1D
20220704 170232+00:00 $IIMDA,29.9,I,1.013,B,10.6,C,,C,96.1,,,C,,T,,M,,N,,M*22
20220704 170232+00:00 $HCHDT,111,T*36
20220704 170232+00:00 $GPRMC,170226,A,4835.3898,N,12455.2396,W,8.71,112,040722,12,E,A,V*76
20220704 170232+00:00 $WIMWV,359.39,R,7.39,N,A*2B
20220704 170234+00:00 $IIMDA,29.9,I,1.013,B,10.6,C,,C,96.1,,,C,,T,,M,,N,,M*22
20220704 170234+00:00 $HCHDT,111.1,T*29
20220704 170234+00:00 $GPRMC,170228,A,4835.3898,N,12455.2300,W,8.59,112,040722,12,E,A,V*7D
20220704 170234+00:00 $WIMWV,6.7,R,8.18,N,A*13
20220704 170236+00:00 $IIMDA,29.9,I,1.013,B,10.6,C,,C,96.1,,,C,,T,,M,,N,,M*22
20220704 170236+00:00 $HCHDT,111.3,T*2B
20220704 170236+00:00 $GPRMC,170232,A,4835.3898,N,12455.2300,W,8.59,113,040722,12,E,A,V*77
20220704 170236+00:00 $WIMWV,353.99,R,9.68,N,A*21
20220704 170238+00:00 $IIMDA,29.9,I,1.013,B,10.6,C,,C,96.1,,,C,,T,,M,,N,,M*22
20220704 170238+00:00 $HCHDT,111.3,T*2B
20220704 170238+00:00 $GPRMC,170234,A,4835.3796,N,12455.2198,W,8.59,113,040722,12,E,A,V*73
20220704 170238+00:00 $WIMWV,0.19,R,8.28,N,A*29
20220704 170240+00:00 $IIMDA,29.9,I,1.013,B,10.6,C,,C,96.1,,,C,,T,,M,,N,,M*22
20220704 170240+00:00 $HCHDT,111.1,T*29
20220704 170240+00:00 $GPRMC,170236,A,4835.3796,N,12455.2096,W,8.59,113,040722,12,E,A,V*7E
20220704 170240+00:00 $WIMWV,353.69,R,8.69,N,A*2E
20220704 170242+00:00 $IIMDA,29.9,I,1.013,B,10.6,C,,C,96.1,,,C,,T,,M,,N,,M*22
20220704 170242+00:00 $HCHDT,111,T*36
20220704 170242+00:00 $GPRMC,170238,A,4835.3796,N,12455.2096,W,8.71,113,040722,12,E,A,V*7A
20220704 170242+00:00 $WIMWV,335.09,R,6.18,N,A*20
20220704 170244+00:00 $IIMDA,29.9,I,1.013,B,10.5,C,,C,96.1,,,C,,T,,M,,N,,M*21
20220704 170244+00:00 $HCHDT,110.6,T*2F
20220704 170244+00:00 $GPRMC,170238,A,4835.3796,N,12455.2000,W,8.71,112,040722,12,E,A,V*74
20220704 170244+00:00 $WIMWV,22.3,R,8.18,N,A*21
20220704 170246+00:00 $IIMDA,29.9,I,1.013,B,10.5,C,,C,96.1,,,C,,T,,M,,N,,M*21
20220704 170246+00:00 $HCHDT,110.8,T*21
20220704 170246+00:00 $GPRMC,170240,A,4835.3796,N,12455.1898,W,8.71,113,040722,12,E,A,V*70
20220704 170246+00:00 $WIMWV,0.19,R,8.79,N,A*2D
20220704 170248+00:00 $IIMDA,29.9,I,1.013,B,10.5,C,,C,96.1,,,C,,T,,M,,N,,M*21
20220704 170248+00:00 $HCHDT,111.1,T*29
20220704 170248+00:00 $GPRMC,170242,A,4835.3796,N,12455.1898,W,8.59,113,040722,12,E,A,V*78
20220704 170248+00:00 $WIMWV,11.89,R,8.69,N,A*15
20220704 170250+00:00 $IIMDA,29.9,I,1.013,B,10.5,C,,C,96.1,,,C,,T,,M,,N,,M*21
20220704 170250+00:00 $HCHDT,111,T*36
20220704 170250+00:00 $GPRMC,170244,A,4835.3700,N,12455.1796,W,8.59,113,040722,12,E,A,V*70
20220704 170250+00:00 $WIMWV,353.19,R,4.78,N,A*25
20220704 170252+00:00 $IIMDA,29.9,I,1.013,B,10.5,C,,C,96.1,,,C,,T,,M,,N,,M*21
20220704 170252+00:00 $HCHDT,111.2,T*2A
20220704 170252+00:00 $GPRMC,170248,A,4835.3700,N,12455.1700,W,8.59,113,040722,12,E,A,V*73
20220704 170252+00:00 $WIMWV,356.09,R,9.1,N,A*12
20220704 170254+00:00 $IIMDA,29.9,I,1.013,B,10.5,C,,C,96.1,,,C,,T,,M,,N,,M*21
20220704 170254+00:00 $HCHDT,110.9,T*20
20220704 170254+00:00 $GPRMC,170250,A,4835.3700,N,12455.1700,W,8.59,113,040722,12,E,A,V*7A
20220704 170254+00:00 $WIMWV,355.69,R,6.18,N,A*20
20220704 170256+00:00 $IIMDA,29.9,I,1.013,B,10.5,C,,C,96.1,,,C,,T,,M,,N,,M*21
20220704 170256+00:00 $HCHDT,111,T*36
20220704 170256+00:00 $GPRMC,170252,A,4835.3700,N,12455.1598,W,8.71,113,040722,12,E,A,V*71
20220704 170256+00:00 $WIMWV,359.09,R,8.18,N,A*24
20220704 170258+00:00 $IIMDA,29.9,I,1.013,B,10.5,C,,C,96.1,,,C,,T,,M,,N,,M*21
20220704 170258+00:00 $HCHDT,111.6,T*2E
20220704 170258+00:00 $GPRMC,170252,A,4835.3700,N,12455.1496,W,8.71,113,040722,12,E,A,V*7E
20220704 170258+00:00 $WIMWV,5.7,R,6.4,N,A*23
20220704 170300+00:00 $IIMDA,29.9,I,1.013,B,10.5,C,,C,96.1,,,C,,T,,M,,N,,M*21
20220704 170300+00:00 $HCHDT,111.7,T*2F
20220704 170300+00:00 $GPRMC,170254,A,4835.3598,N,12455.1496,W,8.59,113,040722,12,E,A,V*71
20220704 170300+00:00 $WIMWV,1.9,R,7.7,N,A*2B
20220704 170302+00:00 $IIMDA,29.9,I,1.013,B,10.5,C,,C,96.1,,,C,,T,,M,,N,,M*21
20220704 170302+00:00 $HCHDT,111.1,T*29
20220704 170302+00:00 $GPRMC,170256,A,4835.3598,N,12455.1400,W,8.59,113,040722,12,E,A,V*7C
20220704 170302+00:00 $WIMWV,9.2,R,4.68,N,A*12
20220704 170304+00:00 $IIMDA,29.9,I,1.013,B,10.5,C,,C,96.1,,,C,,T,,M,,N,,M*21
20220704 170304+00:00 $HCHDT,111.4,T*2C
20220704 170304+00:00 $GPRMC,170258,A,4835.3598,N,12455.1298,W,8.59,113,040722,12,E,A,V*75
20220704 170304+00:00 $WIMWV,21.5,R,3.09,N,A*2F
20220704 170306+00:00 $IIMDA,29.9,I,1.013,B,10.5,C,,C,96,,,C,,T,,M,,N,,M*3E
20220704 170306+00:00 $HCHDT,111.7,T*2F
20220704 170306+00:00 $GPRMC,170300,A,4835.3598,N,12455.1298,W,8.59,113,040722,12,E,A,V*79
20220704 170306+00:00 $WIMWV,356.19,R,7.99,N,A*2C
20220704 170308+00:00 $IIMDA,29.9,I,1.013,B,10.5,C,,C,96.1,,,C,,T,,M,,N,,M*21
20220704 170308+00:00 $HCHDT,111.9,T*21
20220704 170308+00:00 $GPRMC,170304,A,4835.3598,N,12455.1196,W,8.59,113,040722,12,E,A,V*70
20220704 170308+00:00 $WIMWV,356.99,R,7.79,N,A*2A
20220704 170310+00:00 $IIMDA,29.9,I,1.013,B,10.5,C,,C,96.1,,,C,,T,,M,,N,,M*21
20220704 170310+00:00 $HCHDT,112.2,T*29
20220704 170310+00:00 $GPRMC,170306,A,4835.3496,N,12455.1100,W,8.59,113,040722,12,E,A,V*72
20220704 170310+00:00 $WIMWV,8.2,R,8.4,N,A*25
20220704 170312+00:00 $IIMDA,29.9,I,1.013,B,10.5,C,,C,96.1,,,C,,T,,M,,N,,M*21
20220704 170312+00:00 $HCHDT,112,T*35
20220704 170312+00:00 $GPRMC,170308,A,4835.3496,N,12455.1100,W,8.59,113,040722,12,E,A,V*7C
20220704 170312+00:00 $WIMWV,359.89,R,7.79,N,A*24
20220704 170314+00:00 $IIMDA,29.9,I,1.013,B,10.5,C,,C,96.1,,,C,,T,,M,,N,,M*21
20220704 170314+00:00 $HCHDT,111.5,T*2D
20220704 170314+00:00 $GPRMC,170310,A,4835.3496,N,12455.0998,W,8.59,113,040722,12,E,A,V*7D
20220704 170314+00:00 $WIMWV,355.19,R,6.49,N,A*23
20220704 170316+00:00 $IIMDA,29.9,I,1.013,B,10.5,C,,C,96.1,,,C,,T,,M,,N,,M*21
20220704 170316+00:00 $HCHDT,111.4,T*2C
20220704 170316+00:00 $GPRMC,170310,A,4835.3496,N,12455.0896,W,8.59,113,040722,12,E,A,V*72
20220704 170316+00:00 $WIMWV,6.39,R,6.08,N,A*21
20220704 170318+00:00 $IIMDA,29.9,I,1.013,B,10.5,C,,C,96.1,,,C,,T,,M,,N,,M*21
20220704 170318+00:00 $HCHDT,111.4,T*2C
20220704 170318+00:00 $GPRMC,170312,A,4835.3496,N,12455.0896,W,8.59,113,040722,12,E,A,V*70
20220704 170318+00:00 $WIMWV,5.7,R,8.09,N,A*10
20220704 170320+00:00 $IIMDA,29.9,I,1.013,B,10.5,C,,C,96.1,,,C,,T,,M,,N,,M*21
20220704 170320+00:00 $HCHDT,111.5,T*2D
20220704 170320+00:00 $GPRMC,170316,A,4835.3496,N,12455.0800,W,8.59,113,040722,12,E,A,V*7B
20220704 170320+00:00 $WIMWV,352.39,R,8.18,N,A*2C
20220704 170322+00:00 $IIMDA,29.9,I,1.013,B,10.5,C,,C,96.1,,,C,,T,,M,,N,,M*21
20220704 170322+00:00 $HCHDT,112,T*35
20220704 170322+00:00 $GPRMC,170316,A,4835.3400,N,12455.0698,W,8.59,113,040722,12,E,A,V*7B
20220704 170322+00:00 $WIMWV,351.19,R,7.99,N,A*2B
20220704 170324+00:00 $IIMDA,29.9,I,1.013,B,10.5,C,,C,96.1,,,C,,T,,M,,N,,M*21
20220704 170324+00:00 $HCHDT,111.5,T*2D
20220704 170324+00:00 $GPRMC,170320,A,4835.3400,N,12455.0698,W,8.59,113,040722,12,E,A,V*7E
20220704 170324+00:00 $WIMWV,352.49,R,6.78,N,A*23
20220704 170326+00:00 $IIMDA,29.9,I,1.013,B,10.5,C,,C,96.1,,,C,,T,,M,,N,,M*21
20220704 170326+00:00 $HCHDT,111.3,T*2B
20220704 170326+00:00 $GPRMC,170322,A,4835.3400,N,12455.0596,W,8.59,113,040722,12,E,A,V*71
20220704 170326+00:00 $WIMWV,3.8,R,6.3,N,A*2D
20220704 170328+00:00 $IIMDA,29.9,I,1.013,B,10.5,C,,C,96.1,,,C,,T,,M,,N,,M*21
20220704 170328+00:00 $HCHDT,111.4,T*2C
20220704 170328+00:00 $GPRMC,170324,A,4835.3400,N,12455.0500,W,8.59,113,040722,12,E,A,V*78
20220704 170328+00:00 $WIMWV,351.89,R,7.58,N,A*2F
20220704 170330+00:00 $IIMDA,29.9,I,1.013,B,10.5,C,,C,96.1,,,C,,T,,M,,N,,M*21
20220704 170330+00:00 $HCHDT,111.5,T*2D
20220704 170330+00:00 $GPRMC,170326,A,4835.3400,N,12455.0500,W,8.59,113,040722,12,E,A,V*7A
20220704 170330+00:00 $WIMWV,356.49,R,7.19,N,A*21
20220704 170332+00:00 $IIMDA,29.9,I,1.013,B,10.5,C,,C,96.1,,,C,,T,,M,,N,,M*21
20220704 170332+00:00 $HCHDT,111.7,T*2F
20220704 170332+00:00 $GPRMC,170326,A,4835.3298,N,12455.0398,W,8.59,113,040722,12,E,A,V*7A
20220704 170332+00:00 $WIMWV,356.49,R,6.3,N,A*1B
20220704 170334+00:00 $IIMDA,29.9,I,1.013,B,10.5,C,,C,96.1,,,C,,T,,M,,N,,M*21
20220704 170334+00:00 $HCHDT,111.7,T*2F
20220704 170334+00:00 $GPRMC,170328,A,4835.3298,N,12455.0296,W,8.59,113,040722,12,E,A,V*7B
20220704 170334+00:00 $WIMWV,1.4,R,6.88,N,A*10
20220704 170336+00:00 $IIMDA,29.9,I,1.013,B,10.5,C,,C,96.1,,,C,,T,,M,,N,,M*21
20220704 170336+00:00 $HCHDT,111.6,T*2E
20220704 170336+00:00 $GPRMC,170330,A,4835.3298,N,12455.0296,W,8.59,113,040722,12,E,A,V*72
20220704 170336+00:00 $WIMWV,7,R,6.4,N,A*38
20220704 170338+00:00 $IIMDA,29.9,I,1.013,B,10.5,C,,C,96.1,,,C,,T,,M,,N,,M*21
20220704 170338+00:00 $HCHDT,111.4,T*2C
20220704 170338+00:00 $GPRMC,170332,A,4835.3298,N,12455.0200,W,8.59,113,040722,12,E,A,V*7F
20220704 170338+00:00 $WIMWV,1.29,R,6.08,N,A*27
20220704 170340+00:00 $IIMDA,29.9,I,1.013,B,10.5,C,,C,96.1,,,C,,T,,M,,N,,M*21
20220704 170340+00:00 $HCHDT,111.5,T*2D
20220704 170340+00:00 $GPRMC,170336,A,4835.3298,N,12455.0098,W,8.59,113,040722,12,E,A,V*78
20220704 170340+00:00 $WIMWV,358.19,R,5.19,N,A*28
20220704 170342+00:00 $IIMDA,29.9,I,1.013,B,10.5,C,,C,96.1,,,C,,T,,M,,N,,M*21
20220704 170342+00:00 $HCHDT,111.6,T*2E
20220704 170342+00:00 $GPRMC,170338,A,4835.3196,N,12455.0098,W,8.59,113,040722,12,E,A,V*7B
20220704 170342+00:00 $WIMWV,357.79,R,6.88,N,A*2A
20220704 170344+00:00 $IIMDA,29.9,I,1.013,B,10.5,C,,C,96.1,,,C,,T,,M,,N,,M*21
20220704 170344+00:00 $HCHDT,111.9,T*21
20220704 170344+00:00 $GPRMC,170340,A,4835.3196,N,12454.9996,W,8.59,113,040722,12,E,A,V*7B
20220704 170344+00:00 $WIMWV,342.49,R,5.38,N,A*25
20220704 170346+00:00 $IIMDA,29.9,I,1.013,B,10.5,C,,C,96.1,,,C,,T,,M,,N,,M*21
20220704 170346+00:00 $HCHDT,111.8,T*20
20220704 170346+00:00 $GPRMC,170342,A,4835.3196,N,12454.9900,W,8.59,113,040722,12,E,A,V*76
20220704 170346+00:00 $WIMWV,350.19,R,7.58,N,A*27
20220704 170348+00:00 $IIMDA,29.9,I,1.013,B,10.5,C,,C,96.1,,,C,,T,,M,,N,,M*21
20220704 170348+00:00 $HCHDT,111.6,T*2E
20220704 170348+00:00 $GPRMC,170342,A,4835.3196,N,12454.9900,W,8.59,113,040722,12,E,A,V*76
20220704 170348+00:00 $WIMWV,357.59,R,5.6,N,A*1D
20220704 170350+00:00 $IIMDA,29.9,I,1.013,B,10.5,C,,C,96.1,,,C,,T,,M,,N,,M*21
20220704 170350+00:00 $HCHDT,111.4,T*2C
20220704 170350+00:00 $GPRMC,170344,A,4835.3196,N,12454.9798,W,8.59,113,040722,12,E,A,V*7F
20220704 170350+00:00 $WIMWV,350.79,R,8.69,N,A*2C
20220704 170352+00:00 $IIMDA,29.9,I,1.013,B,10.5,C,,C,96.1,,,C,,T,,M,,N,,M*21
20220704 170352+00:00 $HCHDT,111.8,T*20
20220704 170352+00:00 $GPRMC,170346,A,4835.3196,N,12454.9696,W,8.59,113,040722,12,E,A,V*72
20220704 170352+00:00 $WIMWV,352.69,R,7.39,N,A*25
20220704 170354+00:00 $IIMDA,29.9,I,1.013,B,10.5,C,,C,96.1,,,C,,T,,M,,N,,M*21
20220704 170354+00:00 $HCHDT,112,T*35
20220704 170354+00:00 $GPRMC,170348,A,4835.3100,N,12454.9696,W,8.59,113,040722,12,E,A,V*73
20220704 170354+00:00 $WIMWV,3,R,6.88,N,A*08
20220704 170356+00:00 $IIMDA,29.9,I,1.013,B,10.5,C,,C,96.1,,,C,,T,,M,,N,,M*21
20220704 170356+00:00 $HCHDT,112.1,T*2A
20220704 170356+00:00 $GPRMC,170352,A,4835.3100,N,12454.9600,W,8.59,114,040722,12,E,A,V*70
20220704 170356+00:00 $WIMWV,351.89,R,7.89,N,A*23
20220704 170358+00:00 $IIMDA,29.9,I,1.013,B,10.5,C,,C,96.1,,,C,,T,,M,,N,,M*21
20220704 170358+00:00 $HCHDT,112.3,T*28
20220704 170358+00:00 $GPRMC,170354,A,4835.3100,N,12454.9600,W,8.59,114,040722,12,E,A,V*76
20220704 170358+00:00 $WIMWV,0,R,7.89,N,A*0B
20220704 170400+00:00 $IIMDA,29.9,I,1.013,B,10.5,C,,C,96.1,,,C,,T,,M,,N,,M*21
20220704 170400+00:00 $HCHDT,112.3,T*28
20220704 170400+00:00 $GPRMC,170356,A,4835.3100,N,12454.9498,W,8.49,114,040722,12,E,A,V*76
20220704 170400+00:00 $WIMWV,0.8,R,6.78,N,A*12
20220704 170402+00:00 $IIMDA,29.9,I,1.013,B,10.5,C,,C,96,,,C,,T,,M,,N,,M*3E
20220704 170402+00:00 $HCHDT,112,T*35
20220704 170402+00:00 $GPRMC,170358,A,4835.3100,N,12454.9396,W,8.49,114,040722,12,E,A,V*71
20220704 170402+00:00 $WIMWV,353.09,R,9.39,N,A*2C
20220704 170404+00:00 $IIMDA,29.9,I,1.013,B,10.5,C,,C,96.1,,,C,,T,,M,,N,,M*21
20220704 170404+00:00 $HCHDT,111.8,T*20
20220704 170404+00:00 $GPRMC,170358,A,4835.2998,N,12454.9396,W,8.59,114,040722,12,E,A,V*78
20220704 170404+00:00 $WIMWV,0.19,R,8.49,N,A*2E
20220704 170406+00:00 $IIMDA,29.9,I,1.013,B,10.5,C,,C,96.1,,,C,,T,,M,,N,,M*21
20220704 170406+00:00 $HCHDT,111.3,T*2B
20220704 170406+00:00 $GPRMC,170400,A,4835.2998,N,12454.9300,W,8.59,114,040722,12,E,A,V*7D
20220704 170406+00:00 $WIMWV,20.6,R,5.48,N,A*2E
20220704 170408+00:00 $IIMDA,29.9,I,1.013,B,10.5,C,,C,96,,,C,,T,,M,,N,,M*3E
20220704 170408+00:00 $HCHDT,111.3,T*2B
20220704 170408+00:00 $GPRMC,170402,A,4835.2998,N,12454.9198,W,8.59,114,040722,12,E,A,V*7C
20220704 170408+00:00 $WIMWV,4.6,R,8.49,N,A*14
20220704 170410+00:00 $IIMDA,29.9,I,1.013,B,10.5,C,,C,96.1,,,C,,T,,M,,N,,M*21
20220704 170410+00:00 $HCHDT,111.8,T*20
20220704 170410+00:00 $GPRMC,170404,A,4835.2998,N,12454.9198,W,8.59,114,040722,12,E,A,V*7A
20220704 170410+00:00 $WIMWV,3.6,R,7.29,N,A*1A
20220704 170412+00:00 $IIMDA,29.9,I,1.013,B,10.5,C,,C,96.1,,,C,,T,,M,,N,,M*21
20220704 170412+00:00 $HCHDT,111.2,T*2A
20220704 170412+00:00 $GPRMC,170408,A,4835.2998,N,12454.9096,W,8.59,113,040722,12,E,A,V*7E
20220704 170412+00:00 $WIMWV,342.49,R,6.3,N,A*1E
20220704 170414+00:00 $IIMDA,29.9,I,1.013,B,10.5,C,,C,96.1,,,C,,T,,M,,N,,M*21
20220704 170414+00:00 $HCHDT,110.8,T*21
20220704 170414+00:00 $GPRMC,170410,A,4835.2896,N,12454.9000,W,8.59,113,040722,12,E,A,V*77
20220704 170414+00:00 $WIMWV,342.99,R,8.79,N,A*20
20220704 170416+00:00 $IIMDA,29.9,I,1.013,B,10.5,C,,C,96,,,C,,T,,M,,N,,M*3E
20220704 170416+00:00 $HCHDT,111.1,T*29
20220704 170416+00:00 $GPRMC,170412,A,4835.2896,N,12454.9000,W,8.59,113,040722,12,E,A,V*75
20220704 170416+00:00 $WIMWV,5.9,R,6.49,N,A*14
20220704 170418+00:00 $IIMDA,29.9,I,1.013,B,10.5,C,,C,96.1,,,C,,T,,M,,N,,M*21
20220704 170418+00:00 $HCHDT,111.3,T*2B
20220704 170418+00:00 $GPRMC,170412,A,4835.2896,N,12454.8898,W,8.49,113,040722,12,E,A,V*7C
20220704 170418+00:00 $WIMWV,358.79,R,9.19,N,A*22
20220704 170420+00:00 $IIMDA,29.9,I,1.013,B,10.5,C,,C,96.1,,,C,,T,,M,,N,,M*21
20220704 170420+00:00 $HCHDT,111.5,T*2D
20220704 170420+00:00 $GPRMC,170414,A,4835.2896,N,12454.8796,W,8.49,113,040722,12,E,A,V*7B
20220704 170420+00:00 $WIMWV,349.79,R,7.19,N,A*2C
20220704 170422+00:00 $IIMDA,29.9,I,1.013,B,10.5,C,,C,96.1,,,C,,T,,M,,N,,M*21
20220704 170422+00:00 $HCHDT,111.5,T*2D
20220704 170422+00:00 $GPRMC,170416,A,4835.2896,N,12454.8796,W,8.59,113,040722,12,E,A,V*78
20220704 170422+00:00 $WIMWV,4.2,R,7,N,A*3C
20220704 170424+00:00 $IIMDA,29.9,I,1.013,B,10.5,C,,C,96.1,,,C,,T,,M,,N,,M*21
20220704 170424+00:00 $HCHDT,111.6,T*2E
20220704 170424+00:00 $GPRMC,170418,A,4835.2800,N,12454.8700,W,8.59,113,040722,12,E,A,V*76
20220704 170424+00:00 $WIMWV,338.49,R,8.28,N,A*24
20220704 170426+00:00 $IIMDA,29.9,I,1.013,B,10.5,C,,C,96.1,,,C,,T,,M,,N,,M*21
20220704 170426+00:00 $HCHDT,111.2,T*2A
20220704 170426+00:00 $GPRMC,170422,A,4835.2800,N,12454.8598,W,8.59,113,040722,12,E,A,V*7C
20220704 170426+00:00 $WIMWV,16.6,R,8.09,N,A*23
20220704 170428+00:00 $IIMDA,29.9,I,1.013,B,10.5,C,,C,96.1,,,C,,T,,M,,N,,M*21
20220704 170428+00:00 $HCHDT,110.9,T*20
20220704 170428+00:00 $GPRMC,170424,A,4835.2800,N,12454.8598,W,8.59,113,040722,12,E,A,V*7A
20220704 170428+00:00 $WIMWV,354.19,R,9.29,N,A*2B
20220704 170430+00:00 $IIMDA,29.9,I,1.013,B,10.5,C,,C,96.1,,,C,,T,,M,,N,,M*21
20220704 170430+00:00 $HCHDT,111.3,T*2B
20220704 170430+00:00 $GPRMC,170426,A,4835.2800,N,12454.8496,W,8.59,113,040722,12,E,A,V*77
20220704 170430+00:00 $WIMWV,1.8,R,8.49,N,A*1F
20220704 170432+00:00 $IIMDA,29.9,I,1.013,B,10.5,C,,C,96.1,,,C,,T,,M,,N,,M*21
20220704 170432+00:00 $HCHDT,111,T*36
20220704 170432+00:00 $GPRMC,170428,A,4835.2800,N,12454.8400,W,8.59,113,040722,12,E,A,V*76
20220704 170432+00:00 $WIMWV,3.8,R,6.49,N,A*13
20220704 170434+00:00 $IIMDA,29.9,I,1.013,B,10.5,C,,C,96,,,C,,T,,M,,N,,M*3E
20220704 170434+00:00 $HCHDT,111,T*36
20220704 170434+00:00 $GPRMC,170430,A,4835.2800,N,12454.8400,W,8.49,113,040722,12,E,A,V*7E
20220704 170434+00:00 $WIMWV,0.1,R,7.89,N,A*14
20220704 170436+00:00 $IIMDA,29.9,I,1.013,B,10.5,C,,C,96.1,,,C,,T,,M,,N,,M*21
20220704 170436+00:00 $HCHDT,110.7,T*2E
20220704 170436+00:00 $GPRMC,170430,A,4835.2698,N,12454.8298,W,8.49,113,040722,12,E,A,V*76
20220704 170436+00:00 $WIMWV,345.39,R,5.38,N,A*25
20220704 170438+00:00 $IIMDA,29.9,I,1.013,B,10.5,C,,C,96.1,,,C,,T,,M,,N,,M*21
20220704 170438+00:00 $HCHDT,110.2,T*2B
20220704 170438+00:00 $GPRMC,170432,A,4835.2698,N,12454.8196,W,8.49,113,040722,12,E,A,V*79
20220704 170438+00:00 $WIMWV,344.19,R,6.18,N,A*27
20220704 170440+00:00 $IIMDA,29.9,I,1.013,B,10.5,C,,C,96.1,,,C,,T,,M,,N,,M*21
20220704 170440+00:00 $HCHDT,110.6,T*2F
20220704 170440+00:00 $GPRMC,170434,A,4835.2698,N,12454.8196,W,8.59,112,040722,12,E,A,V*7F
20220704 170440+00:00 $WIMWV,357.79,R,10.38,N,A*16
20220704 170442+00:00 $IIMDA,29.9,I,1.013,B,10.5,C,,C,96,,,C,,T,,M,,N,,M*3E
20220704 170442+00:00 $HCHDT,111.2,T*2A
20220704 170442+00:00 $GPRMC,170436,A,4835.2698,N,12454.8100,W,8.59,112,040722,12,E,A,V*72
20220704 170442+00:00 $WIMWV,352.29,R,7.39,N,A*21
20220704 170444+00:00 $IIMDA,29.9,I,1.013,B,10.5,C,,C,96.1,,,C,,T,,M,,N,,M*21
20220704 170444+00:00 $HCHDT,111,T*36
20220704 170444+00:00 $GPRMC,170440,A,4835.2698,N,12454.7998,W,8.59,112,040722,12,E,A,V*75
20220704 170444+00:00 $WIMWV,354.29,R,8.09,N,A*2B
20220704 170446+00:00 $IIMDA,29.9,I,1.013,B,10.5,C,,C,96.1,,,C,,T,,M,,N,,M*21
20220704 170446+00:00 $HCHDT,110.6,T*2F
20220704 170446+00:00 $GPRMC,170442,A,4835.2596,N,12454.7998,W,8.59,112,040722,12,E,A,V*7A
20220704 170446+00:00 $WIMWV,5.1,R,9.89,N,A*1F
20220704 170448+00:00 $IIMDA,29.9,I,1.013,B,10.5,C,,C,96,,,C,,T,,M,,N,,M*3E
20220704 170448+00:00 $HCHDT,110.1,T*28
20220704 170448+00:00 $GPRMC,170442,A,4835.2596,N,12454.7896,W,8.49,112,040722,12,E,A,V*74
20220704 170448+00:00 $WIMWV,10,R,6.4,N,A*0E
20220704 170450+00:00 $IIMDA,29.9,I,1.013,B,10.5,C,,C,96,,,C,,T,,M,,N,,M*3E
20220704 170450+00:00 $HCHDT,110.3,T*2A
20220704 170450+00:00 $GPRMC,170444,A,4835.2596,N,12454.7800,W,8.49,112,040722,12,E,A,V*7D
20220704 170450+00:00 $WIMWV,354.89,R,9.49,N,A*24
20220704 170452+00:00 $IIMDA,29.9,I,1.013,B,10.5,C,,C,96.1,,,C,,T,,M,,N,,M*21
20220704 170452+00:00 $HCHDT,111.1,T*29
20220704 170452+00:00 $GPRMC,170446,A,4835.2596,N,12454.7800,W,8.49,112,040722,12,E,A,V*7F
20220704 170452+00:00 $WIMWV,6.5,R,8.69,N,A*17
20220704 170454+00:00 $IIMDA,29.9,I,1.013,B,10.5,C,,C,96,,,C,,T,,M,,N,,M*3E
20220704 170454+00:00 $HCHDT,112,T*35
20220704 170454+00:00 $GPRMC,170448,A,4835.2596,N,12454.7698,W,8.49,112,040722,12,E,A,V*7E
20220704 170454+00:00 $WIMWV,10,R,7.58,N,A*36
20220704 170456+00:00 $IIMDA,29.9,I,1.013,B,10.5,C,,C,96,,,C,,T,,M,,N,,M*3E
20220704 170456+00:00 $HCHDT,112.6,T*2D
20220704 170456+00:00 $GPRMC,170450,A,4835.2596,N,12454.7596,W,8.49,113,040722,12,E,A,V*7B
20220704 170456+00:00 $WIMWV,356.39,R,8.69,N,A*2E
20220704 170458+00:00 $IIMDA,29.9,I,1.013,B,10.5,C,,C,96,,,C,,T,,M,,N,,M*3E
20220704 170458+00:00 $HCHDT,112.1,T*2A
20220704 170458+00:00 $GPRMC,170452,A,4835.2500,N,12454.7596,W,8.49,113,040722,12,E,A,V*76
20220704 170458+00:00 $WIMWV,12.4,R,8.49,N,A*21
20220704 170500+00:00 $IIMDA,29.9,I,1.013,B,10.5,C,,C,96.1,,,C,,T,,M,,N,,M*21
20220704 170500+00:00 $HCHDT,111.9,T*21
20220704 170500+00:00 $GPRMC,170456,A,4835.2500,N,12454.7500,W,8.49,113,040722,12,E,A,V*7D
20220704 170500+00:00 $WIMWV,353.39,R,8.09,N,A*2D
20220704 170502+00:00 $IIMDA,29.9,I,1.013,B,10.5,C,,C,96.1,,,C,,T,,M,,N,,M*21
20220704 170502+00:00 $HCHDT,111.7,T*2F
20220704 170502+00:00 $GPRMC,170458,A,4835.2500,N,12454.7398,W,8.49,113,040722,12,E,A,V*74
20220704 170502+00:00 $WIMWV,347.89,R,8.28,N,A*20
20220704 170504+00:00 $IIMDA,29.9,I,1.013,B,10.5,C,,C,96.1,,,C,,T,,M,,N,,M*21
20220704 170504+00:00 $HCHDT,111.9,T*21
20220704 170504+00:00 $GPRMC,170500,A,4835.2500,N,12454.7398,W,8.49,113,040722,12,E,A,V*78
20220704 170504+00:00 $WIMWV,2.4,R,6.18,N,A*1A
20220704 170506+00:00 $IIMDA,29.9,I,1.013,B,10.5,C,,C,96,,,C,,T,,M,,N,,M*3E
20220704 170506+00:00 $HCHDT,112.3,T*28
20220704 170506+00:00 $GPRMC,170502,A,4835.2500,N,12454.7296,W,8.49,113,040722,12,E,A,V*75
20220704 170506+00:00 $WIMWV,21.39,R,5.99,N,A*1F
20220704 170508+00:00 $IIMDA,29.9,I,1.013,B,10.5,C,,C,96.1,,,C,,T,,M,,N,,M*21
20220704 170508+00:00 $HCHDT,111.9,T*21
20220704 170508+00:00 $GPRMC,170502,A,4835.2398,N,12454.7200,W,8.49,113,040722,12,E,A,V*7D
20220704 170508+00:00 $WIMWV,356.99,R,8.59,N,A*27
20220704 170510+00:00 $IIMDA,29.9,I,1.013,B,10.5,C,,C,96.1,,,C,,T,,M,,N,,M*21
20220704 170510+00:00 $HCHDT,111.6,T*2E
20220704 170510+00:00 $GPRMC,170504,A,4835.2398,N,12454.7200,W,8.49,113,040722,12,E,A,V*7B
20220704 170510+00:00 $WIMWV,346.69,R,10.09,N,A*15
20220704 170512+00:00 $IIMDA,29.9,I,1.013,B,10.5,C,,C,96.1,,,C,,T,,M,,N,,M*21
20220704 170512+00:00 $HCHDT,111.5,T*2D
20220704 170512+00:00 $GPRMC,170506,A,4835.2398,N,12454.7098,W,8.49,113,040722,12,E,A,V*7A
20220704 170512+00:00 $WIMWV,1.5,R,8.69,N,A*10
20220704 170514+00:00 $IIMDA,29.9,I,1.013,B,10.5,C,,C,96.1,,,C,,T,,M,,N,,M*21
20220704 170514+00:00 $HCHDT,110.9,T*20
20220704 170514+00:00 $GPRMC,170510,A,4835.2398,N,12454.6996,W,8.49,113,040722,12,E,A,V*7B
20220704 170514+00:00 $WIMWV,347.89,R,8.69,N,A*25
20220704 170516+00:00 $IIMDA,29.9,I,1.013,B,10.5,C,,C,96.1,,,C,,T,,M,,N,,M*21
20220704 170516+00:00 $HCHDT,111.1,T*29
20220704 170516+00:00 $GPRMC,170512,A,4835.2398,N,12454.6996,W,8.49,113,040722,12,E,A,V*79
20220704 170516+00:00 $WIMWV,353.29,R,7,N,A*04
20220704 170518+00:00 $IIMDA,29.9,I,1.013,B,10.5,C,,C,96.1,,,C,,T,,M,,N,,M*21
20220704 170518+00:00 $HCHDT,111.4,T*2C
20220704 170518+00:00 $GPRMC,170514,A,4835.2398,N,12454.6900,W,8.49,113,040722,12,E,A,V*70
20220704 170518+00:00 $WIMWV,341.39,R,9.58,N,A*2B
20220704 170520+00:00 $IIMDA,29.9,I,1.013,B,10.5,C,,C,96.1,,,C,,T,,M,,N,,M*21
20220704 170520+00:00 $HCHDT,111,T*36
20220704 170520+00:00 $GPRMC,170516,A,4835.2296,N,12454.6798,W,8.49,112,040722,12,E,A,V*73
20220704 170520+00:00 $WIMWV,354.29,R,7,N,A*03
20220704 170522+00:00 $IIMDA,29.9,I,1.013,B,10.5,C,,C,96,,,C,,T,,M,,N,,M*3E
20220704 170522+00:00 $HCHDT,110.8,T*21
20220704 170522+00:00 $GPRMC,170518,A,4835.2296,N,12454.6798,W,8.49,112,040722,12,E,A,V*7D
20220704 170522+00:00 $WIMWV,0.19,R,7.79,N,A*22
20220704 170524+00:00 $IIMDA,29.9,I,1.013,B,10.5,C,,C,96.1,,,C,,T,,M,,N,,M*21
20220704 170524+00:00 $HCHDT,110.7,T*2E
20220704 170524+00:00 $GPRMC,170518,A,4835.2296,N,12454.6696,W,8.49,112,040722,12,E,A,V*72
20220704 170524+00:00 $WIMWV,20,R,7.7,N,A*0F
20220704 170526+00:00 $IIMDA,29.9,I,1.013,B,10.5,C,,C,96.1,,,C,,T,,M,,N,,M*21
20220704 170526+00:00 $HCHDT,111.1,T*29
20220704 170526+00:00 $GPRMC,170520,A,4835.2296,N,12454.6696,W,8.49,112,040722,12,E,A,V*79
20220704 170526+00:00 $WIMWV,359.59,R,8.69,N,A*27
20220704 170528+00:00 $IIMDA,29.9,I,1.013,B,10.5,C,,C,96,,,C,,T,,M,,N,,M*3E
20220704 170528+00:00 $HCHDT,111.8,T*20
20220704 170528+00:00 $GPRMC,170522,A,4835.2296,N,12454.6600,W,8.49,112,040722,12,E,A,V*74
20220704 170528+00:00 $WIMWV,351.39,R,8.79,N,A*28
20220704 170530+00:00 $IIMDA,29.9,I,1.013,B,10.5,C,,C,96.1,,,C,,T,,M,,N,,M*21
20220704 170530+00:00 $HCHDT,111.8,T*20
20220704 170530+00:00 $GPRMC,170524,A,4835.2200,N,12454.6498,W,8.4,113,040722,12,E,A,V*46
20220704 170530+00:00 $WIMWV,350.49,R,5.89,N,A*2C
20220704 170532+00:00 $IIMDA,29.9,I,1.013,B,10.5,C,,C,96,,,C,,T,,M,,N,,M*3E
20220704 170532+00:00 $HCHDT,111.5,T*2D
20220704 170532+00:00 $GPRMC,170528,A,4835.2200,N,12454.6498,W,8.4,113,040722,12,E,A,V*4A
20220704 170532+00:00 $WIMWV,339.29,R,1.69,N,A*2F
20220704 170534+00:00 $IIMDA,29.9,I,1.013,B,10.5,C,,C,96.1,,,C,,T,,M,,N,,M*21
20220704 170534+00:00 $HCHDT,111,T*36
20220704 170534+00:00 $GPRMC,170530,A,4835.2200,N,12454.6396,W,8.49,113,040722,12,E,A,V*73
20220704 170534+00:00 $WIMWV,354.09,R,6.08,N,A*26
20220704 170536+00:00 $IIMDA,29.9,I,1.013,B,10.5,C,,C,96,,,C,,T,,M,,N,,M*3E
20220704 170536+00:00 $HCHDT,110.7,T*2E
20220704 170536+00:00 $GPRMC,170532,A,4835.2200,N,12454.6300,W,8.49,112,040722,12,E,A,V*7F
20220704 170536+00:00 $WIMWV,358.39,R,6.59,N,A*2D
20220704 170538+00:00 $IIMDA,29.9,I,1.013,B,10.5,C,,C,96,,,C,,T,,M,,N,,M*3E
20220704 170538+00:00 $HCHDT,110.8,T*21
20220704 170538+00:00 $GPRMC,170534,A,4835.2200,N,12454.6300,W,8.49,112,040722,12,E,A,V*79
20220704 170538+00:00 $WIMWV,5.9,R,8.18,N,A*1E
20220704 170540+00:00 $IIMDA,29.9,I,1.013,B,10.5,C,,C,96.1,,,C,,T,,M,,N,,M*21
20220704 170540+00:00 $HCHDT,110.7,T*2E
20220704 170540+00:00 $GPRMC,170536,A,4835.2200,N,12454.6198,W,8.49,112,040722,12,E,A,V*78
20220704 170540+00:00 $WIMWV,9.3,R,7.19,N,A*16
20220704 170542+00:00 $IIMDA,29.9,I,1.013,B,10.5,C,,C,96.1,,,C,,T,,M,,N,,M*21
20220704 170542+00:00 $HCHDT,110.8,T*21
20220704 170542+00:00 $GPRMC,170538,A,4835.2098,N,12454.6096,W,8.49,112,040722,12,E,A,V*7A
20220704 170542+00:00 $WIMWV,359.09,R,6.78,N,A*2C
20220704 170544+00:00 $IIMDA,29.9,I,1.013,B,10.5,C,,C,96.1,,,C,,T,,M,,N,,M*21
20220704 170544+00:00 $HCHDT,110.7,T*2E
20220704 170544+00:00 $GPRMC,170538,A,4835.2098,N,12454.6096,W,8.49,112,040722,12,E,A,V*7A
20220704 170544+00:00 $WIMWV,350.99,R,6.59,N,A*2F
20220704 170546+00:00 $IIMDA,29.9,I,1.013,B,10.5,C,,C,96,,,C,,T,,M,,N,,M*3E
20220704 170546+00:00 $HCHDT,110.2,T*2B
20220704 170546+00:00 $GPRMC,170540,A,4835.2098,N,12454.6000,W,8.49,112,040722,12,E,A,V*7A
20220704 170546+00:00 $WIMWV,4.5,R,6.49,N,A*19
20220704 170548+00:00 $IIMDA,29.9,I,1.013,B,10.5,C,,C,96.1,,,C,,T,,M,,N,,M*21
20220704 170548+00:00 $HCHDT,109.7,T*26
20220704 170548+00:00 $GPRMC,170542,A,4835.2098,N,12454.5898,W,8.49,112,040722,12,E,A,V*72
20220704 170548+00:00 $WIMWV,0.1,R,9.49,N,A*16
20220704 170550+00:00 $IIMDA,29.9,I,1.013,B,10.5,C,,C,96.1,,,C,,T,,M,,N,,M*21
20220704 170550+00:00 $HCHDT,110.5,T*2C
20220704 170550+00:00 $GPRMC,170544,A,4835.2098,N,12454.5898,W,8.49,112,040722,12,E,A,V*74
20220704 170550+00:00 $WIMWV,0.19,R,8.98,N,A*22
20220704 170552+00:00 $IIMDA,29.9,I,1.013,B,10.5,C,,C,96.1,,,C,,T,,M,,N,,M*21
20220704 170552+00:00 $HCHDT,110.9,T*20
20220704 170552+00:00 $GPRMC,170548,A,4835.2098,N,12454.5796,W,8.49,112,040722,12,E,A,V*79
20220704 170552+00:00 $WIMWV,22.1,R,5.19,N,A*2F
20220704 170554+00:00 $IIMDA,29.9,I,1.013,B,10.5,C,,C,96.1,,,C,,T,,M,,N,,M*21
20220704 170554+00:00 $HCHDT,110.7,T*2E
20220704 170554+00:00 $GPRMC,170550,A,4835.1996,N,12454.5700,W,8.49,112,040722,12,E,A,V*7B
20220704 170554+00:00 $WIMWV,4.39,R,7,N,A*04
20220704 170556+00:00 $IIMDA,29.9,I,1.013,B,10.5,C,,C,96,,,C,,T,,M,,N,,M*3E
20220704 170556+00:00 $HCHDT,110.7,T*2E
20220704 170556+00:00 $GPRMC,170552,A,4835.1996,N,12454.5700,W,8.49,112,040722,12,E,A,V*79
20220704 170556+00:00 $WIMWV,0.8,R,7.48,N,A*10
20220704 170558+00:00 $IIMDA,29.9,I,1.013,B,10.5,C,,C,96.1,,,C,,T,,M,,N,,M*21
20220704 170558+00:00 $HCHDT,110.7,T*2E
20220704 170558+00:00 $GPRMC,170554,A,4835.1996,N,12454.5598,W,8.49,111,040722,12,E,A,V*7F
20220704 170558+00:00 $WIMWV,6.5,R,7.58,N,A*1A
20220704 170600+00:00 $IIMDA,29.9,I,1.013,B,10.5,C,,C,96.1,,,C,,T,,M,,N,,M*21
20220704 170600+00:00 $HCHDT,110.7,T*2E
20220704 170600+00:00 $GPRMC,170554,A,4835.1996,N,12454.5496,W,8.49,112,040722,12,E,A,V*73
20220704 170600+00:00 $WIMWV,8.3,R,7.7,N,A*28
20220704 170602+00:00 $IIMDA,29.9,I,1.013,B,10.5,C,,C,96.1,,,C,,T,,M,,N,,M*21
20220704 170602+00:00 $HCHDT,111.5,T*2D
20220704 170602+00:00 $GPRMC,170558,A,4835.1996,N,12454.5496,W,8.49,112,040722,12,E,A,V*7F
20220704 170602+00:00 $WIMWV,8.4,R,7.89,N,A*19
20220704 170604+00:00 $IIMDA,29.9,I,1.013,B,10.5,C,,C,96.1,,,C,,T,,M,,N,,M*21
20220704 170604+00:00 $HCHDT,112,T*35
20220704 170604+00:00 $GPRMC,170558,A,4835.1900,N,12454.5400,W,8.4,112,040722,12,E,A,V*46
20220704 170604+00:00 $WIMWV,13.89,R,5.99,N,A*15
20220704 170606+00:00 $IIMDA,29.9,I,1.013,B,10.5,C,,C,96.1,,,C,,T,,M,,N,,M*21
20220704 170606+00:00 $HCHDT,112,T*35
20220704 170606+00:00 $GPRMC,170600,A,4835.1900,N,12454.5298,W,8.49,113,040722,12,E,A,V*77
20220704 170606+00:00 $WIMWV,27.1,R,3.29,N,A*2F
20220704 170608+00:00 $IIMDA,29.9,I,1.013,B,10.5,C,,C,96.1,,,C,,T,,M,,N,,M*21
20220704 170608+00:00 $HCHDT,112,T*35
20220704 170608+00:00 $GPRMC,170604,A,4835.1900,N,12454.5298,W,8.49,113,040722,12,E,A,V*73
20220704 170608+00:00 $WIMWV,356.89,R,7.89,N,A*24
20220704 170610+00:00 $IIMDA,29.9,I,1.013,B,10.5,C,,C,96.1,,,C,,T,,M,,N,,M*21
20220704 170610+00:00 $HCHDT,111.9,T*21
20220704 170610+00:00 $GPRMC,170606,A,4835.1900,N,12454.5196,W,8.49,113,040722,12,E,A,V*7C
20220704 170610+00:00 $WIMWV,4.9,R,7.79,N,A*17
20220704 170612+00:00 $IIMDA,29.9,I,1.013,B,10.5,C,,C,96.1,,,C,,T,,M,,N,,M*21
20220704 170612+00:00 $HCHDT,112.2,T*29
20220704 170612+00:00 $GPRMC,170608,A,4835.1900,N,12454.5100,W,8.59,113,040722,12,E,A,V*7C
20220704 170612+00:00 $WIMWV,345.99,R,7.7,N,A*11
20220704 170614+00:00 $IIMDA,29.9,I,1.013,B,10.5,C,,C,96.1,,,C,,T,,M,,N,,M*21
20220704 170614+00:00 $HCHDT,112.2,T*29
20220704 170614+00:00 $GPRMC,170610,A,4835.1900,N,12454.5100,W,8.59,113,040722,12,E,A,V*75
20220704 170614+00:00 $WIMWV,2.4,R,7,N,A*3C
20220704 170616+00:00 $IIMDA,29.9,I,1.013,B,10.5,C,,C,96.1,,,C,,T,,M,,N,,M*21
20220704 170616+00:00 $HCHDT,112.4,T*2F
20220704 170616+00:00 $GPRMC,170610,A,4835.1798,N,12454.4998,W,8.49,113,040722,12,E,A,V*73
20220704 170616+00:00 $WIMWV,17.3,R,7.99,N,A*21
20220704 170618+00:00 $IIMDA,29.9,I,1.013,B,10.5,C,,C,96.1,,,C,,T,,M,,N,,M*21
20220704 170618+00:00 $HCHDT,112.4,T*2F
20220704 170618+00:00 $GPRMC,170612,A,4835.1798,N,12454.4896,W,8.49,114,040722,12,E,A,V*79
20220704 170618+00:00 $WIMWV,355.89,R,9.68,N,A*26
20220704 170620+00:00 $IIMDA,29.9,I,1.013,B,10.5,C,,C,96,,,C,,T,,M,,N,,M*3E
20220704 170620+00:00 $HCHDT,111.7,T*2F
20220704 170620+00:00 $GPRMC,170614,A,4835.1798,N,12454.4896,W,8.49,114,040722,12,E,A,V*7F
20220704 170620+00:00 $WIMWV,356.49,R,6.4,N,A*1C
20220704 170622+00:00 $IIMDA,29.9,I,1.013,B,10.5,C,,C,96.1,,,C,,T,,M,,N,,M*21
20220704 170622+00:00 $HCHDT,111.5,T*2D
20220704 170622+00:00 $GPRMC,170618,A,4835.1798,N,12454.4800,W,8.49,113,040722,12,E,A,V*7B
20220704 170622+00:00 $WIMWV,344.39,R,5.09,N,A*26
20220704 170624+00:00 $IIMDA,29.9,I,1.013,B,10.5,C,,C,96.1,,,C,,T,,M,,N,,M*21
20220704 170624+00:00 $HCHDT,111.5,T*2D
20220704 170624+00:00 $GPRMC,170620,A,4835.1798,N,12454.4698,W,8.49,113,040722,12,E,A,V*7F
20220704 170624+00:00 $WIMWV,29.09,R,8.28,N,A*13
20220704 170626+00:00 $IIMDA,29.9,I,1.013,B,10.5,C,,C,96,,,C,,T,,M,,N,,M*3E
20220704 170626+00:00 $HCHDT,111.3,T*2B
20220704 170626+00:00 $GPRMC,170622,A,4835.1696,N,12454.4698,W,8.49,113,040722,12,E,A,V*72
20220704 170626+00:00 $WIMWV,7.49,R,9.49,N,A*2D
20220704 170628+00:00 $IIMDA,29.9,I,1.013,B,10.5,C,,C,96,,,C,,T,,M,,N,,M*3E
20220704 170628+00:00 $HCHDT,111.4,T*2C
20220704 170628+00:00 $GPRMC,170624,A,4835.1696,N,12454.4596,W,8.59,113,040722,12,E,A,V*78
20220704 170628+00:00 $WIMWV,12.99,R,8.09,N,A*11
20220704 170630+00:00 $IIMDA,29.9,I,1.013,B,10.5,C,,C,96.1,,,C,,T,,M,,N,,M*21
20220704 170630+00:00 $HCHDT,111.6,T*2E
20220704 170630+00:00 $GPRMC,170626,A,4835.1696,N,12454.4500,W,8.49,113,040722,12,E,A,V*74
20220704 170630+00:00 $WIMWV,12.99,R,9.19,N,A*11
20220704 170632+00:00 $IIMDA,29.9,I,1.013,B,10.5,C,,C,96,,,C,,T,,M,,N,,M*3E
20220704 170632+00:00 $HCHDT,111.2,T*2A
20220704 170632+00:00 $GPRMC,170626,A,4835.1696,N,12454.4500,W,8.49,113,040722,12,E,A,V*74
20220704 170632+00:00 $WIMWV,1.8,R,6.3,N,A*2F
20220704 170634+00:00 $IIMDA,29.9,I,1.013,B,10.5,C,,C,96.1,,,C,,T,,M,,N,,M*21
20220704 170634+00:00 $HCHDT,111.1,T*29
20220704 170634+00:00 $GPRMC,170628,A,4835.1696,N,12454.4398,W,8.49,113,040722,12,E,A,V*7D
20220704 170634+00:00 $WIMWV,18.8,R,8.18,N,A*23
20220704 170636+00:00 $IIMDA,29.9,I,1.013,B,10.5,C,,C,96,,,C,,T,,M,,N,,M*3E
20220704 170636+00:00 $HCHDT,111,T*36
20220704 170636+00:00 $GPRMC,170632,A,4835.1696,N,12454.4296,W,8.49,113,040722,12,E,A,V*79
20220704 170636+00:00 $WIMWV,11.8,R,6.78,N,A*22
20220704 170638+00:00 $IIMDA,29.9,I,1.013,B,10.5,C,,C,96,,,C,,T,,M,,N,,M*3E
20220704 170638+00:00 $HCHDT,111.2,T*2A
20220704 170638+00:00 $GPRMC,170632,A,4835.1600,N,12454.4296,W,8.49,113,040722,12,E,A,V*76
20220704 170638+00:00 $WIMWV,21.9,R,7.19,N,A*26
20220704 170640+00:00 $IIMDA,29.9,I,1.013,B,10.5,C,,C,96.1,,,C,,T,,M,,N,,M*21
20220704 170640+00:00 $HCHDT,111.1,T*29
20220704 170640+00:00 $GPRMC,170636,A,4835.1600,N,12454.4200,W,8.49,113,040722,12,E,A,V*7D
20220704 170640+00:00 $WIMWV,28.2,R,9.1,N,A*13
20220704 170642+00:00 $IIMDA,29.9,I,1.013,B,10.5,C,,C,96.1,,,C,,T,,M,,N,,M*21
20220704 170642+00:00 $HCHDT,111,T*36
20220704 170642+00:00 $GPRMC,170638,A,4835.1600,N,12454.4200,W,8.49,113,040722,12,E,A,V*73
20220704 170642+00:00 $WIMWV,24.6,R,7.89,N,A*25
20220704 170644+00:00 $IIMDA,29.9,I,1.013,B,10.5,C,,C,96.1,,,C,,T,,M,,N,,M*21
20220704 170644+00:00 $HCHDT,110.7,T*2E
20220704 170644+00:00 $GPRMC,170640,A,4835.1600,N,12454.4098,W,8.49,113,040722,12,E,A,V*7F
20220704 170644+00:00 $WIMWV,30.4,R,5.79,N,A*2F
20220704 170646+00:00 $IIMDA,29.9,I,1.013,B,10.5,C,,C,96.1,,,C,,T,,M,,N,,M*21
20220704 170646+00:00 $HCHDT,110.3,T*2A
20220704 170646+00:00 $GPRMC,170642,A,4835.1600,N,12454.3996,W,8.49,113,040722,12,E,A,V*7D
20220704 170646+00:00 $WIMWV,5.4,R,8.4,N,A*2E
20220704 170648+00:00 $IIMDA,29.9,I,1.013,B,10.5,C,,C,96.1,,,C,,T,,M,,N,,M*21
20220704 170648+00:00 $HCHDT,109.9,T*28
20220704 170648+00:00 $GPRMC,170642,A,4835.1498,N,12454.3996,W,8.49,112,040722,12,E,A,V*7F
20220704 170648+00:00 $WIMWV,3.4,R,6.49,N,A*1F
20220704 170650+00:00 $IIMDA,29.9,I,1.013,B,10.5,C,,C,96.1,,,C,,T,,M,,N,,M*21
20220704 170650+00:00 $HCHDT,109.8,T*29
20220704 170650+00:00 $GPRMC,170644,A,4835.1498,N,12454.3900,W,8.49,112,040722,12,E,A,V*76
20220704 170650+00:00 $WIMWV,0.19,R,8.4,N,A*17
20220704 170652+00:00 $IIMDA,29.9,I,1.013,B,10.5,C,,C,96.1,,,C,,T,,M,,N,,M*21
20220704 170652+00:00 $HCHDT,110.5,T*2C
20220704 170652+00:00 $GPRMC,170646,A,4835.1498,N,12454.3798,W,8.59,112,040722,12,E,A,V*7A
20220704 170652+00:00 $WIMWV,28.4,R,8.28,N,A*2F
20220704 170654+00:00 $IIMDA,29.9,I,1.013,B,10.5,C,,C,96.1,,,C,,T,,M,,N,,M*21
20220704 170654+00:00 $HCHDT,111,T*36
20220704 170654+00:00 $GPRMC,170650,A,4835.1498,N,12454.3798,W,8.59,112,040722,12,E,A,V*7D
20220704 170654+00:00 $WIMWV,21.8,R,7.19,N,A*27
20220704 170656+00:00 $IIMDA,29.9,I,1.013,B,10.5,C,,C,96.1,,,C,,T,,M,,N,,M*21
20220704 170656+00:00 $HCHDT,111.9,T*21
20220704 170656+00:00 $GPRMC,170652,A,4835.1498,N,12454.3696,W,8.59,112,040722,12,E,A,V*70
20220704 170656+00:00 $WIMWV,8.4,R,8.18,N,A*1E
20220704 170658+00:00 $IIMDA,29.9,I,1.013,B,10.5,C,,C,96.1,,,C,,T,,M,,N,,M*21
20220704 170658+00:00 $HCHDT,112,T*35
20220704 170658+00:00 $GPRMC,170654,A,4835.1498,N,12454.3600,W,8.49,112,040722,12,E,A,V*78
20220704 170658+00:00 $WIMWV,26.5,R,6.08,N,A*2C
20220704 170700+00:00 $IIMDA,29.9,I,1.013,B,10.5,C,,C,96,,,C,,T,,M,,N,,M*3E
20220704 170700+00:00 $HCHDT,111.2,T*2A
20220704 170700+00:00 $GPRMC,170656,A,4835.1396,N,12454.3600,W,8.49,113,040722,12,E,A,V*72
20220704 170700+00:00 $WIMWV,17.3,R,4.78,N,A*2D
20220704 170702+00:00 $IIMDA,29.9,I,1.013,B,10.5,C,,C,96.1,,,C,,T,,M,,N,,M*21
20220704 170702+00:00 $HCHDT,111.6,T*2E
20220704 170702+00:00 $GPRMC,170658,A,4835.1396,N,12454.3498,W,8.49,113,040722,12,E,A,V*7F
20220704 170702+00:00 $WIMWV,9.5,R,7.19,N,A*10
20220704 170704+00:00 $IIMDA,29.9,I,1.013,B,10.5,C,,C,96.1,,,C,,T,,M,,N,,M*21
20220704 170704+00:00 $HCHDT,112,T*35
20220704 170704+00:00 $GPRMC,170658,A,4835.1396,N,12454.3396,W,8.49,113,040722,12,E,A,V*76
20220704 170704+00:00 $WIMWV,359.29,R,5.7,N,A*15
20220704 170706+00:00 $IIMDA,29.9,I,1.013,B,10.5,C,,C,96.1,,,C,,T,,M,,N,,M*21
20220704 170706+00:00 $HCHDT,111.9,T*21
20220704 170706+00:00 $GPRMC,170702,A,4835.1396,N,12454.3396,W,8.59,113,040722,12,E,A,V*79
20220704 170706+00:00 $WIMWV,5.2,R,7.58,N,A*1E
20220704 170708+00:00 $IIMDA,29.9,I,1.013,B,10.5,C,,C,96.1,,,C,,T,,M,,N,,M*21
20220704 170708+00:00 $HCHDT,112.6,T*2D
20220704 170708+00:00 $GPRMC,170702,A,4835.1396,N,12454.3300,W,8.59,113,040722,12,E,A,V*76
20220704 170708+00:00 $WIMWV,27.4,R,7.99,N,A*25
20220704 170710+00:00 $IIMDA,29.9,I,1.013,B,10.5,C,,C,96.1,,,C,,T,,M,,N,,M*21
20220704 170710+00:00 $HCHDT,112.2,T*29
20220704 170710+00:00 $GPRMC,170704,A,4835.1300,N,12454.3198,W,8.59,113,040722,12,E,A,V*7C
20220704 170710+00:00 $WIMWV,11.1,R,6.08,N,A*2C
20220704 170712+00:00 $IIMDA,29.9,I,1.013,B,10.5,C,,C,96,,,C,,T,,M,,N,,M*3E
20220704 170712+00:00 $HCHDT,111.5,T*2D
20220704 170712+00:00 $GPRMC,170708,A,4835.1300,N,12454.3198,W,8.59,113,040722,12,E,A,V*70
20220704 170712+00:00 $WIMWV,358.29,R,4.3,N,A*11
20220704 170714+00:00 $IIMDA,29.9,I,1.013,B,10.5,C,,C,96.1,,,C,,T,,M,,N,,M*21
20220704 170714+00:00 $HCHDT,111.6,T*2E
20220704 170714+00:00 $GPRMC,170710,A,4835.1300,N,12454.3096,W,8.59,113,040722,12,E,A,V*76
20220704 170714+00:00 $WIMWV,9.3,R,7.19,N,A*16
20220704 170716+00:00 $IIMDA,29.9,I,1.013,B,10.5,C,,C,96.1,,,C,,T,,M,,N,,M*21
20220704 170716+00:00 $HCHDT,111.6,T*2E
20220704 170716+00:00 $GPRMC,170712,A,4835.1300,N,12454.3000,W,8.59,113,040722,12,E,A,V*7B
20220704 170716+00:00 $WIMWV,8.59,R,6.78,N,A*2E
20220704 170718+00:00 $IIMDA,29.9,I,1.013,B,10.5,C,,C,96.1,,,C,,T,,M,,N,,M*21
20220704 170718+00:00 $HCHDT,111.6,T*2E
20220704 170718+00:00 $GPRMC,170714,A,4835.1300,N,12454.3000,W,8.59,113,040722,12,E,A,V*7D
20220704 170718+00:00 $WIMWV,5,R,6.69,N,A*01
20220704 170720+00:00 $IIMDA,29.9,I,1.013,B,10.5,C,,C,96.1,,,C,,T,,M,,N,,M*21
20220704 170720+00:00 $HCHDT,112.1,T*2A
20220704 170720+00:00 $GPRMC,170716,A,4835.1198,N,12454.2898,W,8.59,113,040722,12,E,A,V*74
20220704 170720+00:00 $WIMWV,4.39,R,9.29,N,A*2F
20220704 170722+00:00 $IIMDA,29.9,I,1.013,B,10.5,C,,C,96.1,,,C,,T,,M,,N,,M*21
20220704 170722+00:00 $HCHDT,112.3,T*28
20220704 170722+00:00 $GPRMC,170716,A,4835.1198,N,12454.2796,W,8.59,113,040722,12,E,A,V*75
20220704 170722+00:00 $WIMWV,22.69,R,6.69,N,A*15
20220704 170724+00:00 $IIMDA,29.9,I,1.013,B,10.5,C,,C,96.1,,,C,,T,,M,,N,,M*21
20220704 170724+00:00 $HCHDT,111.7,T*2F
20220704 170724+00:00 $GPRMC,170718,A,4835.1198,N,12454.2796,W,8.59,114,040722,12,E,A,V*7C
20220704 170724+00:00 $WIMWV,355.79,R,4.59,N,A*26
20220704 170726+00:00 $IIMDA,29.9,I,1.013,B,10.5,C,,C,96.1,,,C,,T,,M,,N,,M*21
20220704 170726+00:00 $HCHDT,111.1,T*29
20220704 170726+00:00 $GPRMC,170722,A,4835.1198,N,12454.2700,W,8.59,113,040722,12,E,A,V*7D
20220704 170726+00:00 $WIMWV,338.19,R,4.49,N,A*2A
20220704 170728+00:00 $IIMDA,29.9,I,1.013,B,10.5,C,,C,96.1,,,C,,T,,M,,N,,M*21
20220704 170728+00:00 $HCHDT,110.9,T*20
20220704 170728+00:00 $GPRMC,170724,A,4835.1198,N,12454.2598,W,8.59,113,040722,12,E,A,V*78
20220704 170728+00:00 $WIMWV,8.2,R,6.69,N,A*10
20220704 170730+00:00 $IIMDA,29.9,I,1.013,B,10.5,C,,C,96.1,,,C,,T,,M,,N,,M*21
20220704 170730+00:00 $HCHDT,111.1,T*29
20220704 170730+00:00 $GPRMC,170726,A,4835.1096,N,12454.2598,W,8.59,113,040722,12,E,A,V*75
20220704 170730+00:00 $WIMWV,13.5,R,9.19,N,A*25
20220704 170732+00:00 $IIMDA,29.9,I,1.013,B,10.5,C,,C,96.1,,,C,,T,,M,,N,,M*21
20220704 170732+00:00 $HCHDT,111,T*36
20220704 170732+00:00 $GPRMC,170728,A,4835.1096,N,12454.2496,W,8.59,113,040722,12,E,A,V*74
20220704 170732+00:00 $WIMWV,16.9,R,8.09,N,A*2C
20220704 170734+00:00 $IIMDA,29.9,I,1.013,B,10.5,C,,C,96.1,,,C,,T,,M,,N,,M*21
20220704 170734+00:00 $HCHDT,110.9,T*20
20220704 170734+00:00 $GPRMC,170730,A,4835.1096,N,12454.2400,W,8.59,113,040722,12,E,A,V*72
20220704 170734+00:00 $WIMWV,20.9,R,5.89,N,A*2C
20220704 170736+00:00 $IIMDA,29.9,I,1.013,B,10.5,C,,C,96.1,,,C,,T,,M,,N,,M*21
20220704 170736+00:00 $HCHDT,111.5,T*2D
20220704 170736+00:00 $GPRMC,170732,A,4835.1096,N,12454.2400,W,8.59,113,040722,12,E,A,V*70
20220704 170736+00:00 $WIMWV,16.6,R,6.59,N,A*28
20220704 170738+00:00 $IIMDA,29.9,I,1.013,B,10.5,C,,C,96.1,,,C,,T,,M,,N,,M*21
20220704 170738+00:00 $HCHDT,111.2,T*2A
20220704 170738+00:00 $GPRMC,170732,A,4835.1096,N,12454.2298,W,8.59,113,040722,12,E,A,V*77
20220704 170738+00:00 $WIMWV,10.6,R,3.6,N,A*11
20220704 170740+00:00 $IIMDA,29.9,I,1.013,B,10.5,C,,C,96.1,,,C,,T,,M,,N,,M*21
20220704 170740+00:00 $HCHDT,111.5,T*2D
20220704 170740+00:00 $GPRMC,170736,A,4835.1096,N,12454.2196,W,8.59,113,040722,12,E,A,V*7E
20220704 170740+00:00 $WIMWV,25.2,R,7.29,N,A*2A
20220704 170742+00:00 $IIMDA,29.9,I,1.013,B,10.5,C,,C,96.2,,,C,,T,,M,,N,,M*22
20220704 170742+00:00 $HCHDT,111.5,T*2D
20220704 170742+00:00 $GPRMC,170738,A,4835.1000,N,12454.2196,W,8.59,113,040722,12,E,A,V*7F
20220704 170742+00:00 $WIMWV,24,R,7.48,N,A*30
20220704 170744+00:00 $IIMDA,29.9,I,1.013,B,10.5,C,,C,96.2,,,C,,T,,M,,N,,M*22
20220704 170744+00:00 $HCHDT,111.5,T*2D
20220704 170744+00:00 $GPRMC,170740,A,4835.1000,N,12454.2100,W,8.59,113,040722,12,E,A,V*7F
20220704 170744+00:00 $WIMWV,8.7,R,8.28,N,A*1E
20220704 170746+00:00 $IIMDA,29.9,I,1.013,B,10.5,C,,C,96.1,,,C,,T,,M,,N,,M*21
20220704 170746+00:00 $HCHDT,111.7,T*2F
20220704 170746+00:00 $GPRMC,170742,A,4835.1000,N,12454.1998,W,8.59,113,040722,12,E,A,V*77
