20220704 210000+00:00 $IIMDA,29.9,I,1.014,B,11.4,C,,C,90.5,,,C,,T,,M,,N,,M*24
20220704 210000+00:00 $HCHDT,111.5,T*2D
20220704 210000+00:00 $GPRMC,205956,A,4823.0796,N,12411.2296,W,8.11,112,040722,11.9,E,A,V*6D
20220704 210000+00:00 $WIMWV,20,R,4.39,N,A*31
20220704 210002+00:00 $IIMDA,29.9,I,1.014,B,11.4,C,,C,90.5,,,C,,T,,M,,N,,M*24
20220704 210002+00:00 $HCHDT,111.7,T*2F
20220704 210002+00:00 $GPRMC,205958,A,4823.0796,N,12411.2200,W,8.11,112,040722,11.9,E,A,V*6C
20220704 210002+00:00 $WIMWV,42.5,R,6.3,N,A*15
20220704 210004+00:00 $IIMDA,29.9,I,1.014,B,11.4,C,,C,90.5,,,C,,T,,M,,N,,M*24
20220704 210004+00:00 $HCHDT,111.6,T*2E
20220704 210004+00:00 $GPRMC,210000,A,4823.0796,N,12411.2200,W,8.11,112,040722,11.9,E,A,V*6C
20220704 210004+00:00 $WIMWV,30.8,R,5.29,N,A*26
20220704 210006+00:00 $IIMDA,29.9,I,1.014,B,11.4,C,,C,90.5,,,C,,T,,M,,N,,M*24
20220704 210006+00:00 $HCHDT,111.6,T*2E
20220704 210006+00:00 $GPRMC,210002,A,4823.0796,N,12411.2098,W,8.11,112,040722,11.9,E,A,V*6D
20220704 210006+00:00 $WIMWV,41.6,R,5.99,N,A*25
20220704 210008+00:00 $IIMDA,29.9,I,1.014,B,11.4,C,,C,90.5,,,C,,T,,M,,N,,M*24
20220704 210008+00:00 $HCHDT,111.7,T*2F
20220704 210008+00:00 $GPRMC,210004,A,4823.0796,N,12411.2098,W,8.11,112,040722,11.9,E,A,V*6B
20220704 210008+00:00 $WIMWV,33.09,R,5.99,N,A*1F
20220704 210010+00:00 $IIMDA,29.9,I,1.014,B,11.4,C,,C,90.5,,,C,,T,,M,,N,,M*24
20220704 210010+00:00 $HCHDT,111.8,T*20
20220704 210010+00:00 $GPRMC,210006,A,4823.0700,N,12411.1996,W,8.11,112,040722,11.9,E,A,V*62
20220704 210010+00:00 $WIMWV,22.8,R,4.2,N,A*1D
20220704 210012+00:00 $IIMDA,29.9,I,1.014,B,11.4,C,,C,90.5,,,C,,T,,M,,N,,M*24
20220704 210012+00:00 $HCHDT,111.7,T*2F
20220704 210012+00:00 $GPRMC,210008,A,4823.0700,N,12411.1900,W,8.11,112,040722,11.9,E,A,V*63
20220704 210012+00:00 $WIMWV,32.1,R,6.4,N,A*11
20220704 210014+00:00 $IIMDA,29.9,I,1.014,B,11.4,C,,C,90.5,,,C,,T,,M,,N,,M*24
20220704 210014+00:00 $HCHDT,111.7,T*2F
20220704 210014+00:00 $GPRMC,210010,A,4823.0700,N,12411.1900,W,8.11,112,040722,11.9,E,A,V*6A
20220704 210014+00:00 $WIMWV,23.79,R,4.08,N,A*10
20220704 210016+00:00 $IIMDA,29.9,I,1.014,B,11.4,C,,C,90.5,,,C,,T,,M,,N,,M*24
20220704 210016+00:00 $HCHDT,111.8,T*20
20220704 210016+00:00 $GPRMC,210012,A,4823.0700,N,12411.1798,W,8.11,112,040722,11.9,E,A,V*67
20220704 210016+00:00 $WIMWV,47.4,R,6.78,N,A*2D
20220704 210018+00:00 $IIMDA,29.9,I,1.014,B,11.4,C,,C,90.5,,,C,,T,,M,,N,,M*24
20220704 210018+00:00 $HCHDT,111.7,T*2F
20220704 210018+00:00 $GPRMC,210014,A,4823.0700,N,12411.1696,W,8.11,112,040722,11.9,E,A,V*6E
20220704 210018+00:00 $WIMWV,31.99,R,5.6,N,A*22
20220704 210020+00:00 $IIMDA,29.9,I,1.014,B,11.4,C,,C,90.5,,,C,,T,,M,,N,,M*24
20220704 210020+00:00 $HCHDT,111.6,T*2E
20220704 210020+00:00 $GPRMC,210016,A,4823.0700,N,12411.1696,W,8.11,112,040722,11.9,E,A,V*6C
20220704 210020+00:00 $WIMWV,33.29,R,6.4,N,A*2A
20220704 210022+00:00 $IIMDA,29.9,I,1.014,B,11.4,C,,C,90.5,,,C,,T,,M,,N,,M*24
20220704 210022+00:00 $HCHDT,111.2,T*2A
20220704 210022+00:00 $GPRMC,210018,A,4823.0598,N,12411.1600,W,8.11,112,040722,11.9,E,A,V*6E
20220704 210022+00:00 $WIMWV,37.1,R,6.4,N,A*14
20220704 210024+00:00 $IIMDA,29.9,I,1.014,B,11.4,C,,C,90.5,,,C,,T,,M,,N,,M*24
20220704 210024+00:00 $HCHDT,111,T*36
20220704 210024+00:00 $GPRMC,210020,A,4823.0598,N,12411.1600,W,8.11,111,040722,11.9,E,A,V*66
20220704 210024+00:00 $WIMWV,14.99,R,4.2,N,A*20
20220704 210026+00:00 $IIMDA,29.9,I,1.014,B,11.4,C,,C,90.5,,,C,,T,,M,,N,,M*24
20220704 210026+00:00 $HCHDT,111.1,T*29
20220704 210026+00:00 $GPRMC,210022,A,4823.0598,N,12411.1498,W,8.11,111,040722,11.9,E,A,V*67
20220704 210026+00:00 $WIMWV,29.3,R,4.9,N,A*16
20220704 210028+00:00 $IIMDA,29.9,I,1.014,B,11.4,C,,C,90.5,,,C,,T,,M,,N,,M*24
20220704 210028+00:00 $HCHDT,111.3,T*2B
20220704 210028+00:00 $GPRMC,210024,A,4823.0598,N,12411.1396,W,8.11,111,040722,11.9,E,A,V*68
20220704 210028+00:00 $WIMWV,31,R,5.99,N,A*3A
20220704 210030+00:00 $IIMDA,29.9,I,1.014,B,11.4,C,,C,90.5,,,C,,T,,M,,N,,M*24
20220704 210030+00:00 $HCHDT,111.4,T*2C
20220704 210030+00:00 $GPRMC,210026,A,4823.0598,N,12411.1396,W,8.11,111,040722,11.9,E,A,V*6A
20220704 210030+00:00 $WIMWV,40.59,R,6.4,N,A*29
20220704 210032+00:00 $IIMDA,29.9,I,1.014,B,11.4,C,,C,90.5,,,C,,T,,M,,N,,M*24
20220704 210032+00:00 $HCHDT,111.2,T*2A
20220704 210032+00:00 $GPRMC,210028,A,4823.0598,N,12411.1300,W,8.11,111,040722,11.9,E,A,V*6B
20220704 210032+00:00 $WIMWV,32.3,R,6.3,N,A*14
20220704 210034+00:00 $IIMDA,29.9,I,1.014,B,11.4,C,,C,90.5,,,C,,T,,M,,N,,M*24
20220704 210034+00:00 $HCHDT,111,T*36
20220704 210034+00:00 $GPRMC,210030,A,4823.0496,N,12411.1198,W,8.11,111,040722,11.9,E,A,V*6E
20220704 210034+00:00 $WIMWV,34.6,R,7.19,N,A*2D
20220704 210036+00:00 $IIMDA,29.9,I,1.014,B,11.4,C,,C,90.5,,,C,,T,,M,,N,,M*24
20220704 210036+00:00 $HCHDT,111.2,T*2A
20220704 210036+00:00 $GPRMC,210032,A,4823.0496,N,12411.1198,W,8.11,111,040722,11.9,E,A,V*6C
20220704 210036+00:00 $WIMWV,44.4,R,7,N,A*0E
20220704 210038+00:00 $IIMDA,29.9,I,1.014,B,11.4,C,,C,90.5,,,C,,T,,M,,N,,M*24
20220704 210038+00:00 $HCHDT,111.5,T*2D
20220704 210038+00:00 $GPRMC,210034,A,4823.0496,N,12411.1096,W,8.11,111,040722,11.9,E,A,V*65
20220704 210038+00:00 $WIMWV,29.99,R,5.89,N,A*1C
20220704 210040+00:00 $IIMDA,29.9,I,1.014,B,11.4,C,,C,90.5,,,C,,T,,M,,N,,M*24
20220704 210040+00:00 $HCHDT,111.5,T*2D
20220704 210040+00:00 $GPRMC,210036,A,4823.0496,N,12411.1096,W,8.11,111,040722,11.9,E,A,V*67
20220704 210040+00:00 $WIMWV,31,R,5.38,N,A*31
20220704 210042+00:00 $IIMDA,29.9,I,1.014,B,11.4,C,,C,90.5,,,C,,T,,M,,N,,M*24
20220704 210042+00:00 $HCHDT,111.2,T*2A
20220704 210042+00:00 $GPRMC,210038,A,4823.0496,N,12411.1000,W,8.11,111,040722,11.9,E,A,V*66
20220704 210042+00:00 $WIMWV,48.5,R,7.29,N,A*26
20220704 210044+00:00 $IIMDA,29.9,I,1.014,B,11.4,C,,C,90.5,,,C,,T,,M,,N,,M*24
20220704 210044+00:00 $HCHDT,110.9,T*20
20220704 210044+00:00 $GPRMC,210040,A,4823.0496,N,12411.0898,W,8.11,111,040722,11.9,E,A,V*61
20220704 210044+00:00 $WIMWV,48.2,R,7.1,N,A*1B
20220704 210046+00:00 $IIMDA,29.9,I,1.014,B,11.3,C,,C,90.4,,,C,,T,,M,,N,,M*22
20220704 210046+00:00 $HCHDT,111,T*36
20220704 210046+00:00 $GPRMC,210042,A,4823.0400,N,12411.0898,W,8.11,111,040722,11.9,E,A,V*6C
20220704 210046+00:00 $WIMWV,36.9,R,6.88,N,A*29
20220704 210048+00:00 $IIMDA,29.9,I,1.014,B,11.3,C,,C,90.4,,,C,,T,,M,,N,,M*22
20220704 210048+00:00 $HCHDT,111.5,T*2D
20220704 210048+00:00 $GPRMC,210044,A,4823.0400,N,12411.0796,W,8.11,111,040722,11.9,E,A,V*6B
20220704 210048+00:00 $WIMWV,51.5,R,8.18,N,A*23
20220704 210050+00:00 $IIMDA,29.9,I,1.014,B,11.3,C,,C,90.4,,,C,,T,,M,,N,,M*22
20220704 210050+00:00 $HCHDT,111.7,T*2F
20220704 210050+00:00 $GPRMC,210046,A,4823.0400,N,12411.0700,W,8.11,111,040722,11.9,E,A,V*66
20220704 210050+00:00 $WIMWV,45.4,R,7.48,N,A*2D
20220704 210052+00:00 $IIMDA,29.9,I,1.014,B,11.3,C,,C,90.4,,,C,,T,,M,,N,,M*22
20220704 210052+00:00 $HCHDT,111.6,T*2E
20220704 210052+00:00 $GPRMC,210048,A,4823.0400,N,12411.0700,W,8.11,111,040722,11.9,E,A,V*68
20220704 210052+00:00 $WIMWV,26.69,R,5.29,N,A*16
20220704 210054+00:00 $IIMDA,29.9,I,1.014,B,11.3,C,,C,90.4,,,C,,T,,M,,N,,M*22
20220704 210054+00:00 $HCHDT,111.4,T*2C
20220704 210054+00:00 $GPRMC,210050,A,4823.0400,N,12411.0598,W,8.01,111,040722,11.9,E,A,V*63
20220704 210054+00:00 $WIMWV,32.1,R,6.18,N,A*2C
20220704 210056+00:00 $IIMDA,29.9,I,1.014,B,11.3,C,,C,90.4,,,C,,T,,M,,N,,M*22
20220704 210056+00:00 $HCHDT,111.5,T*2D
20220704 210056+00:00 $GPRMC,210052,A,4823.0400,N,12411.0496,W,8.11,111,040722,11.9,E,A,V*6F
20220704 210056+00:00 $WIMWV,43.8,R,6.88,N,A*2A
20220704 210058+00:00 $IIMDA,29.9,I,1.014,B,11.3,C,,C,90.5,,,C,,T,,M,,N,,M*23
20220704 210058+00:00 $HCHDT,111.8,T*20
20220704 210058+00:00 $GPRMC,210054,A,4823.0298,N,12411.0496,W,8.11,111,040722,11.9,E,A,V*6E
20220704 210058+00:00 $WIMWV,53.19,R,9.89,N,A*15
20220704 210100+00:00 $IIMDA,29.9,I,1.014,B,11.3,C,,C,90.4,,,C,,T,,M,,N,,M*22
20220704 210100+00:00 $HCHDT,112.1,T*2A
20220704 210100+00:00 $GPRMC,210056,A,4823.0298,N,12411.0400,W,8.11,111,040722,11.9,E,A,V*63
20220704 210100+00:00 $WIMWV,42.79,R,7.39,N,A*16
20220704 210102+00:00 $IIMDA,29.9,I,1.014,B,11.3,C,,C,90.4,,,C,,T,,M,,N,,M*22
20220704 210102+00:00 $HCHDT,111.9,T*21
20220704 210102+00:00 $GPRMC,210058,A,4823.0298,N,12411.0400,W,8.11,111,040722,11.9,E,A,V*6D
20220704 210102+00:00 $WIMWV,54.2,R,9.19,N,A*21
20220704 210104+00:00 $IIMDA,29.9,I,1.014,B,11.3,C,,C,90.4,,,C,,T,,M,,N,,M*22
20220704 210104+00:00 $HCHDT,111.5,T*2D
20220704 210104+00:00 $GPRMC,210100,A,4823.0298,N,12411.0298,W,8.11,111,040722,11.9,E,A,V*66
20220704 210104+00:00 $WIMWV,33,R,6.69,N,A*34
20220704 210106+00:00 $IIMDA,29.9,I,1.014,B,11.3,C,,C,90.5,,,C,,T,,M,,N,,M*23
20220704 210106+00:00 $HCHDT,111.4,T*2C
20220704 210106+00:00 $GPRMC,210102,A,4823.0298,N,12411.0196,W,8.01,111,040722,11.9,E,A,V*68
20220704 210106+00:00 $WIMWV,32.19,R,6.3,N,A*2F
20220704 210108+00:00 $IIMDA,29.9,I,1.014,B,11.3,C,,C,90.4,,,C,,T,,M,,N,,M*22
20220704 210108+00:00 $HCHDT,111.6,T*2E
20220704 210108+00:00 $GPRMC,210104,A,4823.0298,N,12411.0196,W,8.01,111,040722,11.9,E,A,V*6E
20220704 210108+00:00 $WIMWV,52,R,8.88,N,A*32
20220704 210110+00:00 $IIMDA,29.9,I,1.014,B,11.3,C,,C,90.4,,,C,,T,,M,,N,,M*22
20220704 210110+00:00 $HCHDT,111.9,T*21
20220704 210110+00:00 $GPRMC,210106,A,4823.0298,N,12411.0100,W,8.11,111,040722,11.9,E,A,V*62
20220704 210110+00:00 $WIMWV,53.5,R,9.49,N,A*24
20220704 210112+00:00 $IIMDA,29.9,I,1.014,B,11.3,C,,C,90.4,,,C,,T,,M,,N,,M*22
20220704 210112+00:00 $HCHDT,112,T*35
20220704 210112+00:00 $GPRMC,210108,A,4823.0196,N,12410.9998,W,8.11,111,040722,11.9,E,A,V*60
20220704 210112+00:00 $WIMWV,44.9,R,7.29,N,A*26
20220704 210114+00:00 $IIMDA,29.9,I,1.014,B,11.3,C,,C,90.4,,,C,,T,,M,,N,,M*22
20220704 210114+00:00 $HCHDT,112.1,T*2A
20220704 210114+00:00 $GPRMC,210110,A,4823.0196,N,12410.9998,W,8.11,111,040722,11.9,E,A,V*69
20220704 210114+00:00 $WIMWV,52.29,R,8.69,N,A*18
20220704 210116+00:00 $IIMDA,29.9,I,1.014,B,11.3,C,,C,90.4,,,C,,T,,M,,N,,M*22
20220704 210116+00:00 $HCHDT,112,T*35
20220704 210116+00:00 $GPRMC,210112,A,4823.0196,N,12410.9896,W,8.11,111,040722,11.9,E,A,V*64
20220704 210116+00:00 $WIMWV,51.3,R,8.98,N,A*2D
20220704 210118+00:00 $IIMDA,29.9,I,1.014,B,11.3,C,,C,90.4,,,C,,T,,M,,N,,M*22
20220704 210118+00:00 $HCHDT,112.1,T*2A
20220704 210118+00:00 $GPRMC,210114,A,4823.0196,N,12410.9896,W,8.11,111,040722,11.9,E,A,V*62
20220704 210118+00:00 $WIMWV,50.2,R,8.79,N,A*22
20220704 210120+00:00 $IIMDA,29.9,I,1.014,B,11.3,C,,C,90.4,,,C,,T,,M,,N,,M*22
20220704 210120+00:00 $HCHDT,112.6,T*2D
20220704 210120+00:00 $GPRMC,210116,A,4823.0196,N,12410.9800,W,8.11,111,040722,11.9,E,A,V*6F
20220704 210120+00:00 $WIMWV,46.9,R,7.89,N,A*2E
20220704 210122+00:00 $IIMDA,29.9,I,1.014,B,11.3,C,,C,90.4,,,C,,T,,M,,N,,M*22
20220704 210122+00:00 $HCHDT,112.9,T*22
20220704 210122+00:00 $GPRMC,210118,A,4823.0196,N,12410.9698,W,8.01,112,040722,11.9,E,A,V*6C
20220704 210122+00:00 $WIMWV,51.19,R,8.69,N,A*18
20220704 210124+00:00 $IIMDA,29.9,I,1.014,B,11.3,C,,C,90.4,,,C,,T,,M,,N,,M*22
20220704 210124+00:00 $HCHDT,113,T*34
20220704 210124+00:00 $GPRMC,210120,A,4823.0100,N,12410.9698,W,8.11,112,040722,11.9,E,A,V*69
20220704 210124+00:00 $WIMWV,48.99,R,9.1,N,A*27
20220704 210126+00:00 $IIMDA,29.9,I,1.014,B,11.3,C,,C,90.5,,,C,,T,,M,,N,,M*23
20220704 210126+00:00 $HCHDT,112.9,T*22
20220704 210126+00:00 $GPRMC,210122,A,4823.0100,N,12410.9596,W,8.11,112,040722,11.9,E,A,V*66
20220704 210126+00:00 $WIMWV,50.49,R,8.88,N,A*13
20220704 210128+00:00 $IIMDA,29.9,I,1.014,B,11.3,C,,C,90.5,,,C,,T,,M,,N,,M*23
20220704 210128+00:00 $HCHDT,112.5,T*2E
20220704 210128+00:00 $GPRMC,210124,A,4823.0100,N,12410.9500,W,8.11,112,040722,11.9,E,A,V*6F
20220704 210128+00:00 $WIMWV,50.29,R,7.99,N,A*1A
20220704 210130+00:00 $IIMDA,29.9,I,1.014,B,11.3,C,,C,90.5,,,C,,T,,M,,N,,M*23
20220704 210130+00:00 $HCHDT,112.3,T*28
20220704 210130+00:00 $GPRMC,210126,A,4823.0100,N,12410.9500,W,8.11,112,040722,11.9,E,A,V*6D
20220704 210130+00:00 $WIMWV,48.99,R,8.49,N,A*1A
20220704 210132+00:00 $IIMDA,29.9,I,1.014,B,11.3,C,,C,90.5,,,C,,T,,M,,N,,M*23
20220704 210132+00:00 $HCHDT,111.9,T*21
20220704 210132+00:00 $GPRMC,210128,A,4823.0100,N,12410.9398,W,8.11,112,040722,11.9,E,A,V*64
20220704 210132+00:00 $WIMWV,50.8,R,9.39,N,A*2D
20220704 210134+00:00 $IIMDA,29.9,I,1.014,B,11.3,C,,C,90.4,,,C,,T,,M,,N,,M*22
20220704 210134+00:00 $HCHDT,111.8,T*20
20220704 210134+00:00 $GPRMC,210130,A,4823.0100,N,12410.9398,W,8.11,112,040722,11.9,E,A,V*6D
20220704 210134+00:00 $WIMWV,50.8,R,9.29,N,A*2C
20220704 210136+00:00 $IIMDA,29.9,I,1.014,B,11.3,C,,C,90.5,,,C,,T,,M,,N,,M*23
20220704 210136+00:00 $HCHDT,111.9,T*21
20220704 210136+00:00 $GPRMC,210132,A,4822.9998,N,12410.9296,W,8.11,112,040722,11.9,E,A,V*61
20220704 210136+00:00 $WIMWV,43.5,R,7.19,N,A*2E
20220704 210138+00:00 $IIMDA,29.9,I,1.014,B,11.3,C,,C,90.5,,,C,,T,,M,,N,,M*23
20220704 210138+00:00 $HCHDT,111.9,T*21
20220704 210138+00:00 $GPRMC,210134,A,4822.9998,N,12410.9200,W,8.11,112,040722,11.9,E,A,V*68
20220704 210138+00:00 $WIMWV,50.8,R,9.19,N,A*2F
20220704 210140+00:00 $IIMDA,29.9,I,1.014,B,11.3,C,,C,90.5,,,C,,T,,M,,N,,M*23
20220704 210140+00:00 $HCHDT,111.6,T*2E
20220704 210140+00:00 $GPRMC,210136,A,4822.9998,N,12410.9200,W,8.11,112,040722,11.9,E,A,V*6A
20220704 210140+00:00 $WIMWV,35.6,R,7.1,N,A*15
20220704 210142+00:00 $IIMDA,29.9,I,1.014,B,11.3,C,,C,90.5,,,C,,T,,M,,N,,M*23
20220704 210142+00:00 $HCHDT,111.3,T*2B
20220704 210142+00:00 $GPRMC,210138,A,4822.9998,N,12410.9098,W,8.11,112,040722,11.9,E,A,V*67
20220704 210142+00:00 $WIMWV,50.8,R,8.79,N,A*28
20220704 210144+00:00 $IIMDA,29.9,I,1.014,B,11.3,C,,C,90.5,,,C,,T,,M,,N,,M*23
20220704 210144+00:00 $HCHDT,111.1,T*29
20220704 210144+00:00 $GPRMC,210140,A,4822.9998,N,12410.8996,W,8.11,112,040722,11.9,E,A,V*6E
20220704 210144+00:00 $WIMWV,47.19,R,7.48,N,A*13
20220704 210146+00:00 $IIMDA,29.9,I,1.014,B,11.3,C,,C,90.5,,,C,,T,,M,,N,,M*23
20220704 210146+00:00 $HCHDT,111.1,T*29
20220704 210146+00:00 $GPRMC,210142,A,4822.9998,N,12410.8996,W,8.11,112,040722,11.9,E,A,V*6C
20220704 210146+00:00 $WIMWV,48,R,7.89,N,A*37
20220704 210148+00:00 $IIMDA,29.9,I,1.014,B,11.3,C,,C,90.6,,,C,,T,,M,,N,,M*20
20220704 210148+00:00 $HCHDT,111.3,T*2B
20220704 210148+00:00 $GPRMC,210144,A,4822.9896,N,12410.8900,W,8.11,112,040722,11.9,E,A,V*6A
20220704 210148+00:00 $WIMWV,50,R,9.19,N,A*39
20220704 210150+00:00 $IIMDA,29.9,I,1.014,B,11.3,C,,C,90.5,,,C,,T,,M,,N,,M*23
20220704 210150+00:00 $HCHDT,111.3,T*2B
20220704 210150+00:00 $GPRMC,210146,A,4822.9896,N,12410.8900,W,8.11,112,040722,11.9,E,A,V*68
20220704 210150+00:00 $WIMWV,50,R,8.4,N,A*04
20220704 210152+00:00 $IIMDA,29.9,I,1.014,B,11.3,C,,C,90.5,,,C,,T,,M,,N,,M*23
20220704 210152+00:00 $HCHDT,110.9,T*20
20220704 210152+00:00 $GPRMC,210148,A,4822.9896,N,12410.8798,W,8.11,112,040722,11.9,E,A,V*69
20220704 210152+00:00 $WIMWV,52.8,R,9.49,N,A*28
20220704 210154+00:00 $IIMDA,29.9,I,1.014,B,11.3,C,,C,90.6,,,C,,T,,M,,N,,M*20
20220704 210154+00:00 $HCHDT,110.6,T*2F
20220704 210154+00:00 $GPRMC,210150,A,4822.9896,N,12410.8696,W,8.11,112,040722,11.9,E,A,V*6F
20220704 210154+00:00 $WIMWV,50.8,R,8.4,N,A*12
20220704 210156+00:00 $IIMDA,29.9,I,1.014,B,11.3,C,,C,90.6,,,C,,T,,M,,N,,M*20
20220704 210156+00:00 $HCHDT,110.3,T*2A
20220704 210156+00:00 $GPRMC,210152,A,4822.9896,N,12410.8696,W,8.11,112,040722,11.9,E,A,V*6D
20220704 210156+00:00 $WIMWV,46,R,7.89,N,A*39
20220704 210158+00:00 $IIMDA,29.9,I,1.014,B,11.3,C,,C,90.6,,,C,,T,,M,,N,,M*20
20220704 210158+00:00 $HCHDT,110.3,T*2A
20220704 210158+00:00 $GPRMC,210154,A,4822.9896,N,12410.8600,W,8.11,112,040722,11.9,E,A,V*64
20220704 210158+00:00 $WIMWV,48.7,R,8.28,N,A*2A
20220704 210200+00:00 $IIMDA,29.9,I,1.014,B,11.3,C,,C,90.6,,,C,,T,,M,,N,,M*20
20220704 210200+00:00 $HCHDT,110.3,T*2A
20220704 210200+00:00 $GPRMC,210156,A,4822.9800,N,12410.8498,W,8.11,112,040722,11.9,E,A,V*6A
20220704 210200+00:00 $WIMWV,45.5,R,7.39,N,A*2A
20220704 210202+00:00 $IIMDA,29.9,I,1.014,B,11.3,C,,C,90.6,,,C,,T,,M,,N,,M*20
20220704 210202+00:00 $HCHDT,110,T*37
20220704 210202+00:00 $GPRMC,210158,A,4822.9800,N,12410.8498,W,8.11,111,040722,11.9,E,A,V*67
20220704 210202+00:00 $WIMWV,49.7,R,8.59,N,A*2D
20220704 210204+00:00 $IIMDA,29.9,I,1.014,B,11.3,C,,C,90.6,,,C,,T,,M,,N,,M*20
20220704 210204+00:00 $HCHDT,109.9,T*28
20220704 210204+00:00 $GPRMC,210200,A,4822.9800,N,12410.8396,W,8.11,111,040722,11.9,E,A,V*60
20220704 210204+00:00 $WIMWV,49.3,R,8.79,N,A*2B
20220704 210206+00:00 $IIMDA,29.9,I,1.014,B,11.3,C,,C,90.6,,,C,,T,,M,,N,,M*20
20220704 210206+00:00 $HCHDT,109.8,T*29
20220704 210206+00:00 $GPRMC,210202,A,4822.9800,N,12410.8396,W,8.11,111,040722,11.9,E,A,V*62
20220704 210206+00:00 $WIMWV,47.7,R,8.18,N,A*26
20220704 210208+00:00 $IIMDA,29.9,I,1.014,B,11.3,C,,C,90.6,,,C,,T,,M,,N,,M*20
20220704 210208+00:00 $HCHDT,110,T*37
20220704 210208+00:00 $GPRMC,210204,A,4822.9800,N,12410.8300,W,8.11,111,040722,11.9,E,A,V*6B
20220704 210208+00:00 $WIMWV,47.7,R,8.28,N,A*25
20220704 210210+00:00 $IIMDA,29.9,I,1.014,B,11.2,C,,C,90.6,,,C,,T,,M,,N,,M*21
20220704 210210+00:00 $HCHDT,110.4,T*2D
20220704 210210+00:00 $GPRMC,210206,A,4822.9800,N,12410.8198,W,8.11,111,040722,11.9,E,A,V*6A
20220704 210210+00:00 $WIMWV,41.6,R,6.88,N,A*26
20220704 210212+00:00 $IIMDA,29.9,I,1.014,B,11.2,C,,C,90.6,,,C,,T,,M,,N,,M*21
20220704 210212+00:00 $HCHDT,110.7,T*2E
20220704 210212+00:00 $GPRMC,210208,A,4822.9698,N,12410.8198,W,8.11,111,040722,11.9,E,A,V*6B
20220704 210212+00:00 $WIMWV,47.19,R,7.79,N,A*11
20220704 210214+00:00 $IIMDA,29.9,I,1.014,B,11.2,C,,C,90.6,,,C,,T,,M,,N,,M*21
20220704 210214+00:00 $HCHDT,110.7,T*2E
20220704 210214+00:00 $GPRMC,210210,A,4822.9698,N,12410.8096,W,8.11,111,040722,11.9,E,A,V*6D
20220704 210214+00:00 $WIMWV,51.19,R,9.68,N,A*18
20220704 210216+00:00 $IIMDA,29.9,I,1.014,B,11.2,C,,C,90.6,,,C,,T,,M,,N,,M*21
20220704 210216+00:00 $HCHDT,110.3,T*2A
20220704 210216+00:00 $GPRMC,210212,A,4822.9698,N,12410.8000,W,8.11,111,040722,11.9,E,A,V*60
20220704 210216+00:00 $WIMWV,50.8,R,9.19,N,A*2F
20220704 210218+00:00 $IIMDA,29.9,I,1.014,B,11.2,C,,C,90.6,,,C,,T,,M,,N,,M*21
20220704 210218+00:00 $HCHDT,110.2,T*2B
20220704 210218+00:00 $GPRMC,210214,A,4822.9698,N,12410.8000,W,8.11,111,040722,11.9,E,A,V*66
20220704 210218+00:00 $WIMWV,48.7,R,7.99,N,A*2F
20220704 210220+00:00 $IIMDA,29.9,I,1.014,B,11.2,C,,C,90.6,,,C,,T,,M,,N,,M*21
20220704 210220+00:00 $HCHDT,110.4,T*2D
20220704 210220+00:00 $GPRMC,210216,A,4822.9698,N,12410.7898,W,8.11,111,040722,11.9,E,A,V*62
20220704 210220+00:00 $WIMWV,48.7,R,8.09,N,A*29
20220704 210222+00:00 $IIMDA,29.9,I,1.014,B,11.2,C,,C,90.6,,,C,,T,,M,,N,,M*21
20220704 210222+00:00 $HCHDT,110.7,T*2E
20220704 210222+00:00 $GPRMC,210218,A,4822.9698,N,12410.7898,W,8.11,111,040722,11.9,E,A,V*6C
20220704 210222+00:00 $WIMWV,45.4,R,8.18,N,A*27
20220704 210224+00:00 $IIMDA,29.9,I,1.014,B,11.2,C,,C,90.6,,,C,,T,,M,,N,,M*21
20220704 210224+00:00 $HCHDT,110.4,T*2D
20220704 210224+00:00 $GPRMC,210220,A,4822.9596,N,12410.7796,W,8.11,111,040722,11.9,E,A,V*6B
20220704 210224+00:00 $WIMWV,44.99,R,7.79,N,A*1A
20220704 210226+00:00 $IIMDA,29.9,I,1.014,B,11.2,C,,C,90.6,,,C,,T,,M,,N,,M*21
20220704 210226+00:00 $HCHDT,110,T*37
20220704 210226+00:00 $GPRMC,210222,A,4822.9596,N,12410.7700,W,8.11,111,040722,11.9,E,A,V*66
20220704 210226+00:00 $WIMWV,47.89,R,8.18,N,A*10
20220704 210228+00:00 $IIMDA,29.9,I,1.014,B,11.2,C,,C,90.6,,,C,,T,,M,,N,,M*21
20220704 210228+00:00 $HCHDT,110,T*37
20220704 210228+00:00 $GPRMC,210224,A,4822.9596,N,12410.7700,W,8.11,111,040722,11.9,E,A,V*60
20220704 210228+00:00 $WIMWV,39.1,R,6.88,N,A*2E
20220704 210230+00:00 $IIMDA,29.9,I,1.014,B,11.2,C,,C,90.6,,,C,,T,,M,,N,,M*21
20220704 210230+00:00 $HCHDT,110.5,T*2C
20220704 210230+00:00 $GPRMC,210226,A,4822.9596,N,12410.7598,W,8.11,111,040722,11.9,E,A,V*61
20220704 210230+00:00 $WIMWV,48.7,R,8.18,N,A*29
20220704 210232+00:00 $IIMDA,29.9,I,1.014,B,11.2,C,,C,90.7,,,C,,T,,M,,N,,M*20
20220704 210232+00:00 $HCHDT,110.9,T*20
20220704 210232+00:00 $GPRMC,210228,A,4822.9596,N,12410.7496,W,8.11,111,040722,11.9,E,A,V*60
20220704 210232+00:00 $WIMWV,33.9,R,7.1,N,A*1C
20220704 210234+00:00 $IIMDA,29.9,I,1.014,B,11.2,C,,C,90.7,,,C,,T,,M,,N,,M*20
20220704 210234+00:00 $HCHDT,111.1,T*29
20220704 210234+00:00 $GPRMC,210230,A,4822.9596,N,12410.7496,W,8.01,111,040722,11.9,E,A,V*68
20220704 210234+00:00 $WIMWV,45.7,R,7.79,N,A*2C
20220704 210236+00:00 $IIMDA,29.9,I,1.014,B,11.2,C,,C,90.7,,,C,,T,,M,,N,,M*20
20220704 210236+00:00 $HCHDT,110.8,T*21
20220704 210236+00:00 $GPRMC,210232,A,4822.9500,N,12410.7400,W,8.01,111,040722,11.9,E,A,V*6A
20220704 210236+00:00 $WIMWV,50.2,R,8.98,N,A*2D
20220704 210238+00:00 $IIMDA,29.9,I,1.014,B,11.2,C,,C,90.7,,,C,,T,,M,,N,,M*20
20220704 210238+00:00 $HCHDT,110.4,T*2D
20220704 210238+00:00 $GPRMC,210234,A,4822.9500,N,12410.7400,W,8.11,111,040722,11.9,E,A,V*6D
20220704 210238+00:00 $WIMWV,33,R,6.59,N,A*37
20220704 210240+00:00 $IIMDA,29.9,I,1.014,B,11.2,C,,C,90.7,,,C,,T,,M,,N,,M*20
20220704 210240+00:00 $HCHDT,110.4,T*2D
20220704 210240+00:00 $GPRMC,210236,A,4822.9500,N,12410.7298,W,8.11,111,040722,11.9,E,A,V*68
20220704 210240+00:00 $WIMWV,47.89,R,8.79,N,A*17
20220704 210242+00:00 $IIMDA,29.9,I,1.014,B,11.2,C,,C,90.7,,,C,,T,,M,,N,,M*20
20220704 210242+00:00 $HCHDT,110.7,T*2E
20220704 210242+00:00 $GPRMC,210238,A,4822.9500,N,12410.7196,W,8.11,111,040722,11.9,E,A,V*6B
20220704 210242+00:00 $WIMWV,50.49,R,9.1,N,A*23
20220704 210244+00:00 $IIMDA,29.9,I,1.014,B,11.2,C,,C,90.7,,,C,,T,,M,,N,,M*20
20220704 210244+00:00 $HCHDT,110.8,T*21
20220704 210244+00:00 $GPRMC,210240,A,4822.9500,N,12410.7196,W,8.11,111,040722,11.9,E,A,V*64
20220704 210244+00:00 $WIMWV,35.9,R,7.19,N,A*23
20220704 210246+00:00 $IIMDA,29.9,I,1.014,B,11.2,C,,C,90.7,,,C,,T,,M,,N,,M*20
20220704 210246+00:00 $HCHDT,110.6,T*2F
20220704 210246+00:00 $GPRMC,210242,A,4822.9500,N,12410.7100,W,8.11,111,040722,11.9,E,A,V*69
20220704 210246+00:00 $WIMWV,46.2,R,7.89,N,A*25
20220704 210248+00:00 $IIMDA,29.9,I,1.014,B,11.2,C,,C,90.7,,,C,,T,,M,,N,,M*20
20220704 210248+00:00 $HCHDT,110.4,T*2D
20220704 210248+00:00 $GPRMC,210244,A,4822.9398,N,12410.6998,W,8.11,111,040722,11.9,E,A,V*60
20220704 210248+00:00 $WIMWV,45.4,R,7.29,N,A*2A
20220704 210250+00:00 $IIMDA,29.9,I,1.014,B,11.2,C,,C,90.7,,,C,,T,,M,,N,,M*20
20220704 210250+00:00 $HCHDT,110.6,T*2F
20220704 210250+00:00 $GPRMC,210246,A,4822.9398,N,12410.6998,W,8.11,111,040722,11.9,E,A,V*62
20220704 210250+00:00 $WIMWV,42.79,R,7.39,N,A*16
20220704 210252+00:00 $IIMDA,29.9,I,1.014,B,11.2,C,,C,90.8,,,C,,T,,M,,N,,M*2F
20220704 210252+00:00 $HCHDT,111,T*36
20220704 210252+00:00 $GPRMC,210248,A,4822.9398,N,12410.6896,W,8.11,111,040722,11.9,E,A,V*63
20220704 210252+00:00 $WIMWV,44.7,R,7.58,N,A*2E
20220704 210254+00:00 $IIMDA,29.9,I,1.014,B,11.2,C,,C,90.8,,,C,,T,,M,,N,,M*2F
20220704 210254+00:00 $HCHDT,111.3,T*2B
20220704 210254+00:00 $GPRMC,210250,A,4822.9398,N,12410.6896,W,8.11,111,040722,11.9,E,A,V*6A
20220704 210254+00:00 $WIMWV,48.5,R,8.98,N,A*23
20220704 210256+00:00 $IIMDA,29.9,I,1.014,B,11.2,C,,C,90.8,,,C,,T,,M,,N,,M*2F
20220704 210256+00:00 $HCHDT,111.2,T*2A
20220704 210256+00:00 $GPRMC,210252,A,4822.9398,N,12410.6800,W,8.11,112,040722,11.9,E,A,V*64
20220704 210256+00:00 $WIMWV,34.6,R,7,N,A*0B
20220704 210258+00:00 $IIMDA,29.9,I,1.014,B,11.2,C,,C,90.8,,,C,,T,,M,,N,,M*2F
20220704 210258+00:00 $HCHDT,111.5,T*2D
20220704 210258+00:00 $GPRMC,210254,A,4822.9398,N,12410.6698,W,8.11,112,040722,11.9,E,A,V*6D
20220704 210258+00:00 $WIMWV,34.1,R,7.48,N,A*2E
20220704 210300+00:00 $IIMDA,29.9,I,1.014,B,11.2,C,,C,90.8,,,C,,T,,M,,N,,M*2F
20220704 210300+00:00 $HCHDT,111.8,T*20
20220704 210300+00:00 $GPRMC,210256,A,4822.9296,N,12410.6698,W,8.11,112,040722,11.9,E,A,V*60
20220704 210300+00:00 $WIMWV,48.9,R,9.19,N,A*27
20220704 210302+00:00 $IIMDA,29.9,I,1.014,B,11.2,C,,C,90.8,,,C,,T,,M,,N,,M*2F
20220704 210302+00:00 $HCHDT,111.9,T*21
20220704 210302+00:00 $GPRMC,210258,A,4822.9296,N,12410.6596,W,8.11,112,040722,11.9,E,A,V*63
20220704 210302+00:00 $WIMWV,46.7,R,8.69,N,A*21
20220704 210304+00:00 $IIMDA,29.9,I,1.014,B,11.2,C,,C,90.8,,,C,,T,,M,,N,,M*2F
20220704 210304+00:00 $HCHDT,111.7,T*2F
20220704 210304+00:00 $GPRMC,210300,A,4822.9296,N,12410.6500,W,8.11,112,040722,11.9,E,A,V*60
20220704 210304+00:00 $WIMWV,48.2,R,8.88,N,A*25
20220704 210306+00:00 $IIMDA,29.9,I,1.014,B,11.2,C,,C,90.8,,,C,,T,,M,,N,,M*2F
20220704 210306+00:00 $HCHDT,111.4,T*2C
20220704 210306+00:00 $GPRMC,210302,A,4822.9296,N,12410.6500,W,8.11,112,040722,11.9,E,A,V*62
20220704 210306+00:00 $WIMWV,48.9,R,8.59,N,A*22
20220704 210308+00:00 $IIMDA,29.9,I,1.014,B,11.2,C,,C,90.8,,,C,,T,,M,,N,,M*2F
20220704 210308+00:00 $HCHDT,111.3,T*2B
20220704 210308+00:00 $GPRMC,210304,A,4822.9296,N,12410.6398,W,8.11,112,040722,11.9,E,A,V*63
20220704 210308+00:00 $WIMWV,39.4,R,7.79,N,A*24
20220704 210310+00:00 $IIMDA,29.9,I,1.014,B,11.2,C,,C,90.8,,,C,,T,,M,,N,,M*2F
20220704 210310+00:00 $HCHDT,111.4,T*2C
20220704 210310+00:00 $GPRMC,210306,A,4822.9296,N,12410.6398,W,8.11,112,040722,11.9,E,A,V*61
20220704 210310+00:00 $WIMWV,36.59,R,7.48,N,A*11
20220704 210312+00:00 $IIMDA,29.9,I,1.014,B,11.2,C,,C,90.8,,,C,,T,,M,,N,,M*2F
20220704 210312+00:00 $HCHDT,111.6,T*2E
20220704 210312+00:00 $GPRMC,210308,A,4822.9200,N,12410.6296,W,8.11,112,040722,11.9,E,A,V*6F
20220704 210312+00:00 $WIMWV,48.4,R,9.1,N,A*13
20220704 210314+00:00 $IIMDA,29.9,I,1.014,B,11.2,C,,C,90.8,,,C,,T,,M,,N,,M*2F
20220704 210314+00:00 $HCHDT,111.4,T*2C
20220704 210314+00:00 $GPRMC,210310,A,4822.9200,N,12410.6200,W,8.11,112,040722,11.9,E,A,V*69
20220704 210314+00:00 $WIMWV,49.5,R,9.1,N,A*13
20220704 210316+00:00 $IIMDA,29.9,I,1.014,B,11.2,C,,C,90.8,,,C,,T,,M,,N,,M*2F
20220704 210316+00:00 $HCHDT,111,T*36
20220704 210316+00:00 $GPRMC,210312,A,4822.9200,N,12410.6200,W,8.11,112,040722,11.9,E,A,V*6B
20220704 210316+00:00 $WIMWV,42.79,R,7.89,N,A*1D
20220704 210318+00:00 $IIMDA,29.9,I,1.014,B,11.2,C,,C,90.8,,,C,,T,,M,,N,,M*2F
20220704 210318+00:00 $HCHDT,111.2,T*2A
20220704 210318+00:00 $GPRMC,210314,A,4822.9200,N,12410.6098,W,8.11,112,040722,11.9,E,A,V*6E
20220704 210318+00:00 $WIMWV,43.8,R,7.7,N,A*1C
20220704 210320+00:00 $IIMDA,29.9,I,1.014,B,11.2,C,,C,90.8,,,C,,T,,M,,N,,M*2F
20220704 210320+00:00 $HCHDT,111.5,T*2D
20220704 210320+00:00 $GPRMC,210316,A,4822.9200,N,12410.5996,W,8.11,112,040722,11.9,E,A,V*68
20220704 210320+00:00 $WIMWV,32.8,R,6.78,N,A*23
20220704 210322+00:00 $IIMDA,29.9,I,1.014,B,11.2,C,,C,90.8,,,C,,T,,M,,N,,M*2F
20220704 210322+00:00 $HCHDT,111.7,T*2F
20220704 210322+00:00 $GPRMC,210318,A,4822.9200,N,12410.5996,W,8.11,112,040722,11.9,E,A,V*66
20220704 210322+00:00 $WIMWV,44.9,R,7.79,N,A*23
20220704 210324+00:00 $IIMDA,29.9,I,1.014,B,11.2,C,,C,90.8,,,C,,T,,M,,N,,M*2F
20220704 210324+00:00 $HCHDT,111.7,T*2F
20220704 210324+00:00 $GPRMC,210320,A,4822.9098,N,12410.5900,W,8.11,112,040722,11.9,E,A,V*61
20220704 210324+00:00 $WIMWV,47.89,R,8.59,N,A*15
20220704 210326+00:00 $IIMDA,29.9,I,1.014,B,11.2,C,,C,90.8,,,C,,T,,M,,N,,M*2F
20220704 210326+00:00 $HCHDT,111.7,T*2F
20220704 210326+00:00 $GPRMC,210322,A,4822.9098,N,12410.5900,W,8.11,112,040722,11.9,E,A,V*63
20220704 210326+00:00 $WIMWV,43.3,R,7.99,N,A*20
20220704 210328+00:00 $IIMDA,29.9,I,1.014,B,11.2,C,,C,90.8,,,C,,T,,M,,N,,M*2F
20220704 210328+00:00 $HCHDT,111.8,T*20
20220704 210328+00:00 $GPRMC,210324,A,4822.9098,N,12410.5798,W,8.01,112,040722,11.9,E,A,V*6B
20220704 210328+00:00 $WIMWV,43.5,R,7.79,N,A*28
20220704 210330+00:00 $IIMDA,29.9,I,1.014,B,11.2,C,,C,90.8,,,C,,T,,M,,N,,M*2F
20220704 210330+00:00 $HCHDT,112.3,T*28
20220704 210330+00:00 $GPRMC,210326,A,4822.9098,N,12410.5696,W,8.11,112,040722,11.9,E,A,V*67
20220704 210330+00:00 $WIMWV,43.3,R,7.99,N,A*20
20220704 210332+00:00 $IIMDA,29.9,I,1.014,B,11.1,C,,C,90.8,,,C,,T,,M,,N,,M*2C
20220704 210332+00:00 $HCHDT,112.5,T*2E
20220704 210332+00:00 $GPRMC,210328,A,4822.9098,N,12410.5696,W,8.11,112,040722,11.9,E,A,V*69
20220704 210332+00:00 $WIMWV,44.9,R,7.89,N,A*2C
20220704 210334+00:00 $IIMDA,29.9,I,1.014,B,11.1,C,,C,90.8,,,C,,T,,M,,N,,M*2C
20220704 210334+00:00 $HCHDT,112.1,T*2A
20220704 210334+00:00 $GPRMC,210330,A,4822.9098,N,12410.5600,W,8.11,112,040722,11.9,E,A,V*6F
20220704 210334+00:00 $WIMWV,35.9,R,7.7,N,A*1C
20220704 210336+00:00 $IIMDA,29.9,I,1.014,B,11.1,C,,C,90.9,,,C,,T,,M,,N,,M*2D
20220704 210336+00:00 $HCHDT,111.7,T*2F
20220704 210336+00:00 $GPRMC,210332,A,4822.8996,N,12410.5498,W,8.11,112,040722,11.9,E,A,V*68
20220704 210336+00:00 $WIMWV,33.2,R,7.89,N,A*27
20220704 210338+00:00 $IIMDA,29.9,I,1.014,B,11.1,C,,C,90.9,,,C,,T,,M,,N,,M*2D
20220704 210338+00:00 $HCHDT,111.7,T*2F
20220704 210338+00:00 $GPRMC,210334,A,4822.8996,N,12410.5498,W,8.11,112,040722,11.9,E,A,V*6E
20220704 210338+00:00 $WIMWV,40.9,R,8.18,N,A*2F
20220704 210340+00:00 $IIMDA,29.9,I,1.014,B,11.1,C,,C,90.9,,,C,,T,,M,,N,,M*2D
20220704 210340+00:00 $HCHDT,111.9,T*21
20220704 210340+00:00 $GPRMC,210336,A,4822.8996,N,12410.5396,W,8.11,112,040722,11.9,E,A,V*65
20220704 210340+00:00 $WIMWV,41.89,R,8.69,N,A*10
20220704 210342+00:00 $IIMDA,29.9,I,1.014,B,11.1,C,,C,90.9,,,C,,T,,M,,N,,M*2D
20220704 210342+00:00 $HCHDT,112,T*35
20220704 210342+00:00 $GPRMC,210338,A,4822.8996,N,12410.5396,W,8.11,112,040722,11.9,E,A,V*6B
20220704 210342+00:00 $WIMWV,43.3,R,8.28,N,A*25
20220704 210344+00:00 $IIMDA,29.9,I,1.014,B,11.1,C,,C,90.9,,,C,,T,,M,,N,,M*2D
20220704 210344+00:00 $HCHDT,111.6,T*2E
20220704 210344+00:00 $GPRMC,210340,A,4822.8996,N,12410.5300,W,8.11,112,040722,11.9,E,A,V*6B
20220704 210344+00:00 $WIMWV,33,R,7.48,N,A*36
20220704 210346+00:00 $IIMDA,29.9,I,1.014,B,11.1,C,,C,90.9,,,C,,T,,M,,N,,M*2D
20220704 210346+00:00 $HCHDT,110.9,T*20
20220704 210346+00:00 $GPRMC,210342,A,4822.8996,N,12410.5198,W,8.11,112,040722,11.9,E,A,V*6A
20220704 210346+00:00 $WIMWV,40.4,R,7.99,N,A*24
20220704 210348+00:00 $IIMDA,29.9,I,1.014,B,11.1,C,,C,91,,,C,,T,,M,,N,,M*3B
20220704 210348+00:00 $HCHDT,110.9,T*20
20220704 210348+00:00 $GPRMC,210344,A,4822.8900,N,12410.5198,W,8.11,112,040722,11.9,E,A,V*63
20220704 210348+00:00 $WIMWV,32.7,R,7.39,N,A*28
20220704 210350+00:00 $IIMDA,29.9,I,1.014,B,11.1,C,,C,91,,,C,,T,,M,,N,,M*3B
20220704 210350+00:00 $HCHDT,111.3,T*2B
20220704 210350+00:00 $GPRMC,210346,A,4822.8900,N,12410.5096,W,8.11,112,040722,11.9,E,A,V*6E
20220704 210350+00:00 $WIMWV,35.1,R,7.79,N,A*2D
20220704 210352+00:00 $IIMDA,29.9,I,1.014,B,11.1,C,,C,91.1,,,C,,T,,M,,N,,M*24
20220704 210352+00:00 $HCHDT,111.9,T*21
20220704 210352+00:00 $GPRMC,210348,A,4822.8900,N,12410.5000,W,8.11,112,040722,11.9,E,A,V*6F
20220704 210352+00:00 $WIMWV,39.6,R,7.58,N,A*25
20220704 210354+00:00 $IIMDA,29.9,I,1.014,B,11.1,C,,C,91.1,,,C,,T,,M,,N,,M*24
20220704 210354+00:00 $HCHDT,111.6,T*2E
20220704 210354+00:00 $GPRMC,210350,A,4822.8900,N,12410.5000,W,8.11,112,040722,11.9,E,A,V*66
20220704 210354+00:00 $WIMWV,34.6,R,7.99,N,A*25
20220704 210356+00:00 $IIMDA,29.9,I,1.014,B,11.1,C,,C,91.1,,,C,,T,,M,,N,,M*24
20220704 210356+00:00 $HCHDT,111.1,T*29
20220704 210356+00:00 $GPRMC,210352,A,4822.8900,N,12410.4898,W,8.11,112,040722,11.9,E,A,V*6C
20220704 210356+00:00 $WIMWV,31.8,R,6.69,N,A*20
20220704 210358+00:00 $IIMDA,29.9,I,1.014,B,11.1,C,,C,91.2,,,C,,T,,M,,N,,M*27
20220704 210358+00:00 $HCHDT,110.8,T*21
20220704 210358+00:00 $GPRMC,210354,A,4822.8900,N,12410.4898,W,8.11,112,040722,11.9,E,A,V*6A
20220704 210358+00:00 $WIMWV,32.3,R,6.78,N,A*28
20220704 210400+00:00 $IIMDA,29.9,I,1.014,B,11.1,C,,C,91.2,,,C,,T,,M,,N,,M*27
20220704 210400+00:00 $HCHDT,111.3,T*2B
20220704 210400+00:00 $GPRMC,210356,A,4822.8798,N,12410.4796,W,8.11,112,040722,11.9,E,A,V*66
20220704 210400+00:00 $WIMWV,33.29,R,7.39,N,A*15
20220704 210402+00:00 $IIMDA,29.9,I,1.014,B,11.1,C,,C,91.2,,,C,,T,,M,,N,,M*27
20220704 210402+00:00 $HCHDT,111.9,T*21
20220704 210402+00:00 $GPRMC,210358,A,4822.8798,N,12410.4700,W,8.11,112,040722,11.9,E,A,V*67
20220704 210402+00:00 $WIMWV,33.29,R,7.7,N,A*28
20220704 210404+00:00 $IIMDA,29.9,I,1.014,B,11.1,C,,C,91.2,,,C,,T,,M,,N,,M*27
20220704 210404+00:00 $HCHDT,112,T*35
20220704 210404+00:00 $GPRMC,210400,A,4822.8798,N,12410.4700,W,8.11,112,040722,11.9,E,A,V*6D
20220704 210404+00:00 $WIMWV,32.19,R,7,N,A*33
20220704 210406+00:00 $IIMDA,29.9,I,1.014,B,11.1,C,,C,91.2,,,C,,T,,M,,N,,M*27
20220704 210406+00:00 $HCHDT,111.7,T*2F
20220704 210406+00:00 $GPRMC,210402,A,4822.8798,N,12410.4598,W,8.11,112,040722,11.9,E,A,V*6C
20220704 210406+00:00 $WIMWV,40.59,R,7.99,N,A*1C
20220704 210408+00:00 $IIMDA,29.9,I,1.014,B,11.1,C,,C,91.2,,,C,,T,,M,,N,,M*27
20220704 210408+00:00 $HCHDT,111.4,T*2C
20220704 210408+00:00 $GPRMC,210404,A,4822.8798,N,12410.4496,W,8.11,112,040722,11.9,E,A,V*65
20220704 210408+00:00 $WIMWV,36.59,R,7.99,N,A*1D
20220704 210410+00:00 $IIMDA,29.9,I,1.014,B,11.1,C,,C,91.3,,,C,,T,,M,,N,,M*26
20220704 210410+00:00 $HCHDT,111.5,T*2D
20220704 210410+00:00 $GPRMC,210406,A,4822.8798,N,12410.4496,W,8.11,112,040722,11.9,E,A,V*67
20220704 210410+00:00 $WIMWV,31.2,R,6.59,N,A*29
20220704 210412+00:00 $IIMDA,29.9,I,1.014,B,11.1,C,,C,91.3,,,C,,T,,M,,N,,M*26
20220704 210412+00:00 $HCHDT,111.8,T*20
20220704 210412+00:00 $GPRMC,210408,A,4822.8696,N,12410.4400,W,8.11,112,040722,11.9,E,A,V*69
20220704 210412+00:00 $WIMWV,33.6,R,7.58,N,A*2F
20220704 210414+00:00 $IIMDA,29.9,I,1.014,B,11.1,C,,C,91.3,,,C,,T,,M,,N,,M*26
20220704 210414+00:00 $HCHDT,111.9,T*21
20220704 210414+00:00 $GPRMC,210410,A,4822.8696,N,12410.4400,W,8.11,112,040722,11.9,E,A,V*60
20220704 210414+00:00 $WIMWV,34.1,R,7.29,N,A*29
20220704 210416+00:00 $IIMDA,29.9,I,1.014,B,11.1,C,,C,91.3,,,C,,T,,M,,N,,M*26
20220704 210416+00:00 $HCHDT,111.6,T*2E
20220704 210416+00:00 $GPRMC,210412,A,4822.8696,N,12410.4298,W,8.11,112,040722,11.9,E,A,V*65
20220704 210416+00:00 $WIMWV,34.1,R,7.58,N,A*2F
20220704 210418+00:00 $IIMDA,29.9,I,1.014,B,11.1,C,,C,91.4,,,C,,T,,M,,N,,M*21
20220704 210418+00:00 $HCHDT,111.5,T*2D
20220704 210418+00:00 $GPRMC,210414,A,4822.8696,N,12410.4196,W,8.11,112,040722,11.9,E,A,V*6E
20220704 210418+00:00 $WIMWV,31.2,R,6.08,N,A*2D
20220704 210420+00:00 $IIMDA,29.9,I,1.014,B,11.1,C,,C,91.4,,,C,,T,,M,,N,,M*21
20220704 210420+00:00 $HCHDT,111.7,T*2F
20220704 210420+00:00 $GPRMC,210416,A,4822.8696,N,12410.4196,W,8.11,112,040722,11.9,E,A,V*6C
20220704 210420+00:00 $WIMWV,31.6,R,6.3,N,A*12
20220704 210422+00:00 $IIMDA,29.9,I,1.014,B,11.1,C,,C,91.4,,,C,,T,,M,,N,,M*21
20220704 210422+00:00 $HCHDT,112.2,T*29
20220704 210422+00:00 $GPRMC,210418,A,4822.8696,N,12410.4100,W,8.11,112,040722,11.9,E,A,V*6D
20220704 210422+00:00 $WIMWV,30.5,R,6.08,N,A*2B
20220704 210424+00:00 $IIMDA,29.9,I,1.014,B,11.1,C,,C,91.4,,,C,,T,,M,,N,,M*21
20220704 210424+00:00 $HCHDT,112,T*35
20220704 210424+00:00 $GPRMC,210420,A,4822.8600,N,12410.3998,W,8.11,112,040722,11.9,E,A,V*67
20220704 210424+00:00 $WIMWV,32.5,R,6.78,N,A*2E
20220704 210426+00:00 $IIMDA,29.9,I,1.014,B,11.1,C,,C,91.4,,,C,,T,,M,,N,,M*21
20220704 210426+00:00 $HCHDT,111.6,T*2E
20220704 210426+00:00 $GPRMC,210422,A,4822.8600,N,12410.3998,W,8.11,112,040722,11.9,E,A,V*65
20220704 210426+00:00 $WIMWV,31.9,R,6.69,N,A*21
20220704 210428+00:00 $IIMDA,29.9,I,1.014,B,11.1,C,,C,91.5,,,C,,T,,M,,N,,M*20
20220704 210428+00:00 $HCHDT,111.6,T*2E
20220704 210428+00:00 $GPRMC,210424,A,4822.8600,N,12410.3896,W,8.11,111,040722,11.9,E,A,V*6F
20220704 210428+00:00 $WIMWV,30.5,R,6.4,N,A*17
20220704 210430+00:00 $IIMDA,29.9,I,1.014,B,11.1,C,,C,91.4,,,C,,T,,M,,N,,M*21
20220704 210430+00:00 $HCHDT,111.7,T*2F
20220704 210430+00:00 $GPRMC,210426,A,4822.8600,N,12410.3800,W,8.11,111,040722,11.9,E,A,V*62
20220704 210430+00:00 $WIMWV,28.89,R,5.7,N,A*2A
20220704 210432+00:00 $IIMDA,29.9,I,1.014,B,11.1,C,,C,91.5,,,C,,T,,M,,N,,M*20
20220704 210432+00:00 $HCHDT,111.7,T*2F
20220704 210432+00:00 $GPRMC,210428,A,4822.8600,N,12410.3800,W,8.11,111,040722,11.9,E,A,V*6C
20220704 210432+00:00 $WIMWV,30.1,R,5.7,N,A*13
20220704 210434+00:00 $IIMDA,29.9,I,1.014,B,11.1,C,,C,91.5,,,C,,T,,M,,N,,M*20
20220704 210434+00:00 $HCHDT,111.6,T*2E
20220704 210434+00:00 $GPRMC,210430,A,4822.8600,N,12410.3698,W,8.11,111,040722,11.9,E,A,V*6A
20220704 210434+00:00 $WIMWV,32.3,R,6.88,N,A*27
20220704 210436+00:00 $IIMDA,29.9,I,1.014,B,11.1,C,,C,91.5,,,C,,T,,M,,N,,M*20
20220704 210436+00:00 $HCHDT,111.5,T*2D
20220704 210436+00:00 $GPRMC,210432,A,4822.8498,N,12410.3698,W,8.11,111,040722,11.9,E,A,V*6B
20220704 210436+00:00 $WIMWV,34.1,R,7.79,N,A*2C
20220704 210438+00:00 $IIMDA,29.9,I,1.014,B,11.1,C,,C,91.5,,,C,,T,,M,,N,,M*20
20220704 210438+00:00 $HCHDT,111.5,T*2D
20220704 210438+00:00 $GPRMC,210434,A,4822.8498,N,12410.3596,W,8.11,111,040722,11.9,E,A,V*60
20220704 210438+00:00 $WIMWV,33.29,R,7.39,N,A*15
20220704 210440+00:00 $IIMDA,29.9,I,1.014,B,11.1,C,,C,91.5,,,C,,T,,M,,N,,M*20
20220704 210440+00:00 $HCHDT,111.8,T*20
20220704 210440+00:00 $GPRMC,210436,A,4822.8498,N,12410.3500,W,8.11,111,040722,11.9,E,A,V*6D
20220704 210440+00:00 $WIMWV,31.4,R,6.3,N,A*10
20220704 210442+00:00 $IIMDA,29.9,I,1.014,B,11.1,C,,C,91.5,,,C,,T,,M,,N,,M*20
20220704 210442+00:00 $HCHDT,111.9,T*21
20220704 210442+00:00 $GPRMC,210438,A,4822.8498,N,12410.3500,W,8.11,111,040722,11.9,E,A,V*63
20220704 210442+00:00 $WIMWV,31.2,R,6.08,N,A*2D
20220704 210444+00:00 $IIMDA,29.9,I,1.014,B,11.1,C,,C,91.5,,,C,,T,,M,,N,,M*20
20220704 210444+00:00 $HCHDT,111.7,T*2F
20220704 210444+00:00 $GPRMC,210440,A,4822.8498,N,12410.3398,W,8.11,111,040722,11.9,E,A,V*6B
20220704 210444+00:00 $WIMWV,29.6,R,5.6,N,A*1D
20220704 210446+00:00 $IIMDA,29.9,I,1.014,B,11.1,C,,C,91.6,,,C,,T,,M,,N,,M*23
20220704 210446+00:00 $HCHDT,111.7,T*2F
20220704 210446+00:00 $GPRMC,210442,A,4822.8498,N,12410.3296,W,8.11,111,040722,11.9,E,A,V*66
20220704 210446+00:00 $WIMWV,30.7,R,6.08,N,A*29
20220704 210448+00:00 $IIMDA,29.9,I,1.014,B,11.1,C,,C,91.5,,,C,,T,,M,,N,,M*20
20220704 210448+00:00 $HCHDT,112,T*35
20220704 210448+00:00 $GPRMC,210444,A,4822.8396,N,12410.3296,W,8.11,111,040722,11.9,E,A,V*69
20220704 210448+00:00 $WIMWV,32.1,R,6.18,N,A*2C
20220704 210450+00:00 $IIMDA,29.9,I,1.014,B,11.1,C,,C,91.6,,,C,,T,,M,,N,,M*23
20220704 210450+00:00 $HCHDT,112.2,T*29
20220704 210450+00:00 $GPRMC,210446,A,4822.8396,N,12410.3200,W,8.11,112,040722,11.9,E,A,V*67
20220704 210450+00:00 $WIMWV,32.1,R,6.08,N,A*2D
20220704 210452+00:00 $IIMDA,29.9,I,1.014,B,11.1,C,,C,91.6,,,C,,T,,M,,N,,M*23
20220704 210452+00:00 $HCHDT,112.2,T*29
20220704 210452+00:00 $GPRMC,210448,A,4822.8396,N,12410.3200,W,8.11,112,040722,11.9,E,A,V*69
20220704 210452+00:00 $WIMWV,31.2,R,6.08,N,A*2D
20220704 210454+00:00 $IIMDA,29.9,I,1.014,B,11.1,C,,C,91.6,,,C,,T,,M,,N,,M*23
20220704 210454+00:00 $HCHDT,111.9,T*21
20220704 210454+00:00 $GPRMC,210450,A,4822.8396,N,12410.3098,W,8.11,112,040722,11.9,E,A,V*63
20220704 210454+00:00 $WIMWV,30.89,R,5.89,N,A*15
20220704 210456+00:00 $IIMDA,29.9,I,1.014,B,11.1,C,,C,91.6,,,C,,T,,M,,N,,M*23
20220704 210456+00:00 $HCHDT,111.7,T*2F
20220704 210456+00:00 $GPRMC,210452,A,4822.8396,N,12410.2996,W,8.11,112,040722,11.9,E,A,V*67
20220704 210456+00:00 $WIMWV,33.09,R,6.08,N,A*14
20220704 210458+00:00 $IIMDA,29.9,I,1.014,B,11.1,C,,C,91.6,,,C,,T,,M,,N,,M*23
20220704 210458+00:00 $HCHDT,111.8,T*20
20220704 210458+00:00 $GPRMC,210454,A,4822.8396,N,12410.2996,W,8.11,112,040722,11.9,E,A,V*61
20220704 210458+00:00 $WIMWV,32.5,R,6.88,N,A*21
20220704 210500+00:00 $IIMDA,29.9,I,1.014,B,11.1,C,,C,91.6,,,C,,T,,M,,N,,M*23
20220704 210500+00:00 $HCHDT,112.3,T*28
20220704 210500+00:00 $GPRMC,210456,A,4822.8300,N,12410.2900,W,8.11,112,040722,11.9,E,A,V*63
20220704 210500+00:00 $WIMWV,36.59,R,6.59,N,A*10
20220704 210502+00:00 $IIMDA,29.9,I,1.014,B,11.1,C,,C,91.6,,,C,,T,,M,,N,,M*23
20220704 210502+00:00 $HCHDT,112.5,T*2E
20220704 210502+00:00 $GPRMC,210458,A,4822.8300,N,12410.2798,W,8.11,112,040722,11.9,E,A,V*62
20220704 210502+00:00 $WIMWV,31.9,R,6.59,N,A*22
20220704 210504+00:00 $IIMDA,29.9,I,1.014,B,11.1,C,,C,91.6,,,C,,T,,M,,N,,M*23
20220704 210504+00:00 $HCHDT,112.2,T*29
20220704 210504+00:00 $GPRMC,210500,A,4822.8300,N,12410.2798,W,8.11,112,040722,11.9,E,A,V*6E
20220704 210504+00:00 $WIMWV,31.6,R,6.59,N,A*2D
20220704 210506+00:00 $IIMDA,29.9,I,1.014,B,11.1,C,,C,91.7,,,C,,T,,M,,N,,M*22
20220704 210506+00:00 $HCHDT,111.8,T*20
20220704 210506+00:00 $GPRMC,210502,A,4822.8300,N,12410.2696,W,8.11,113,040722,11.9,E,A,V*62
20220704 210506+00:00 $WIMWV,33.6,R,5.89,N,A*21
20220704 210508+00:00 $IIMDA,29.9,I,1.014,B,11.1,C,,C,91.7,,,C,,T,,M,,N,,M*22
20220704 210508+00:00 $HCHDT,111.5,T*2D
20220704 210508+00:00 $GPRMC,210504,A,4822.8300,N,12410.2696,W,8.11,112,040722,11.9,E,A,V*65
20220704 210508+00:00 $WIMWV,35.9,R,6.3,N,A*19
20220704 210510+00:00 $IIMDA,29.9,I,1.014,B,11.1,C,,C,91.7,,,C,,T,,M,,N,,M*22
20220704 210510+00:00 $HCHDT,111.5,T*2D
20220704 210510+00:00 $GPRMC,210506,A,4822.8300,N,12410.2600,W,8.11,112,040722,11.9,E,A,V*68
20220704 210510+00:00 $WIMWV,33.2,R,5.79,N,A*2A
20220704 210512+00:00 $IIMDA,29.9,I,1.014,B,11.1,C,,C,91.7,,,C,,T,,M,,N,,M*22
20220704 210512+00:00 $HCHDT,111.8,T*20
20220704 210512+00:00 $GPRMC,210508,A,4822.8198,N,12410.2498,W,8.11,112,040722,11.9,E,A,V*66
20220704 210512+00:00 $WIMWV,32.9,R,5.89,N,A*2F
20220704 210514+00:00 $IIMDA,29.9,I,1.014,B,11.1,C,,C,91.7,,,C,,T,,M,,N,,M*22
20220704 210514+00:00 $HCHDT,111.9,T*21
20220704 210514+00:00 $GPRMC,210510,A,4822.8198,N,12410.2498,W,8.11,112,040722,11.9,E,A,V*6F
20220704 210514+00:00 $WIMWV,30.1,R,5.6,N,A*12
20220704 210516+00:00 $IIMDA,29.9,I,1.014,B,11.1,C,,C,91.7,,,C,,T,,M,,N,,M*22
20220704 210516+00:00 $HCHDT,111.3,T*2B
20220704 210516+00:00 $GPRMC,210512,A,4822.8198,N,12410.2396,W,8.11,112,040722,11.9,E,A,V*64
20220704 210516+00:00 $WIMWV,32.8,R,6.3,N,A*1F
20220704 210518+00:00 $IIMDA,29.9,I,1.014,B,11.1,C,,C,91.7,,,C,,T,,M,,N,,M*22
20220704 210518+00:00 $HCHDT,110.4,T*2D
20220704 210518+00:00 $GPRMC,210514,A,4822.8198,N,12410.2300,W,8.11,112,040722,11.9,E,A,V*6D
20220704 210518+00:00 $WIMWV,31.2,R,6.49,N,A*28
20220704 210520+00:00 $IIMDA,29.9,I,1.014,B,11.1,C,,C,91.7,,,C,,T,,M,,N,,M*22
20220704 210520+00:00 $HCHDT,110.2,T*2B
20220704 210520+00:00 $GPRMC,210516,A,4822.8198,N,12410.2300,W,8.11,112,040722,11.9,E,A,V*6F
20220704 210520+00:00 $WIMWV,31.8,R,6.08,N,A*27
20220704 210522+00:00 $IIMDA,29.9,I,1.014,B,11.1,C,,C,91.7,,,C,,T,,M,,N,,M*22
20220704 210522+00:00 $HCHDT,110.4,T*2D
20220704 210522+00:00 $GPRMC,210518,A,4822.8198,N,12410.2198,W,8.11,111,040722,11.9,E,A,V*61
20220704 210522+00:00 $WIMWV,39.4,R,5.89,N,A*29
20220704 210524+00:00 $IIMDA,29.9,I,1.014,B,11.1,C,,C,91.7,,,C,,T,,M,,N,,M*22
20220704 210524+00:00 $HCHDT,110.6,T*2F
20220704 210524+00:00 $GPRMC,210520,A,4822.8096,N,12410.2198,W,8.2,111,040722,11.9,E,A,V*57
20220704 210524+00:00 $WIMWV,31.9,R,5.89,N,A*2C
20220704 210526+00:00 $IIMDA,29.9,I,1.014,B,11.1,C,,C,91.7,,,C,,T,,M,,N,,M*22
20220704 210526+00:00 $HCHDT,110.7,T*2E
20220704 210526+00:00 $GPRMC,210522,A,4822.8096,N,12410.2096,W,8.2,111,040722,11.9,E,A,V*5A
20220704 210526+00:00 $WIMWV,29.9,R,5.99,N,A*24
20220704 210528+00:00 $IIMDA,29.9,I,1.014,B,11.1,C,,C,91.7,,,C,,T,,M,,N,,M*22
20220704 210528+00:00 $HCHDT,110.8,T*21
20220704 210528+00:00 $GPRMC,210524,A,4822.8096,N,12410.2000,W,8.11,111,040722,11.9,E,A,V*61
20220704 210528+00:00 $WIMWV,31.9,R,6.59,N,A*22
20220704 210530+00:00 $IIMDA,29.9,I,1.014,B,11.1,C,,C,91.7,,,C,,T,,M,,N,,M*22
20220704 210530+00:00 $HCHDT,110.8,T*21
20220704 210530+00:00 $GPRMC,210526,A,4822.8096,N,12410.2000,W,8.11,111,040722,11.9,E,A,V*63
20220704 210530+00:00 $WIMWV,31.2,R,6.08,N,A*2D
20220704 210532+00:00 $IIMDA,29.9,I,1.014,B,11.1,C,,C,91.8,,,C,,T,,M,,N,,M*2D
20220704 210532+00:00 $HCHDT,110.7,T*2E
20220704 210532+00:00 $GPRMC,210528,A,4822.8096,N,12410.1898,W,8.11,111,040722,11.9,E,A,V*67
20220704 210532+00:00 $WIMWV,32.9,R,7.1,N,A*1D
20220704 210534+00:00 $IIMDA,29.9,I,1.014,B,11.1,C,,C,91.8,,,C,,T,,M,,N,,M*2D
20220704 210534+00:00 $HCHDT,110.6,T*2F
20220704 210534+00:00 $GPRMC,210530,A,4822.8096,N,12410.1796,W,8.11,111,040722,11.9,E,A,V*6F
20220704 210534+00:00 $WIMWV,31.5,R,6.18,N,A*2B
20220704 210536+00:00 $IIMDA,29.9,I,1.014,B,11.1,C,,C,91.7,,,C,,T,,M,,N,,M*22
20220704 210536+00:00 $HCHDT,110.8,T*21
20220704 210536+00:00 $GPRMC,210532,A,4822.8000,N,12410.1796,W,8.11,111,040722,11.9,E,A,V*62
20220704 210536+00:00 $WIMWV,31.5,R,6.59,N,A*2E
20220704 210538+00:00 $IIMDA,29.9,I,1.014,B,11.1,C,,C,91.8,,,C,,T,,M,,N,,M*2D
20220704 210538+00:00 $HCHDT,110.9,T*20
20220704 210538+00:00 $GPRMC,210534,A,4822.8000,N,12410.1700,W,8.2,111,040722,11.9,E,A,V*59
20220704 210538+00:00 $WIMWV,30.6,R,5.7,N,A*14
20220704 210540+00:00 $IIMDA,29.9,I,1.014,B,11.1,C,,C,91.8,,,C,,T,,M,,N,,M*2D
20220704 210540+00:00 $HCHDT,111.1,T*29
20220704 210540+00:00 $GPRMC,210536,A,4822.8000,N,12410.1598,W,8.2,111,040722,11.9,E,A,V*58
20220704 210540+00:00 $WIMWV,33.9,R,5.79,N,A*21
20220704 210542+00:00 $IIMDA,29.9,I,1.014,B,11.1,C,,C,91.8,,,C,,T,,M,,N,,M*2D
20220704 210542+00:00 $HCHDT,111.3,T*2B
20220704 210542+00:00 $GPRMC,210538,A,4822.8000,N,12410.1598,W,8.2,111,040722,11.9,E,A,V*56
20220704 210542+00:00 $WIMWV,39.1,R,5.7,N,A*1A
20220704 210544+00:00 $IIMDA,29.9,I,1.014,B,11.1,C,,C,91.8,,,C,,T,,M,,N,,M*2D
20220704 210544+00:00 $HCHDT,111.2,T*2A
20220704 210544+00:00 $GPRMC,210540,A,4822.8000,N,12410.1496,W,8.2,111,040722,11.9,E,A,V*56
20220704 210544+00:00 $WIMWV,31.6,R,6.08,N,A*29
20220704 210546+00:00 $IIMDA,29.9,I,1.014,B,11.1,C,,C,91.8,,,C,,T,,M,,N,,M*2D
20220704 210546+00:00 $HCHDT,110.7,T*2E
20220704 210546+00:00 $GPRMC,210542,A,4822.8000,N,12410.1496,W,8.11,111,040722,11.9,E,A,V*66
20220704 210546+00:00 $WIMWV,31.09,R,6.18,N,A*17
20220704 210548+00:00 $IIMDA,29.9,I,1.014,B,11.1,C,,C,91.8,,,C,,T,,M,,N,,M*2D
20220704 210548+00:00 $HCHDT,110.5,T*2C
20220704 210548+00:00 $GPRMC,210544,A,4822.7898,N,12410.1400,W,8.11,111,040722,11.9,E,A,V*69
20220704 210548+00:00 $WIMWV,32.6,R,7,N,A*0D
20220704 210550+00:00 $IIMDA,29.9,I,1.014,B,11.1,C,,C,91.8,,,C,,T,,M,,N,,M*2D
20220704 210550+00:00 $HCHDT,110.5,T*2C
20220704 210550+00:00 $GPRMC,210546,A,4822.7898,N,12410.1298,W,8.2,111,040722,11.9,E,A,V*5E
20220704 210550+00:00 $WIMWV,30.6,R,5.7,N,A*14
20220704 210552+00:00 $IIMDA,29.9,I,1.014,B,11.1,C,,C,91.8,,,C,,T,,M,,N,,M*2D
20220704 210552+00:00 $HCHDT,110.6,T*2F
20220704 210552+00:00 $GPRMC,210548,A,4822.7898,N,12410.1298,W,8.2,111,040722,11.9,E,A,V*50
20220704 210552+00:00 $WIMWV,31.6,R,5.6,N,A*14
20220704 210554+00:00 $IIMDA,29.9,I,1.014,B,11.1,C,,C,91.8,,,C,,T,,M,,N,,M*2D
20220704 210554+00:00 $HCHDT,110.4,T*2D
20220704 210554+00:00 $GPRMC,210550,A,4822.7898,N,12410.1196,W,8.2,111,040722,11.9,E,A,V*54
20220704 210554+00:00 $WIMWV,31.3,R,5.6,N,A*11
20220704 210556+00:00 $IIMDA,29.9,I,1.014,B,11.1,C,,C,91.8,,,C,,T,,M,,N,,M*2D
20220704 210556+00:00 $HCHDT,110,T*37
20220704 210556+00:00 $GPRMC,210552,A,4822.7898,N,12410.1100,W,8.2,111,040722,11.9,E,A,V*59
20220704 210556+00:00 $WIMWV,33.09,R,6.08,N,A*14
20220704 210558+00:00 $IIMDA,29.9,I,1.014,B,11.1,C,,C,91.8,,,C,,T,,M,,N,,M*2D
20220704 210558+00:00 $HCHDT,110,T*37
20220704 210558+00:00 $GPRMC,210554,A,4822.7898,N,12410.1100,W,8.11,111,040722,11.9,E,A,V*6D
20220704 210558+00:00 $WIMWV,32.6,R,6.08,N,A*2A
20220704 210600+00:00 $IIMDA,29.9,I,1.014,B,11.1,C,,C,91.8,,,C,,T,,M,,N,,M*2D
20220704 210600+00:00 $HCHDT,110,T*37
20220704 210600+00:00 $GPRMC,210556,A,4822.7796,N,12410.0998,W,8.11,111,040722,11.9,E,A,V*66
20220704 210600+00:00 $WIMWV,30.8,R,5.79,N,A*23
20220704 210602+00:00 $IIMDA,29.9,I,1.014,B,11.1,C,,C,91.8,,,C,,T,,M,,N,,M*2D
20220704 210602+00:00 $HCHDT,110,T*37
20220704 210602+00:00 $GPRMC,210558,A,4822.7796,N,12410.0896,W,8.11,111,040722,11.9,E,A,V*67
20220704 210602+00:00 $WIMWV,34.6,R,5.99,N,A*27
20220704 210604+00:00 $IIMDA,29.9,I,1.014,B,11.1,C,,C,91.8,,,C,,T,,M,,N,,M*2D
20220704 210604+00:00 $HCHDT,110,T*37
20220704 210604+00:00 $GPRMC,210600,A,4822.7796,N,12410.0896,W,8.11,111,040722,11.9,E,A,V*69
20220704 210604+00:00 $WIMWV,31.9,R,5.6,N,A*1B
20220704 210606+00:00 $IIMDA,29.9,I,1.014,B,11.1,C,,C,91.9,,,C,,T,,M,,N,,M*2C
20220704 210606+00:00 $HCHDT,110.1,T*28
20220704 210606+00:00 $GPRMC,210602,A,4822.7796,N,12410.0800,W,8.2,111,040722,11.9,E,A,V*56
20220704 210606+00:00 $WIMWV,33.29,R,5.79,N,A*13
20220704 210608+00:00 $IIMDA,29.9,I,1.014,B,11.1,C,,C,91.9,,,C,,T,,M,,N,,M*2C
20220704 210608+00:00 $HCHDT,110,T*37
20220704 210608+00:00 $GPRMC,210604,A,4822.7796,N,12410.0800,W,8.2,111,040722,11.9,E,A,V*50
20220704 210608+00:00 $WIMWV,32.6,R,6.3,N,A*11
20220704 210610+00:00 $IIMDA,29.9,I,1.014,B,11.1,C,,C,91.9,,,C,,T,,M,,N,,M*2C
20220704 210610+00:00 $HCHDT,109.8,T*29
20220704 210610+00:00 $GPRMC,210606,A,4822.7796,N,12410.0698,W,8.11,111,040722,11.9,E,A,V*6F
20220704 210610+00:00 $WIMWV,30.6,R,6.08,N,A*28
20220704 210612+00:00 $IIMDA,29.9,I,1.014,B,11.1,C,,C,91.8,,,C,,T,,M,,N,,M*2D
20220704 210612+00:00 $HCHDT,109.8,T*29
20220704 210612+00:00 $GPRMC,210608,A,4822.7796,N,12410.0596,W,8.11,110,040722,11.9,E,A,V*6D
20220704 210612+00:00 $WIMWV,31,R,6.49,N,A*34
20220704 210614+00:00 $IIMDA,29.9,I,1.014,B,11.1,C,,C,91.9,,,C,,T,,M,,N,,M*2C
20220704 210614+00:00 $HCHDT,109.9,T*28
20220704 210614+00:00 $GPRMC,210610,A,4822.7700,N,12410.0596,W,8.11,110,040722,11.9,E,A,V*6B
20220704 210614+00:00 $WIMWV,34.6,R,6.08,N,A*2C
20220704 210616+00:00 $IIMDA,29.9,I,1.014,B,11.1,C,,C,91.9,,,C,,T,,M,,N,,M*2C
20220704 210616+00:00 $HCHDT,110.1,T*28
20220704 210616+00:00 $GPRMC,210612,A,4822.7700,N,12410.0500,W,8.11,110,040722,11.9,E,A,V*66
20220704 210616+00:00 $WIMWV,33.2,R,6.49,N,A*2A
20220704 210618+00:00 $IIMDA,29.9,I,1.014,B,11.1,C,,C,91.9,,,C,,T,,M,,N,,M*2C
20220704 210618+00:00 $HCHDT,110.3,T*2A
20220704 210618+00:00 $GPRMC,210614,A,4822.7700,N,12410.0398,W,8.2,111,040722,11.9,E,A,V*54
20220704 210618+00:00 $WIMWV,32.7,R,6.3,N,A*10
20220704 210620+00:00 $IIMDA,29.9,I,1.014,B,11.1,C,,C,91.9,,,C,,T,,M,,N,,M*2C
20220704 210620+00:00 $HCHDT,110.4,T*2D
20220704 210620+00:00 $GPRMC,210616,A,4822.7700,N,12410.0398,W,8.2,111,040722,11.9,E,A,V*56
20220704 210620+00:00 $WIMWV,35.9,R,7.79,N,A*25
20220704 210622+00:00 $IIMDA,29.9,I,1.014,B,11.1,C,,C,91.9,,,C,,T,,M,,N,,M*2C
20220704 210622+00:00 $HCHDT,110.7,T*2E
20220704 210622+00:00 $GPRMC,210618,A,4822.7700,N,12410.0296,W,8.2,111,040722,11.9,E,A,V*57
20220704 210622+00:00 $WIMWV,39.1,R,6.3,N,A*1D
20220704 210624+00:00 $IIMDA,29.9,I,1.014,B,11.1,C,,C,91.9,,,C,,T,,M,,N,,M*2C
20220704 210624+00:00 $HCHDT,110.7,T*2E
20220704 210624+00:00 $GPRMC,210620,A,4822.7700,N,12410.0200,W,8.11,111,040722,11.9,E,A,V*61
20220704 210624+00:00 $WIMWV,34.1,R,6.18,N,A*2A
20220704 210626+00:00 $IIMDA,29.9,I,1.014,B,11.1,C,,C,91.9,,,C,,T,,M,,N,,M*2C
20220704 210626+00:00 $HCHDT,110.5,T*2C
20220704 210626+00:00 $GPRMC,210622,A,4822.7598,N,12410.0200,W,8.11,111,040722,11.9,E,A,V*60
20220704 210626+00:00 $WIMWV,31.99,R,5.7,N,A*23
20220704 210628+00:00 $IIMDA,29.9,I,1.014,B,11.1,C,,C,91.9,,,C,,T,,M,,N,,M*2C
20220704 210628+00:00 $HCHDT,110.2,T*2B
20220704 210628+00:00 $GPRMC,210624,A,4822.7598,N,12410.0098,W,8.11,111,040722,11.9,E,A,V*65
20220704 210628+00:00 $WIMWV,36.9,R,6.4,N,A*1D
20220704 210630+00:00 $IIMDA,29.9,I,1.014,B,11.1,C,,C,91.9,,,C,,T,,M,,N,,M*2C
20220704 210630+00:00 $HCHDT,110.1,T*28
20220704 210630+00:00 $GPRMC,210626,A,4822.7598,N,12410.0098,W,8.11,111,040722,11.9,E,A,V*67
20220704 210630+00:00 $WIMWV,42.99,R,5.6,N,A*26
20220704 210632+00:00 $IIMDA,29.9,I,1.014,B,11.1,C,,C,91.9,,,C,,T,,M,,N,,M*2C
20220704 210632+00:00 $HCHDT,110.3,T*2A
20220704 210632+00:00 $GPRMC,210628,A,4822.7598,N,12409.9996,W,8.11,111,040722,11.9,E,A,V*6F
20220704 210632+00:00 $WIMWV,33,R,6.08,N,A*33
20220704 210634+00:00 $IIMDA,29.9,I,1.014,B,11.1,C,,C,91.9,,,C,,T,,M,,N,,M*2C
20220704 210634+00:00 $HCHDT,110.5,T*2C
20220704 210634+00:00 $GPRMC,210630,A,4822.7598,N,12409.9900,W,8.11,111,040722,11.9,E,A,V*69
20220704 210634+00:00 $WIMWV,33.6,R,6.4,N,A*17
20220704 210636+00:00 $IIMDA,29.9,I,1.014,B,11.1,C,,C,91.9,,,C,,T,,M,,N,,M*2C
20220704 210636+00:00 $HCHDT,110.5,T*2C
20220704 210636+00:00 $GPRMC,210632,A,4822.7598,N,12409.9900,W,8.11,111,040722,11.9,E,A,V*6B
20220704 210636+00:00 $WIMWV,32.7,R,7.48,N,A*2E
20220704 210638+00:00 $IIMDA,29.9,I,1.014,B,11.1,C,,C,91.9,,,C,,T,,M,,N,,M*2C
20220704 210638+00:00 $HCHDT,110.4,T*2D
20220704 210638+00:00 $GPRMC,210634,A,4822.7496,N,12409.9798,W,8.11,111,040722,11.9,E,A,V*6D
20220704 210638+00:00 $WIMWV,32.4,R,6.59,N,A*2C
20220704 210640+00:00 $IIMDA,29.9,I,1.014,B,11.1,C,,C,91.9,,,C,,T,,M,,N,,M*2C
20220704 210640+00:00 $HCHDT,110.6,T*2F
20220704 210640+00:00 $GPRMC,210636,A,4822.7496,N,12409.9696,W,8.2,111,040722,11.9,E,A,V*52
20220704 210640+00:00 $WIMWV,34.6,R,6.49,N,A*29
20220704 210642+00:00 $IIMDA,29.9,I,1.014,B,11.1,C,,C,91.9,,,C,,T,,M,,N,,M*2C
20220704 210642+00:00 $HCHDT,110.8,T*21
20220704 210642+00:00 $GPRMC,210638,A,4822.7496,N,12409.9696,W,8.2,111,040722,11.9,E,A,V*5C
20220704 210642+00:00 $WIMWV,31.09,R,5.99,N,A*1D
20220704 210644+00:00 $IIMDA,29.9,I,1.014,B,11.1,C,,C,91.9,,,C,,T,,M,,N,,M*2C
20220704 210644+00:00 $HCHDT,111.2,T*2A
20220704 210644+00:00 $GPRMC,210640,A,4822.7496,N,12409.9600,W,8.2,111,040722,11.9,E,A,V*5C
20220704 210644+00:00 $WIMWV,41.1,R,6.08,N,A*29
20220704 210646+00:00 $IIMDA,29.9,I,1.014,B,11.1,C,,C,91.9,,,C,,T,,M,,N,,M*2C
20220704 210646+00:00 $HCHDT,111.6,T*2E
20220704 210646+00:00 $GPRMC,210642,A,4822.7496,N,12409.9600,W,8.11,111,040722,11.9,E,A,V*6C
20220704 210646+00:00 $WIMWV,44.4,R,5.99,N,A*22
20220704 210648+00:00 $IIMDA,29.9,I,1.014,B,11.1,C,,C,91.9,,,C,,T,,M,,N,,M*2C
20220704 210648+00:00 $HCHDT,111.7,T*2F
20220704 210648+00:00 $GPRMC,210644,A,4822.7496,N,12409.9498,W,8.11,112,040722,11.9,E,A,V*6A
20220704 210648+00:00 $WIMWV,32.19,R,7,N,A*33
20220704 210650+00:00 $IIMDA,29.9,I,1.014,B,11.1,C,,C,91.9,,,C,,T,,M,,N,,M*2C
20220704 210650+00:00 $HCHDT,111.5,T*2D
20220704 210650+00:00 $GPRMC,210646,A,4822.7400,N,12409.9396,W,8.11,112,040722,11.9,E,A,V*6E
20220704 210650+00:00 $WIMWV,33.2,R,7.48,N,A*2A
20220704 210652+00:00 $IIMDA,29.9,I,1.014,B,11.1,C,,C,91.9,,,C,,T,,M,,N,,M*2C
20220704 210652+00:00 $HCHDT,111.2,T*2A
20220704 210652+00:00 $GPRMC,210648,A,4822.7400,N,12409.9396,W,8.2,112,040722,11.9,E,A,V*52
20220704 210652+00:00 $WIMWV,31.99,R,6.69,N,A*18
20220704 210654+00:00 $IIMDA,29.9,I,1.014,B,11.1,C,,C,91.9,,,C,,T,,M,,N,,M*2C
20220704 210654+00:00 $HCHDT,111.2,T*2A
20220704 210654+00:00 $GPRMC,210650,A,4822.7400,N,12409.9300,W,8.2,112,040722,11.9,E,A,V*54
20220704 210654+00:00 $WIMWV,31.9,R,5.89,N,A*2C
20220704 210656+00:00 $IIMDA,29.9,I,1.014,B,11.1,C,,C,91.9,,,C,,T,,M,,N,,M*2C
20220704 210656+00:00 $HCHDT,111.1,T*29
20220704 210656+00:00 $GPRMC,210652,A,4822.7400,N,12409.9198,W,8.2,112,040722,11.9,E,A,V*55
20220704 210656+00:00 $WIMWV,39.9,R,5.6,N,A*13
20220704 210658+00:00 $IIMDA,29.9,I,1.014,B,11.1,C,,C,91.9,,,C,,T,,M,,N,,M*2C
20220704 210658+00:00 $HCHDT,110.9,T*20
20220704 210658+00:00 $GPRMC,210654,A,4822.7400,N,12409.9198,W,8.2,112,040722,11.9,E,A,V*53
20220704 210658+00:00 $WIMWV,39.1,R,5.99,N,A*2D
20220704 210700+00:00 $IIMDA,29.9,I,1.014,B,11.1,C,,C,91.9,,,C,,T,,M,,N,,M*2C
20220704 210700+00:00 $HCHDT,111,T*36
20220704 210700+00:00 $GPRMC,210656,A,4822.7400,N,12409.9096,W,8.11,112,040722,11.9,E,A,V*6C
20220704 210700+00:00 $WIMWV,32.3,R,6.49,N,A*2A
20220704 210702+00:00 $IIMDA,29.9,I,1.014,B,11.1,C,,C,91.9,,,C,,T,,M,,N,,M*2C
20220704 210702+00:00 $HCHDT,110.8,T*21
20220704 210702+00:00 $GPRMC,210658,A,4822.7298,N,12409.9000,W,8.11,112,040722,11.9,E,A,V*6A
20220704 210702+00:00 $WIMWV,34.39,R,6.3,N,A*2B
20220704 210704+00:00 $IIMDA,29.9,I,1.014,B,11.1,C,,C,91.9,,,C,,T,,M,,N,,M*2C
20220704 210704+00:00 $HCHDT,110.8,T*21
20220704 210704+00:00 $GPRMC,210700,A,4822.7298,N,12409.9000,W,8.11,111,040722,11.9,E,A,V*65
20220704 210704+00:00 $WIMWV,30.8,R,6.4,N,A*1A
20220704 210706+00:00 $IIMDA,29.9,I,1.014,B,11.1,C,,C,91.9,,,C,,T,,M,,N,,M*2C
20220704 210706+00:00 $HCHDT,110.9,T*20
20220704 210706+00:00 $GPRMC,210702,A,4822.7298,N,12409.8898,W,8.2,111,040722,11.9,E,A,V*5D
20220704 210706+00:00 $WIMWV,35.4,R,6.4,N,A*13
20220704 210708+00:00 $IIMDA,29.9,I,1.014,B,11.1,C,,C,91.9,,,C,,T,,M,,N,,M*2C
20220704 210708+00:00 $HCHDT,111,T*36
20220704 210708+00:00 $GPRMC,210704,A,4822.7298,N,12409.8898,W,8.2,111,040722,11.9,E,A,V*5B
20220704 210708+00:00 $WIMWV,36.1,R,6.59,N,A*2D
20220704 210710+00:00 $IIMDA,29.9,I,1.014,B,11.1,C,,C,91.9,,,C,,T,,M,,N,,M*2C
20220704 210710+00:00 $HCHDT,111.1,T*29
20220704 210710+00:00 $GPRMC,210706,A,4822.7298,N,12409.8796,W,8.2,111,040722,11.9,E,A,V*58
20220704 210710+00:00 $WIMWV,32.4,R,6.3,N,A*13
20220704 210712+00:00 $IIMDA,29.9,I,1.014,B,11.1,C,,C,91.9,,,C,,T,,M,,N,,M*2C
20220704 210712+00:00 $HCHDT,111.1,T*29
20220704 210712+00:00 $GPRMC,210708,A,4822.7298,N,12409.8700,W,8.2,111,040722,11.9,E,A,V*59
20220704 210712+00:00 $WIMWV,32.9,R,7,N,A*02
20220704 210714+00:00 $IIMDA,29.9,I,1.014,B,11.1,C,,C,91.9,,,C,,T,,M,,N,,M*2C
20220704 210714+00:00 $HCHDT,110.9,T*20
20220704 210714+00:00 $GPRMC,210710,A,4822.7196,N,12409.8700,W,8.11,111,040722,11.9,E,A,V*6F
20220704 210714+00:00 $WIMWV,34.6,R,6.88,N,A*24
20220704 210716+00:00 $IIMDA,29.9,I,1.014,B,11.1,C,,C,91.9,,,C,,T,,M,,N,,M*2C
20220704 210716+00:00 $HCHDT,110.8,T*21
20220704 210716+00:00 $GPRMC,210712,A,4822.7196,N,12409.8598,W,8.11,111,040722,11.9,E,A,V*6E
20220704 210716+00:00 $WIMWV,32.4,R,6.59,N,A*2C
20220704 210718+00:00 $IIMDA,29.9,I,1.014,B,11.1,C,,C,91.9,,,C,,T,,M,,N,,M*2C
20220704 210718+00:00 $HCHDT,111,T*36
20220704 210718+00:00 $GPRMC,210714,A,4822.7196,N,12409.8496,W,8.11,111,040722,11.9,E,A,V*67
20220704 210718+00:00 $WIMWV,33.09,R,6.69,N,A*13
20220704 210720+00:00 $IIMDA,29.9,I,1.014,B,11.1,C,,C,91.9,,,C,,T,,M,,N,,M*2C
20220704 210720+00:00 $HCHDT,110.9,T*20
20220704 210720+00:00 $GPRMC,210716,A,4822.7196,N,12409.8496,W,8.2,111,040722,11.9,E,A,V*57
20220704 210720+00:00 $WIMWV,42.1,R,5.89,N,A*20
20220704 210722+00:00 $IIMDA,29.9,I,1.014,B,11.1,C,,C,91.9,,,C,,T,,M,,N,,M*2C
20220704 210722+00:00 $HCHDT,110.5,T*2C
20220704 210722+00:00 $GPRMC,210718,A,4822.7196,N,12409.8400,W,8.2,111,040722,11.9,E,A,V*56
20220704 210722+00:00 $WIMWV,46.4,R,5.79,N,A*2E
20220704 210724+00:00 $IIMDA,29.9,I,1.014,B,11.1,C,,C,91.9,,,C,,T,,M,,N,,M*2C
20220704 210724+00:00 $HCHDT,110.3,T*2A
20220704 210724+00:00 $GPRMC,210720,A,4822.7196,N,12409.8400,W,8.2,111,040722,11.9,E,A,V*5D
20220704 210724+00:00 $WIMWV,35.4,R,7.89,N,A*27
20220704 210726+00:00 $IIMDA,29.9,I,1.014,B,11.1,C,,C,91.9,,,C,,T,,M,,N,,M*2C
20220704 210726+00:00 $HCHDT,110.5,T*2C
20220704 210726+00:00 $GPRMC,210722,A,4822.7100,N,12409.8298,W,8.11,111,040722,11.9,E,A,V*65
20220704 210726+00:00 $WIMWV,39.9,R,6.4,N,A*12
20220704 210728+00:00 $IIMDA,29.9,I,1.014,B,11.1,C,,C,91.9,,,C,,T,,M,,N,,M*2C
20220704 210728+00:00 $HCHDT,110.5,T*2C
20220704 210728+00:00 $GPRMC,210724,A,4822.7100,N,12409.8196,W,8.11,111,040722,11.9,E,A,V*6E
20220704 210728+00:00 $WIMWV,39.4,R,8.18,N,A*2C
20220704 210730+00:00 $IIMDA,29.9,I,1.014,B,11.1,C,,C,91.9,,,C,,T,,M,,N,,M*2C
20220704 210730+00:00 $HCHDT,110.6,T*2F
20220704 210730+00:00 $GPRMC,210726,A,4822.7100,N,12409.8196,W,8.11,111,040722,11.9,E,A,V*6C
20220704 210730+00:00 $WIMWV,32.1,R,6.88,N,A*25
20220704 210732+00:00 $IIMDA,29.9,I,1.014,B,11.1,C,,C,91.9,,,C,,T,,M,,N,,M*2C
20220704 210732+00:00 $HCHDT,110.4,T*2D
20220704 210732+00:00 $GPRMC,210728,A,4822.7100,N,12409.8100,W,8.11,111,040722,11.9,E,A,V*6D
20220704 210732+00:00 $WIMWV,33.6,R,7.99,N,A*22
20220704 210734+00:00 $IIMDA,29.9,I,1.014,B,11.1,C,,C,91.9,,,C,,T,,M,,N,,M*2C
20220704 210734+00:00 $HCHDT,110.3,T*2A
20220704 210734+00:00 $GPRMC,210730,A,4822.7100,N,12409.7998,W,8.2,111,040722,11.9,E,A,V*50
20220704 210734+00:00 $WIMWV,31.3,R,6.59,N,A*28
20220704 210736+00:00 $IIMDA,29.9,I,1.014,B,11.1,C,,C,91.9,,,C,,T,,M,,N,,M*2C
20220704 210736+00:00 $HCHDT,110.3,T*2A
20220704 210736+00:00 $GPRMC,210732,A,4822.7100,N,12409.7998,W,8.2,110,040722,11.9,E,A,V*53
20220704 210736+00:00 $WIMWV,34.1,R,6.49,N,A*2E
20220704 210738+00:00 $IIMDA,29.9,I,1.014,B,11.1,C,,C,91.9,,,C,,T,,M,,N,,M*2C
20220704 210738+00:00 $HCHDT,110.5,T*2C
20220704 210738+00:00 $GPRMC,210734,A,4822.7100,N,12409.7896,W,8.2,110,040722,11.9,E,A,V*5A
20220704 210738+00:00 $WIMWV,31.9,R,6.69,N,A*21
20220704 210740+00:00 $IIMDA,29.9,I,1.014,B,11.1,C,,C,91.9,,,C,,T,,M,,N,,M*2C
20220704 210740+00:00 $HCHDT,110.5,T*2C
20220704 210740+00:00 $GPRMC,210736,A,4822.6998,N,12409.7800,W,8.2,110,040722,11.9,E,A,V*5F
20220704 210740+00:00 $WIMWV,32.4,R,7.1,N,A*10
20220704 210742+00:00 $IIMDA,29.9,I,1.014,B,11.1,C,,C,91.9,,,C,,T,,M,,N,,M*2C
20220704 210742+00:00 $HCHDT,110.4,T*2D
20220704 210742+00:00 $GPRMC,210738,A,4822.6998,N,12409.7800,W,8.11,110,040722,11.9,E,A,V*63
20220704 210742+00:00 $WIMWV,39.1,R,7.99,N,A*2F
