20220704 080001+00:00 $IIMDA,29.9,I,1.011,B,11.7,C,,C,92.8,,,C,,T,,M,,N,,M*2D
20220704 080001+00:00 $HCHDT,134.7,T*28
20220704 080001+00:00 $GPRMC,075956,A,4918.4098,N,12641.3298,W,8.9,141,040722,12.3,E,A,V*52
20220704 080001+00:00 $WIMWV,143.59,R,0.8,N,A*11
20220704 080003+00:00 $IIMDA,29.9,I,1.011,B,11.7,C,,C,92.8,,,C,,T,,M,,N,,M*2D
20220704 080003+00:00 $HCHDT,134.6,T*29
20220704 080003+00:00 $GPRMC,075958,A,4918.3996,N,12641.3298,W,8.9,140,040722,12.3,E,A,V*5D
20220704 080003+00:00 $WIMWV,120.49,R,1.89,N,A*2D
20220704 080005+00:00 $IIMDA,29.9,I,1.011,B,11.7,C,,C,92.8,,,C,,T,,M,,N,,M*2D
20220704 080005+00:00 $HCHDT,135.1,T*2F
20220704 080005+00:00 $GPRMC,080000,A,4918.3996,N,12641.3196,W,8.9,140,040722,12.3,E,A,V*5E
20220704 080005+00:00 $WIMWV,54.29,R,0.39,N,A*13
20220704 080007+00:00 $IIMDA,29.9,I,1.011,B,11.7,C,,C,92.8,,,C,,T,,M,,N,,M*2D
20220704 080007+00:00 $HCHDT,135.5,T*2B
20220704 080007+00:00 $GPRMC,080002,A,4918.3996,N,12641.3196,W,8.9,140,040722,12.3,E,A,V*5C
20220704 080007+00:00 $WIMWV,6.39,R,2.2,N,A*1F
20220704 080009+00:00 $IIMDA,29.9,I,1.011,B,11.7,C,,C,92.8,,,C,,T,,M,,N,,M*2D
20220704 080009+00:00 $HCHDT,135.5,T*2B
20220704 080009+00:00 $GPRMC,080004,A,4918.3900,N,12641.3196,W,8.9,140,040722,12.3,E,A,V*55
20220704 080009+00:00 $WIMWV,112.99,R,1.5,N,A*15
20220704 080011+00:00 $IIMDA,29.9,I,1.011,B,11.7,C,,C,92.8,,,C,,T,,M,,N,,M*2D
20220704 080011+00:00 $HCHDT,135.5,T*2B
20220704 080011+00:00 $GPRMC,080006,A,4918.3900,N,12641.3100,W,8.9,140,040722,12.3,E,A,V*58
20220704 080011+00:00 $WIMWV,124.19,R,1.98,N,A*2C
20220704 080013+00:00 $IIMDA,29.9,I,1.011,B,11.7,C,,C,92.8,,,C,,T,,M,,N,,M*2D
20220704 080013+00:00 $HCHDT,135.5,T*2B
20220704 080013+00:00 $GPRMC,080008,A,4918.3798,N,12641.2998,W,8.9,139,040722,12.3,E,A,V*5F
20220704 080013+00:00 $WIMWV,98.5,R,1.69,N,A*29
20220704 080015+00:00 $IIMDA,29.9,I,1.011,B,11.7,C,,C,92.8,,,C,,T,,M,,N,,M*2D
20220704 080015+00:00 $HCHDT,134.9,T*26
20220704 080015+00:00 $GPRMC,080010,A,4918.3798,N,12641.2998,W,8.9,139,040722,12.3,E,A,V*56
20220704 080015+00:00 $WIMWV,27.1,R,1.59,N,A*2A
20220704 080017+00:00 $IIMDA,29.9,I,1.011,B,11.7,C,,C,92.8,,,C,,T,,M,,N,,M*2D
20220704 080017+00:00 $HCHDT,133.6,T*2E
20220704 080017+00:00 $GPRMC,080012,A,4918.3798,N,12641.2998,W,8.9,139,040722,12.3,E,A,V*54
20220704 080017+00:00 $WIMWV,140.99,R,1.09,N,A*2E
20220704 080019+00:00 $IIMDA,29.9,I,1.011,B,11.7,C,,C,92.8,,,C,,T,,M,,N,,M*2D
20220704 080019+00:00 $HCHDT,132,T*37
20220704 080019+00:00 $GPRMC,080014,A,4918.3696,N,12641.2896,W,8.9,139,040722,12.3,E,A,V*52
20220704 080019+00:00 $WIMWV,42.3,R,2.29,N,A*2F
20220704 080021+00:00 $IIMDA,29.9,I,1.011,B,11.7,C,,C,92.9,,,C,,T,,M,,N,,M*2C
20220704 080021+00:00 $HCHDT,130.4,T*2F
20220704 080021+00:00 $GPRMC,080016,A,4918.3696,N,12641.2896,W,8.9,139,040722,12.3,E,A,V*50
20220704 080021+00:00 $WIMWV,112.49,R,1.09,N,A*24
20220704 080023+00:00 $IIMDA,29.9,I,1.011,B,11.7,C,,C,92.9,,,C,,T,,M,,N,,M*2C
20220704 080023+00:00 $HCHDT,129.3,T*20
20220704 080023+00:00 $GPRMC,080018,A,4918.3696,N,12641.2800,W,8.81,138,040722,12.3,E,A,V*60
20220704 080023+00:00 $WIMWV,320.69,R,0.58,N,A*20
20220704 080025+00:00 $IIMDA,29.9,I,1.011,B,11.7,C,,C,92.9,,,C,,T,,M,,N,,M*2C
20220704 080025+00:00 $HCHDT,128.8,T*2A
20220704 080025+00:00 $GPRMC,080020,A,4918.3600,N,12641.2698,W,8.81,137,040722,12.3,E,A,V*64
20220704 080025+00:00 $WIMWV,342.39,R,1.28,N,A*27
20220704 080027+00:00 $IIMDA,29.9,I,1.011,B,11.7,C,,C,92.9,,,C,,T,,M,,N,,M*2C
20220704 080027+00:00 $HCHDT,128.5,T*27
20220704 080027+00:00 $GPRMC,080022,A,4918.3600,N,12641.2698,W,8.81,136,040722,12.3,E,A,V*67
20220704 080027+00:00 $WIMWV,15.5,R,0.89,N,A*23
20220704 080029+00:00 $IIMDA,29.9,I,1.011,B,11.7,C,,C,92.9,,,C,,T,,M,,N,,M*2C
20220704 080029+00:00 $HCHDT,128.2,T*20
20220704 080029+00:00 $GPRMC,080024,A,4918.3600,N,12641.2596,W,8.81,135,040722,12.3,E,A,V*6F
20220704 080029+00:00 $WIMWV,47.4,R,0.29,N,A*2F
20220704 080031+00:00 $IIMDA,29.9,I,1.011,B,11.7,C,,C,92.9,,,C,,T,,M,,N,,M*2C
20220704 080031+00:00 $HCHDT,128.2,T*20
20220704 080031+00:00 $GPRMC,080026,A,4918.3498,N,12641.2596,W,8.81,134,040722,12.3,E,A,V*6F
20220704 080031+00:00 $WIMWV,121.2,R,0.58,N,A*1E
20220704 080033+00:00 $IIMDA,29.9,I,1.011,B,11.7,C,,C,92.9,,,C,,T,,M,,N,,M*2C
20220704 080033+00:00 $HCHDT,128,T*3C
20220704 080033+00:00 $GPRMC,080028,A,4918.3498,N,12641.2500,W,8.81,133,040722,12.3,E,A,V*69
20220704 080033+00:00 $WIMWV,328.59,R,0.39,N,A*2C
20220704 080035+00:00 $IIMDA,29.9,I,1.011,B,11.7,C,,C,93,,,C,,T,,M,,N,,M*3A
20220704 080035+00:00 $HCHDT,128.1,T*23
20220704 080035+00:00 $GPRMC,080030,A,4918.3498,N,12641.2500,W,8.81,133,040722,12.3,E,A,V*60
20220704 080035+00:00 $WIMWV,226.39,R,0.39,N,A*25
20220704 080037+00:00 $IIMDA,29.9,I,1.011,B,11.7,C,,C,93,,,C,,T,,M,,N,,M*3A
20220704 080037+00:00 $HCHDT,128.8,T*2A
20220704 080037+00:00 $GPRMC,080032,A,4918.3396,N,12641.2398,W,8.81,133,040722,12.3,E,A,V*6C
20220704 080037+00:00 $WIMWV,117.59,R,0.49,N,A*25
20220704 080039+00:00 $IIMDA,29.9,I,1.011,B,11.7,C,,C,93,,,C,,T,,M,,N,,M*3A
20220704 080039+00:00 $HCHDT,129.1,T*22
20220704 080039+00:00 $GPRMC,080034,A,4918.3396,N,12641.2398,W,8.9,133,040722,12.3,E,A,V*5A
20220704 080039+00:00 $WIMWV,334.89,R,0.89,N,A*27
20220704 080041+00:00 $IIMDA,29.9,I,1.011,B,11.7,C,,C,93,,,C,,T,,M,,N,,M*3A
20220704 080041+00:00 $HCHDT,129.5,T*26
20220704 080041+00:00 $GPRMC,080036,A,4918.3396,N,12641.2296,W,8.9,133,040722,12.3,E,A,V*57
20220704 080041+00:00 $WIMWV,144.49,R,1.59,N,A*22
20220704 080043+00:00 $IIMDA,29.9,I,1.011,B,11.7,C,,C,93,,,C,,T,,M,,N,,M*3A
20220704 080043+00:00 $HCHDT,129.9,T*2A
20220704 080043+00:00 $GPRMC,080038,A,4918.3300,N,12641.2200,W,9,133,040722,12.3,E,A,V*4F
20220704 080043+00:00 $WIMWV,117.19,R,0.8,N,A*14
20220704 080045+00:00 $IIMDA,29.9,I,1.011,B,11.7,C,,C,93.1,,,C,,T,,M,,N,,M*25
20220704 080045+00:00 $HCHDT,130,T*35
20220704 080045+00:00 $GPRMC,080040,A,4918.3300,N,12641.2200,W,9,133,040722,12.3,E,A,V*40
20220704 080045+00:00 $WIMWV,111.6,R,0.49,N,A*19
20220704 080047+00:00 $IIMDA,29.9,I,1.011,B,11.7,C,,C,93,,,C,,T,,M,,N,,M*3A
20220704 080047+00:00 $HCHDT,130,T*35
20220704 080047+00:00 $GPRMC,080042,A,4918.3300,N,12641.2098,W,9,133,040722,12.3,E,A,V*41
20220704 080047+00:00 $WIMWV,130.3,R,0.8,N,A*2A
20220704 080049+00:00 $IIMDA,29.9,I,1.011,B,11.7,C,,C,93,,,C,,T,,M,,N,,M*3A
20220704 080049+00:00 $HCHDT,130.4,T*2F
20220704 080049+00:00 $GPRMC,080044,A,4918.3198,N,12641.2098,W,9,133,040722,12.3,E,A,V*44
20220704 080049+00:00 $WIMWV,123.2,R,1.28,N,A*1A
20220704 080051+00:00 $IIMDA,29.9,I,1.011,B,11.7,C,,C,93.1,,,C,,T,,M,,N,,M*25
20220704 080051+00:00 $HCHDT,130.9,T*22
20220704 080051+00:00 $GPRMC,080046,A,4918.3198,N,12641.1996,W,9,134,040722,12.3,E,A,V*45
20220704 080051+00:00 $WIMWV,91.7,R,0.8,N,A*14
20220704 080053+00:00 $IIMDA,29.9,I,1.011,B,11.7,C,,C,93,,,C,,T,,M,,N,,M*3A
20220704 080053+00:00 $HCHDT,130.9,T*22
20220704 080053+00:00 $GPRMC,080048,A,4918.3198,N,12641.1996,W,9,134,040722,12.3,E,A,V*4B
20220704 080053+00:00 $WIMWV,72.9,R,1.59,N,A*22
20220704 080055+00:00 $IIMDA,29.9,I,1.011,B,11.7,C,,C,93.1,,,C,,T,,M,,N,,M*25
20220704 080055+00:00 $HCHDT,130.3,T*28
20220704 080055+00:00 $GPRMC,080050,A,4918.3096,N,12641.1900,W,9,134,040722,12.3,E,A,V*42
20220704 080055+00:00 $WIMWV,69.2,R,0.39,N,A*24
20220704 080057+00:00 $IIMDA,29.9,I,1.011,B,11.7,C,,C,93,,,C,,T,,M,,N,,M*3A
20220704 080057+00:00 $HCHDT,129.9,T*2A
20220704 080057+00:00 $GPRMC,080052,A,4918.3096,N,12641.1900,W,9,135,040722,12.3,E,A,V*41
20220704 080057+00:00 $WIMWV,127.79,R,1.19,N,A*20
20220704 080059+00:00 $IIMDA,29.9,I,1.011,B,11.7,C,,C,93.1,,,C,,T,,M,,N,,M*25
20220704 080059+00:00 $HCHDT,129.5,T*26
20220704 080059+00:00 $GPRMC,080054,A,4918.3096,N,12641.1798,W,8.9,134,040722,12.3,E,A,V*5F
20220704 080059+00:00 $WIMWV,91.7,R,0.89,N,A*2D
20220704 080101+00:00 $IIMDA,29.9,I,1.011,B,11.7,C,,C,93.1,,,C,,T,,M,,N,,M*25
20220704 080101+00:00 $HCHDT,128.3,T*21
20220704 080101+00:00 $GPRMC,080056,A,4918.3000,N,12641.1798,W,8.9,134,040722,12.3,E,A,V*52
20220704 080101+00:00 $WIMWV,66.9,R,0.99,N,A*2A
20220704 080103+00:00 $IIMDA,29.9,I,1.011,B,11.7,C,,C,93.1,,,C,,T,,M,,N,,M*25
20220704 080103+00:00 $HCHDT,127.1,T*2C
20220704 080103+00:00 $GPRMC,080058,A,4918.3000,N,12641.1696,W,8.9,134,040722,12.3,E,A,V*53
20220704 080103+00:00 $WIMWV,15.9,R,1.4,N,A*1B
20220704 080105+00:00 $IIMDA,29.9,I,1.011,B,11.7,C,,C,93.1,,,C,,T,,M,,N,,M*25
20220704 080105+00:00 $HCHDT,125.9,T*26
20220704 080105+00:00 $GPRMC,080100,A,4918.3000,N,12641.1600,W,8.9,134,040722,12.3,E,A,V*50
20220704 080105+00:00 $WIMWV,111.1,R,0.7,N,A*24
20220704 080107+00:00 $IIMDA,29.9,I,1.011,B,11.7,C,,C,93.1,,,C,,T,,M,,N,,M*25
20220704 080107+00:00 $HCHDT,125.3,T*2C
20220704 080107+00:00 $GPRMC,080102,A,4918.2898,N,12641.1600,W,8.81,133,040722,12.3,E,A,V*6D
20220704 080107+00:00 $WIMWV,64.39,R,0.49,N,A*16
20220704 080109+00:00 $IIMDA,29.9,I,1.011,B,11.7,C,,C,93.1,,,C,,T,,M,,N,,M*25
20220704 080109+00:00 $HCHDT,124.9,T*27
20220704 080109+00:00 $GPRMC,080104,A,4918.2898,N,12641.1498,W,8.81,132,040722,12.3,E,A,V*69
20220704 080109+00:00 $WIMWV,106.2,R,1.09,N,A*1E
20220704 080111+00:00 $IIMDA,29.9,I,1.011,B,11.7,C,,C,93.1,,,C,,T,,M,,N,,M*25
20220704 080111+00:00 $HCHDT,125.2,T*2D
20220704 080111+00:00 $GPRMC,080106,A,4918.2898,N,12641.1498,W,8.81,132,040722,12.3,E,A,V*6B
20220704 080111+00:00 $WIMWV,31.6,R,0.7,N,A*10
20220704 080113+00:00 $IIMDA,29.9,I,1.011,B,11.8,C,,C,93.2,,,C,,T,,M,,N,,M*29
20220704 080113+00:00 $HCHDT,126,T*32
20220704 080113+00:00 $GPRMC,080108,A,4918.2796,N,12641.1396,W,8.81,131,040722,12.3,E,A,V*6E
20220704 080113+00:00 $WIMWV,340.39,R,1.28,N,A*25
20220704 080115+00:00 $IIMDA,29.9,I,1.011,B,11.8,C,,C,93.2,,,C,,T,,M,,N,,M*29
20220704 080115+00:00 $HCHDT,127.1,T*2C
20220704 080115+00:00 $GPRMC,080110,A,4918.2796,N,12641.1396,W,8.81,131,040722,12.3,E,A,V*67
20220704 080115+00:00 $WIMWV,117.9,R,1.09,N,A*15
20220704 080117+00:00 $IIMDA,29.9,I,1.011,B,11.8,C,,C,93.2,,,C,,T,,M,,N,,M*29
20220704 080117+00:00 $HCHDT,127.2,T*2F
20220704 080117+00:00 $GPRMC,080112,A,4918.2796,N,12641.1300,W,8.81,131,040722,12.3,E,A,V*6A
20220704 080117+00:00 $WIMWV,4.1,R,1.79,N,A*19
20220704 080119+00:00 $IIMDA,29.9,I,1.011,B,11.8,C,,C,93.2,,,C,,T,,M,,N,,M*29
20220704 080119+00:00 $HCHDT,127.2,T*2F
20220704 080119+00:00 $GPRMC,080114,A,4918.2700,N,12641.1198,W,8.81,131,040722,12.3,E,A,V*60
20220704 080119+00:00 $WIMWV,32.5,R,0.8,N,A*1F
20220704 080121+00:00 $IIMDA,29.9,I,1.011,B,11.8,C,,C,93.3,,,C,,T,,M,,N,,M*28
20220704 080121+00:00 $HCHDT,126.9,T*25
20220704 080121+00:00 $GPRMC,080116,A,4918.2700,N,12641.1198,W,8.9,131,040722,12.3,E,A,V*52
20220704 080121+00:00 $WIMWV,116.89,R,0.89,N,A*25
20220704 080123+00:00 $IIMDA,29.9,I,1.011,B,11.8,C,,C,93.2,,,C,,T,,M,,N,,M*29
20220704 080123+00:00 $HCHDT,126.8,T*24
20220704 080123+00:00 $GPRMC,080118,A,4918.2700,N,12641.1096,W,8.9,131,040722,12.3,E,A,V*53
20220704 080123+00:00 $WIMWV,57.2,R,0.39,N,A*29
20220704 080125+00:00 $IIMDA,29.9,I,1.011,B,11.8,C,,C,93.3,,,C,,T,,M,,N,,M*28
20220704 080125+00:00 $HCHDT,127.1,T*2C
20220704 080125+00:00 $GPRMC,080120,A,4918.2598,N,12641.1096,W,8.9,131,040722,12.3,E,A,V*5B
20220704 080125+00:00 $WIMWV,9.4,R,1.79,N,A*11
20220704 080127+00:00 $IIMDA,29.9,I,1.011,B,11.8,C,,C,93.2,,,C,,T,,M,,N,,M*29
20220704 080127+00:00 $HCHDT,127.4,T*29
20220704 080127+00:00 $GPRMC,080122,A,4918.2598,N,12641.1000,W,8.9,131,040722,12.3,E,A,V*56
20220704 080127+00:00 $WIMWV,346.59,R,2.2,N,A*1E
20220704 080129+00:00 $IIMDA,29.9,I,1.011,B,11.8,C,,C,93.2,,,C,,T,,M,,N,,M*29
20220704 080129+00:00 $HCHDT,127.1,T*2C
20220704 080129+00:00 $GPRMC,080124,A,4918.2598,N,12641.1000,W,8.9,132,040722,12.3,E,A,V*53
20220704 080129+00:00 $WIMWV,0.19,R,1.28,N,A*20
20220704 080131+00:00 $IIMDA,29.9,I,1.011,B,11.8,C,,C,93.2,,,C,,T,,M,,N,,M*29
20220704 080131+00:00 $HCHDT,125.7,T*28
20220704 080131+00:00 $GPRMC,080126,A,4918.2496,N,12641.0898,W,8.9,132,040722,12.3,E,A,V*56
20220704 080131+00:00 $WIMWV,0.19,R,0.7,N,A*1C
20220704 080133+00:00 $IIMDA,29.9,I,1.011,B,11.8,C,,C,93.2,,,C,,T,,M,,N,,M*29
20220704 080133+00:00 $HCHDT,125.1,T*2E
20220704 080133+00:00 $GPRMC,080128,A,4918.2496,N,12641.0796,W,8.9,131,040722,12.3,E,A,V*5A
20220704 080133+00:00 $WIMWV,320.39,R,0.7,N,A*1F
20220704 080135+00:00 $IIMDA,29.9,I,1.011,B,11.8,C,,C,93.2,,,C,,T,,M,,N,,M*29
20220704 080135+00:00 $HCHDT,125.6,T*29
20220704 080135+00:00 $GPRMC,080130,A,4918.2496,N,12641.0796,W,8.9,131,040722,12.3,E,A,V*53
20220704 080135+00:00 $WIMWV,348.59,R,0.7,N,A*17
20220704 080137+00:00 $IIMDA,29.9,I,1.011,B,11.8,C,,C,93.2,,,C,,T,,M,,N,,M*29
20220704 080137+00:00 $HCHDT,126,T*32
20220704 080137+00:00 $GPRMC,080132,A,4918.2400,N,12641.0700,W,8.9,131,040722,12.3,E,A,V*51
20220704 080137+00:00 $WIMWV,25.7,R,0.8,N,A*1B
20220704 080139+00:00 $IIMDA,29.9,I,1.011,B,11.8,C,,C,93.2,,,C,,T,,M,,N,,M*29
20220704 080139+00:00 $HCHDT,125.7,T*28
20220704 080139+00:00 $GPRMC,080134,A,4918.2400,N,12641.0700,W,8.9,131,040722,12.3,E,A,V*57
20220704 080139+00:00 $WIMWV,180.6,R,0.99,N,A*1C
20220704 080141+00:00 $IIMDA,29.9,I,1.011,B,11.8,C,,C,93.2,,,C,,T,,M,,N,,M*29
20220704 080141+00:00 $HCHDT,125.4,T*2B
20220704 080141+00:00 $GPRMC,080136,A,4918.2400,N,12641.0598,W,8.9,131,040722,12.3,E,A,V*56
20220704 080141+00:00 $WIMWV,0.19,R,0.29,N,A*20
20220704 080143+00:00 $IIMDA,29.9,I,1.011,B,11.8,C,,C,93.2,,,C,,T,,M,,N,,M*29
20220704 080143+00:00 $HCHDT,125.3,T*2C
20220704 080143+00:00 $GPRMC,080138,A,4918.2298,N,12641.0598,W,8.9,131,040722,12.3,E,A,V*5F
20220704 080143+00:00 $WIMWV,138.39,R,0.39,N,A*29
20220704 080145+00:00 $IIMDA,29.9,I,1.011,B,11.8,C,,C,93.2,,,C,,T,,M,,N,,M*29
20220704 080145+00:00 $HCHDT,125.9,T*26
20220704 080145+00:00 $GPRMC,080140,A,4918.2298,N,12641.0496,W,8.9,130,040722,12.3,E,A,V*5E
20220704 080145+00:00 $WIMWV,116.29,R,0.39,N,A*24
20220704 080147+00:00 $IIMDA,29.9,I,1.011,B,11.8,C,,C,93.2,,,C,,T,,M,,N,,M*29
20220704 080147+00:00 $HCHDT,126.2,T*2E
20220704 080147+00:00 $GPRMC,080142,A,4918.2298,N,12641.0400,W,8.9,130,040722,12.3,E,A,V*53
20220704 080147+00:00 $WIMWV,57.79,R,1.09,N,A*17
20220704 080149+00:00 $IIMDA,29.9,I,1.011,B,11.8,C,,C,93.2,,,C,,T,,M,,N,,M*29
20220704 080149+00:00 $HCHDT,126.6,T*2A
20220704 080149+00:00 $GPRMC,080144,A,4918.2298,N,12641.0400,W,8.9,130,040722,12.3,E,A,V*55
20220704 080149+00:00 $WIMWV,63.5,R,0.39,N,A*29
20220704 080151+00:00 $IIMDA,29.9,I,1.011,B,11.8,C,,C,93.1,,,C,,T,,M,,N,,M*2A
20220704 080151+00:00 $HCHDT,126.1,T*2D
20220704 080151+00:00 $GPRMC,080146,A,4918.2196,N,12641.0298,W,8.9,130,040722,12.3,E,A,V*5D
20220704 080151+00:00 $WIMWV,352.79,R,0.99,N,A*29
20220704 080153+00:00 $IIMDA,29.9,I,1.011,B,11.8,C,,C,93.1,,,C,,T,,M,,N,,M*2A
20220704 080153+00:00 $HCHDT,125.1,T*2E
20220704 080153+00:00 $GPRMC,080148,A,4918.2196,N,12641.0298,W,8.9,130,040722,12.3,E,A,V*53
20220704 080153+00:00 $WIMWV,126.39,R,0.99,N,A*2C
20220704 080155+00:00 $IIMDA,29.9,I,1.011,B,11.8,C,,C,93.2,,,C,,T,,M,,N,,M*29
20220704 080155+00:00 $HCHDT,124.7,T*29
20220704 080155+00:00 $GPRMC,080150,A,4918.2196,N,12641.0196,W,8.9,130,040722,12.3,E,A,V*57
20220704 080155+00:00 $WIMWV,309.79,R,0.29,N,A*2C
20220704 080157+00:00 $IIMDA,29.9,I,1.011,B,11.8,C,,C,93.1,,,C,,T,,M,,N,,M*2A
20220704 080157+00:00 $HCHDT,125.1,T*2E
20220704 080157+00:00 $GPRMC,080152,A,4918.2100,N,12641.0196,W,8.9,130,040722,12.3,E,A,V*5A
20220704 080157+00:00 $WIMWV,239.49,R,0.29,N,A*2D
20220704 080159+00:00 $IIMDA,29.9,I,1.011,B,11.8,C,,C,93.1,,,C,,T,,M,,N,,M*2A
20220704 080159+00:00 $HCHDT,125.1,T*2E
20220704 080159+00:00 $GPRMC,080154,A,4918.2100,N,12641.0100,W,8.9,130,040722,12.3,E,A,V*53
20220704 080159+00:00 $WIMWV,344.09,R,1.09,N,A*21
20220704 080201+00:00 $IIMDA,29.9,I,1.011,B,11.8,C,,C,93.1,,,C,,T,,M,,N,,M*2A
20220704 080201+00:00 $HCHDT,124.9,T*27
20220704 080201+00:00 $GPRMC,080156,A,4918.2100,N,12640.9998,W,8.9,130,040722,12.3,E,A,V*50
20220704 080201+00:00 $WIMWV,0.19,R,0.58,N,A*26
20220704 080203+00:00 $IIMDA,29.9,I,1.011,B,11.8,C,,C,93.1,,,C,,T,,M,,N,,M*2A
20220704 080203+00:00 $HCHDT,124.1,T*2F
20220704 080203+00:00 $GPRMC,080158,A,4918.1998,N,12640.9998,W,8.9,130,040722,12.3,E,A,V*54
20220704 080203+00:00 $WIMWV,150.89,R,0.99,N,A*26
20220704 080205+00:00 $IIMDA,29.9,I,1.011,B,11.8,C,,C,93.1,,,C,,T,,M,,N,,M*2A
20220704 080205+00:00 $HCHDT,123.4,T*2D
20220704 080205+00:00 $GPRMC,080200,A,4918.1998,N,12640.9896,W,8.9,129,040722,12.3,E,A,V*5D
20220704 080205+00:00 $WIMWV,146.09,R,1.4,N,A*1C
20220704 080207+00:00 $IIMDA,29.9,I,1.011,B,11.8,C,,C,93.1,,,C,,T,,M,,N,,M*2A
20220704 080207+00:00 $HCHDT,123.5,T*2C
20220704 080207+00:00 $GPRMC,080202,A,4918.1998,N,12640.9896,W,8.9,129,040722,12.3,E,A,V*5F
20220704 080207+00:00 $WIMWV,0.19,R,1.09,N,A*23
20220704 080209+00:00 $IIMDA,29.9,I,1.011,B,11.8,C,,C,93.1,,,C,,T,,M,,N,,M*2A
20220704 080209+00:00 $HCHDT,123.9,T*20
20220704 080209+00:00 $GPRMC,080204,A,4918.1896,N,12640.9800,W,8.9,128,040722,12.3,E,A,V*58
20220704 080209+00:00 $WIMWV,62.3,R,0.99,N,A*24
20220704 080211+00:00 $IIMDA,29.9,I,1.011,B,11.8,C,,C,93.1,,,C,,T,,M,,N,,M*2A
20220704 080211+00:00 $HCHDT,124.7,T*29
20220704 080211+00:00 $GPRMC,080206,A,4918.1896,N,12640.9698,W,8.9,128,040722,12.3,E,A,V*55
20220704 080211+00:00 $WIMWV,22.9,R,0.49,N,A*27
20220704 080213+00:00 $IIMDA,29.9,I,1.011,B,11.8,C,,C,93.1,,,C,,T,,M,,N,,M*2A
20220704 080213+00:00 $HCHDT,125,T*31
20220704 080213+00:00 $GPRMC,080208,A,4918.1896,N,12640.9698,W,8.9,128,040722,12.3,E,A,V*5B
20220704 080213+00:00 $WIMWV,0.19,R,0.19,N,A*23
20220704 080215+00:00 $IIMDA,29.9,I,1.011,B,11.8,C,,C,93.2,,,C,,T,,M,,N,,M*29
20220704 080215+00:00 $HCHDT,124.9,T*27
20220704 080215+00:00 $GPRMC,080210,A,4918.1800,N,12640.9596,W,8.9,128,040722,12.3,E,A,V*50
20220704 080215+00:00 $WIMWV,0.19,R,0,N,A*05
20220704 080217+00:00 $IIMDA,29.9,I,1.011,B,11.8,C,,C,93.2,,,C,,T,,M,,N,,M*29
20220704 080217+00:00 $HCHDT,125.2,T*2D
20220704 080217+00:00 $GPRMC,080212,A,4918.1800,N,12640.9596,W,8.9,128,040722,12.3,E,A,V*52
20220704 080217+00:00 $WIMWV,14,R,1.4,N,A*0D
20220704 080219+00:00 $IIMDA,29.9,I,1.011,B,11.8,C,,C,93.2,,,C,,T,,M,,N,,M*29
20220704 080219+00:00 $HCHDT,125.6,T*29
20220704 080219+00:00 $GPRMC,080214,A,4918.1800,N,12640.9500,W,9,128,040722,12.3,E,A,V*4D
20220704 080219+00:00 $WIMWV,91.7,R,0.29,N,A*27
20220704 080221+00:00 $IIMDA,29.9,I,1.011,B,11.8,C,,C,93.3,,,C,,T,,M,,N,,M*28
20220704 080221+00:00 $HCHDT,125.6,T*29
20220704 080221+00:00 $GPRMC,080216,A,4918.1800,N,12640.9398,W,8.9,128,040722,12.3,E,A,V*5E
20220704 080221+00:00 $WIMWV,31.9,R,0.49,N,A*25
20220704 080223+00:00 $IIMDA,29.9,I,1.011,B,11.8,C,,C,93.3,,,C,,T,,M,,N,,M*28
20220704 080223+00:00 $HCHDT,125.2,T*2D
20220704 080223+00:00 $GPRMC,080218,A,4918.1698,N,12640.9398,W,8.9,128,040722,12.3,E,A,V*5F
20220704 080223+00:00 $WIMWV,16.8,R,0.49,N,A*21
20220704 080225+00:00 $IIMDA,29.9,I,1.011,B,11.8,C,,C,93.3,,,C,,T,,M,,N,,M*28
20220704 080225+00:00 $HCHDT,124.9,T*27
20220704 080225+00:00 $GPRMC,080220,A,4918.1698,N,12640.9296,W,8.9,129,040722,12.3,E,A,V*5A
20220704 080225+00:00 $WIMWV,26.89,R,0.49,N,A*1B
20220704 080227+00:00 $IIMDA,29.9,I,1.011,B,11.8,C,,C,93.3,,,C,,T,,M,,N,,M*28
20220704 080227+00:00 $HCHDT,124.7,T*29
20220704 080227+00:00 $GPRMC,080222,A,4918.1698,N,12640.9296,W,8.9,129,040722,12.3,E,A,V*58
20220704 080227+00:00 $WIMWV,51.5,R,1.69,N,A*2C
20220704 080229+00:00 $IIMDA,29.9,I,1.011,B,11.8,C,,C,93.3,,,C,,T,,M,,N,,M*28
20220704 080229+00:00 $HCHDT,124.5,T*2B
20220704 080229+00:00 $GPRMC,080224,A,4918.1596,N,12640.9200,W,8.9,129,040722,12.3,E,A,V*5C
20220704 080229+00:00 $WIMWV,144,R,0.49,N,A*01
20220704 080231+00:00 $IIMDA,29.9,I,1.011,B,11.8,C,,C,93.3,,,C,,T,,M,,N,,M*28
20220704 080231+00:00 $HCHDT,124.5,T*2B
20220704 080231+00:00 $GPRMC,080226,A,4918.1596,N,12640.9098,W,8.9,129,040722,12.3,E,A,V*5D
20220704 080231+00:00 $WIMWV,137.19,R,0.7,N,A*19
20220704 080233+00:00 $IIMDA,29.9,I,1.011,B,11.8,C,,C,93.2,,,C,,T,,M,,N,,M*29
20220704 080233+00:00 $HCHDT,124.4,T*2A
20220704 080233+00:00 $GPRMC,080228,A,4918.1596,N,12640.9098,W,9,129,040722,12.3,E,A,V*45
20220704 080233+00:00 $WIMWV,227.09,R,0.7,N,A*1A
20220704 080235+00:00 $IIMDA,29.9,I,1.011,B,11.8,C,,C,93.2,,,C,,T,,M,,N,,M*29
20220704 080235+00:00 $HCHDT,123.9,T*20
20220704 080235+00:00 $GPRMC,080230,A,4918.1500,N,12640.8996,W,9,128,040722,12.3,E,A,V*44
20220704 080235+00:00 $WIMWV,3,R,2.99,N,A*0C
20220704 080237+00:00 $IIMDA,29.9,I,1.011,B,11.9,C,,C,93.2,,,C,,T,,M,,N,,M*28
20220704 080237+00:00 $HCHDT,123.4,T*2D
20220704 080237+00:00 $GPRMC,080232,A,4918.1500,N,12640.8996,W,9,128,040722,12.3,E,A,V*46
20220704 080237+00:00 $WIMWV,0.19,R,3.89,N,A*29
20220704 080239+00:00 $IIMDA,29.9,I,1.011,B,11.9,C,,C,93.2,,,C,,T,,M,,N,,M*28
20220704 080239+00:00 $HCHDT,123.5,T*2C
20220704 080239+00:00 $GPRMC,080234,A,4918.1500,N,12640.8900,W,8.9,128,040722,12.3,E,A,V*59
20220704 080239+00:00 $WIMWV,21.59,R,2.49,N,A*13
20220704 080241+00:00 $IIMDA,29.9,I,1.011,B,11.9,C,,C,93.2,,,C,,T,,M,,N,,M*28
20220704 080241+00:00 $HCHDT,123.9,T*20
20220704 080241+00:00 $GPRMC,080236,A,4918.1398,N,12640.8900,W,8.9,128,040722,12.3,E,A,V*5C
20220704 080241+00:00 $WIMWV,328.99,R,0.99,N,A*2A
20220704 080243+00:00 $IIMDA,29.9,I,1.011,B,11.9,C,,C,93.1,,,C,,T,,M,,N,,M*2B
20220704 080243+00:00 $HCHDT,124.5,T*2B
20220704 080243+00:00 $GPRMC,080238,A,4918.1398,N,12640.8798,W,8.9,128,040722,12.3,E,A,V*5D
20220704 080243+00:00 $WIMWV,302.69,R,0.49,N,A*20
20220704 080245+00:00 $IIMDA,29.9,I,1.011,B,11.9,C,,C,93.1,,,C,,T,,M,,N,,M*2B
20220704 080245+00:00 $HCHDT,124.6,T*28
20220704 080245+00:00 $GPRMC,080240,A,4918.1398,N,12640.8696,W,8.9,128,040722,12.3,E,A,V*5D
20220704 080245+00:00 $WIMWV,354.49,R,3.09,N,A*26
20220704 080247+00:00 $IIMDA,29.9,I,1.011,B,11.9,C,,C,93.1,,,C,,T,,M,,N,,M*2B
20220704 080247+00:00 $HCHDT,124.4,T*2A
20220704 080247+00:00 $GPRMC,080242,A,4918.1398,N,12640.8696,W,8.9,128,040722,12.3,E,A,V*5F
20220704 080247+00:00 $WIMWV,352.79,R,1.5,N,A*1D
20220704 080249+00:00 $IIMDA,29.9,I,1.011,B,11.9,C,,C,93,,,C,,T,,M,,N,,M*34
20220704 080249+00:00 $HCHDT,124.4,T*2A
20220704 080249+00:00 $GPRMC,080244,A,4918.1296,N,12640.8600,W,8.9,128,040722,12.3,E,A,V*59
20220704 080249+00:00 $WIMWV,0.19,R,1.19,N,A*22
20220704 080251+00:00 $IIMDA,29.9,I,1.011,B,11.9,C,,C,93,,,C,,T,,M,,N,,M*34
20220704 080251+00:00 $HCHDT,124.5,T*2B
20220704 080251+00:00 $GPRMC,080246,A,4918.1296,N,12640.8600,W,8.9,128,040722,12.3,E,A,V*5B
20220704 080251+00:00 $WIMWV,346.59,R,0.99,N,A*2E
20220704 080253+00:00 $IIMDA,29.9,I,1.011,B,11.9,C,,C,93,,,C,,T,,M,,N,,M*34
20220704 080253+00:00 $HCHDT,124.3,T*2D
20220704 080253+00:00 $GPRMC,080248,A,4918.1296,N,12640.8498,W,9,128,040722,12.3,E,A,V*40
20220704 080253+00:00 $WIMWV,180.6,R,0.1,N,A*2D
20220704 080255+00:00 $IIMDA,29.9,I,1.011,B,11.9,C,,C,93,,,C,,T,,M,,N,,M*34
20220704 080255+00:00 $HCHDT,124.1,T*2F
20220704 080255+00:00 $GPRMC,080250,A,4918.1200,N,12640.8396,W,9,128,040722,12.3,E,A,V*4F
20220704 080255+00:00 $WIMWV,207.49,R,0.7,N,A*1C
20220704 080257+00:00 $IIMDA,29.9,I,1.011,B,11.9,C,,C,93,,,C,,T,,M,,N,,M*34
20220704 080257+00:00 $HCHDT,124,T*30
20220704 080257+00:00 $GPRMC,080252,A,4918.1200,N,12640.8396,W,9,128,040722,12.3,E,A,V*4D
20220704 080257+00:00 $WIMWV,341.69,R,0.7,N,A*1D
20220704 080259+00:00 $IIMDA,29.9,I,1.011,B,11.9,C,,C,93,,,C,,T,,M,,N,,M*34
20220704 080259+00:00 $HCHDT,124.3,T*2D
20220704 080259+00:00 $GPRMC,080254,A,4918.1200,N,12640.8300,W,9,128,040722,12.3,E,A,V*44
20220704 080259+00:00 $WIMWV,334.19,R,0.58,N,A*22
20220704 080301+00:00 $IIMDA,29.9,I,1.011,B,11.9,C,,C,93,,,C,,T,,M,,N,,M*34
20220704 080301+00:00 $HCHDT,124,T*30
20220704 080301+00:00 $GPRMC,080256,A,4918.1098,N,12640.8300,W,9,128,040722,12.3,E,A,V*45
20220704 080301+00:00 $WIMWV,340.19,R,1.19,N,A*25
20220704 080303+00:00 $IIMDA,29.9,I,1.011,B,11.9,C,,C,93,,,C,,T,,M,,N,,M*34
20220704 080303+00:00 $HCHDT,123.7,T*2E
20220704 080303+00:00 $GPRMC,080258,A,4918.1098,N,12640.8198,W,9,128,040722,12.3,E,A,V*48
20220704 080303+00:00 $WIMWV,348.49,R,1.28,N,A*2A
20220704 080305+00:00 $IIMDA,29.9,I,1.011,B,11.9,C,,C,93,,,C,,T,,M,,N,,M*34
20220704 080305+00:00 $HCHDT,123.8,T*21
20220704 080305+00:00 $GPRMC,080300,A,4918.1098,N,12640.8096,W,9,128,040722,12.3,E,A,V*4B
20220704 080305+00:00 $WIMWV,352.39,R,0.99,N,A*2D
20220704 080307+00:00 $IIMDA,29.9,I,1.011,B,11.9,C,,C,93,,,C,,T,,M,,N,,M*34
20220704 080307+00:00 $HCHDT,123.6,T*2F
20220704 080307+00:00 $GPRMC,080302,A,4918.1098,N,12640.8096,W,9,128,040722,12.3,E,A,V*49
20220704 080307+00:00 $WIMWV,269.99,R,0.29,N,A*25
20220704 080309+00:00 $IIMDA,29.9,I,1.011,B,11.9,C,,C,92.9,,,C,,T,,M,,N,,M*22
20220704 080309+00:00 $HCHDT,123.6,T*2F
20220704 080309+00:00 $GPRMC,080304,A,4918.0996,N,12640.8000,W,9,128,040722,12.3,E,A,V*46
20220704 080309+00:00 $WIMWV,331.89,R,1.4,N,A*16
20220704 080311+00:00 $IIMDA,29.9,I,1.011,B,11.9,C,,C,92.9,,,C,,T,,M,,N,,M*22
20220704 080311+00:00 $HCHDT,123.5,T*2C
20220704 080311+00:00 $GPRMC,080306,A,4918.0996,N,12640.8000,W,9,128,040722,12.3,E,A,V*44
20220704 080311+00:00 $WIMWV,354.69,R,2.29,N,A*27
20220704 080313+00:00 $IIMDA,29.9,I,1.011,B,11.9,C,,C,92.9,,,C,,T,,M,,N,,M*22
20220704 080313+00:00 $HCHDT,123.6,T*2F
20220704 080313+00:00 $GPRMC,080308,A,4918.0996,N,12640.7898,W,9,128,040722,12.3,E,A,V*4C
20220704 080313+00:00 $WIMWV,346.39,R,0.99,N,A*28
20220704 080315+00:00 $IIMDA,29.9,I,1.011,B,11.9,C,,C,92.9,,,C,,T,,M,,N,,M*22
20220704 080315+00:00 $HCHDT,123.6,T*2F
20220704 080315+00:00 $GPRMC,080310,A,4918.0900,N,12640.7796,W,9,127,040722,12.3,E,A,V*44
20220704 080315+00:00 $WIMWV,349.49,R,1.89,N,A*20
20220704 080317+00:00 $IIMDA,29.9,I,1.011,B,11.9,C,,C,92.9,,,C,,T,,M,,N,,M*22
20220704 080317+00:00 $HCHDT,123.9,T*20
20220704 080317+00:00 $GPRMC,080312,A,4918.0900,N,12640.7796,W,9,127,040722,12.3,E,A,V*46
20220704 080317+00:00 $WIMWV,0.19,R,0.49,N,A*26
20220704 080319+00:00 $IIMDA,29.9,I,1.011,B,11.9,C,,C,92.9,,,C,,T,,M,,N,,M*22
20220704 080319+00:00 $HCHDT,124.3,T*2D
20220704 080319+00:00 $GPRMC,080314,A,4918.0900,N,12640.7700,W,9,127,040722,12.3,E,A,V*4F
20220704 080319+00:00 $WIMWV,238.99,R,0.58,N,A*27
20220704 080321+00:00 $IIMDA,29.9,I,1.011,B,11.9,C,,C,92.8,,,C,,T,,M,,N,,M*23
20220704 080321+00:00 $HCHDT,124.5,T*2B
20220704 080321+00:00 $GPRMC,080316,A,4918.0798,N,12640.7598,W,9,127,040722,12.3,E,A,V*41
20220704 080321+00:00 $WIMWV,26.3,R,1.19,N,A*2D
20220704 080323+00:00 $IIMDA,29.9,I,1.011,B,11.9,C,,C,92.8,,,C,,T,,M,,N,,M*23
20220704 080323+00:00 $HCHDT,124.5,T*2B
20220704 080323+00:00 $GPRMC,080318,A,4918.0798,N,12640.7598,W,9,128,040722,12.3,E,A,V*40
20220704 080323+00:00 $WIMWV,23.9,R,0.89,N,A*2A
20220704 080325+00:00 $IIMDA,29.9,I,1.011,B,11.9,C,,C,92.8,,,C,,T,,M,,N,,M*23
20220704 080325+00:00 $HCHDT,124,T*30
20220704 080325+00:00 $GPRMC,080320,A,4918.0798,N,12640.7496,W,8.9,128,040722,12.3,E,A,V*52
20220704 080325+00:00 $WIMWV,158.5,R,1.09,N,A*12
20220704 080327+00:00 $IIMDA,29.9,I,1.011,B,11.9,C,,C,92.8,,,C,,T,,M,,N,,M*23
20220704 080327+00:00 $HCHDT,123.3,T*2A
20220704 080327+00:00 $GPRMC,080322,A,4918.0798,N,12640.7496,W,9,128,040722,12.3,E,A,V*46
20220704 080327+00:00 $WIMWV,91.7,R,0.49,N,A*21
20220704 080329+00:00 $IIMDA,29.9,I,1.011,B,11.9,C,,C,92.8,,,C,,T,,M,,N,,M*23
20220704 080329+00:00 $HCHDT,123.4,T*2D
20220704 080329+00:00 $GPRMC,080324,A,4918.0696,N,12640.7400,W,9,128,040722,12.3,E,A,V*40
20220704 080329+00:00 $WIMWV,8.79,R,1.09,N,A*2D
20220704 080331+00:00 $IIMDA,29.9,I,1.011,B,11.9,C,,C,92.8,,,C,,T,,M,,N,,M*23
20220704 080331+00:00 $HCHDT,123.7,T*2E
20220704 080331+00:00 $GPRMC,080326,A,4918.0696,N,12640.7298,W,9,128,040722,12.3,E,A,V*45
20220704 080331+00:00 $WIMWV,23.79,R,1.28,N,A*17
20220704 080333+00:00 $IIMDA,29.9,I,1.011,B,11.9,C,,C,92.7,,,C,,T,,M,,N,,M*2C
20220704 080333+00:00 $HCHDT,123.5,T*2C
20220704 080333+00:00 $GPRMC,080328,A,4918.0696,N,12640.7298,W,9.1,127,040722,12.3,E,A,V*5B
20220704 080333+00:00 $WIMWV,351.99,R,1.5,N,A*10
20220704 080335+00:00 $IIMDA,29.9,I,1.011,B,11.9,C,,C,92.7,,,C,,T,,M,,N,,M*2C
20220704 080335+00:00 $HCHDT,122.5,T*2D
20220704 080335+00:00 $GPRMC,080330,A,4918.0600,N,12640.7196,W,9.1,127,040722,12.3,E,A,V*50
20220704 080335+00:00 $WIMWV,11.4,R,1.79,N,A*28
20220704 080337+00:00 $IIMDA,29.9,I,1.011,B,11.9,C,,C,92.7,,,C,,T,,M,,N,,M*2C
20220704 080337+00:00 $HCHDT,122,T*36
20220704 080337+00:00 $GPRMC,080332,A,4918.0600,N,12640.7196,W,9,127,040722,12.3,E,A,V*4D
20220704 080337+00:00 $WIMWV,24,R,1.28,N,A*30
20220704 080339+00:00 $IIMDA,29.9,I,1.011,B,11.9,C,,C,92.7,,,C,,T,,M,,N,,M*2C
20220704 080339+00:00 $HCHDT,122.4,T*2C
20220704 080339+00:00 $GPRMC,080334,A,4918.0600,N,12640.7100,W,9,126,040722,12.3,E,A,V*45
20220704 080339+00:00 $WIMWV,11.1,R,3.98,N,A*20
20220704 080341+00:00 $IIMDA,29.9,I,1.011,B,11.9,C,,C,92.7,,,C,,T,,M,,N,,M*2C
20220704 080341+00:00 $HCHDT,122.8,T*20
20220704 080341+00:00 $GPRMC,080336,A,4918.0498,N,12640.6998,W,9,126,040722,12.3,E,A,V*4C
20220704 080341+00:00 $WIMWV,10.5,R,3.09,N,A*2D
20220704 080343+00:00 $IIMDA,29.9,I,1.011,B,11.9,C,,C,92.7,,,C,,T,,M,,N,,M*2C
20220704 080343+00:00 $HCHDT,123.1,T*28
20220704 080343+00:00 $GPRMC,080338,A,4918.0498,N,12640.6998,W,9,126,040722,12.3,E,A,V*42
20220704 080343+00:00 $WIMWV,334.19,R,1.69,N,A*21
20220704 080345+00:00 $IIMDA,29.9,I,1.011,B,11.9,C,,C,92.7,,,C,,T,,M,,N,,M*2C
20220704 080345+00:00 $HCHDT,123.3,T*2A
20220704 080345+00:00 $GPRMC,080340,A,4918.0498,N,12640.6896,W,9,127,040722,12.3,E,A,V*43
20220704 080345+00:00 $WIMWV,338.89,R,0.7,N,A*1D
20220704 080347+00:00 $IIMDA,29.9,I,1.011,B,11.9,C,,C,92.7,,,C,,T,,M,,N,,M*2C
20220704 080347+00:00 $HCHDT,123.8,T*21
20220704 080347+00:00 $GPRMC,080342,A,4918.0498,N,12640.6896,W,9.1,127,040722,12.3,E,A,V*5E
20220704 080347+00:00 $WIMWV,332.29,R,1.19,N,A*23
20220704 080349+00:00 $IIMDA,29.9,I,1.011,B,11.9,C,,C,92.6,,,C,,T,,M,,N,,M*2D
20220704 080349+00:00 $HCHDT,124,T*30
20220704 080349+00:00 $GPRMC,080344,A,4918.0396,N,12640.6800,W,9.1,127,040722,12.3,E,A,V*5E
20220704 080349+00:00 $WIMWV,354.79,R,2.1,N,A*1C
20220704 080351+00:00 $IIMDA,29.9,I,1.011,B,11.9,C,,C,92.7,,,C,,T,,M,,N,,M*2C
20220704 080351+00:00 $HCHDT,123.2,T*2B
20220704 080351+00:00 $GPRMC,080346,A,4918.0396,N,12640.6698,W,9,127,040722,12.3,E,A,V*4C
20220704 080351+00:00 $WIMWV,4.1,R,2.99,N,A*14
20220704 080353+00:00 $IIMDA,29.9,I,1.011,B,11.9,C,,C,92.7,,,C,,T,,M,,N,,M*2C
20220704 080353+00:00 $HCHDT,123,T*37
20220704 080353+00:00 $GPRMC,080348,A,4918.0396,N,12640.6698,W,9,127,040722,12.3,E,A,V*42
20220704 080353+00:00 $WIMWV,344.09,R,2.29,N,A*20
20220704 080355+00:00 $IIMDA,29.9,I,1.011,B,11.9,C,,C,92.7,,,C,,T,,M,,N,,M*2C
20220704 080355+00:00 $HCHDT,124,T*30
20220704 080355+00:00 $GPRMC,080350,A,4918.0300,N,12640.6596,W,9,127,040722,12.3,E,A,V*49
20220704 080355+00:00 $WIMWV,269.99,R,0.39,N,A*24
20220704 080357+00:00 $IIMDA,29.9,I,1.011,B,11.9,C,,C,92.7,,,C,,T,,M,,N,,M*2C
20220704 080357+00:00 $HCHDT,124.7,T*29
20220704 080357+00:00 $GPRMC,080352,A,4918.0300,N,12640.6500,W,9,127,040722,12.3,E,A,V*44
20220704 080357+00:00 $WIMWV,0.19,R,1.5,N,A*1F
20220704 080359+00:00 $IIMDA,29.9,I,1.011,B,11.9,C,,C,92.8,,,C,,T,,M,,N,,M*23
20220704 080359+00:00 $HCHDT,124.5,T*2B
20220704 080359+00:00 $GPRMC,080354,A,4918.0300,N,12640.6500,W,9,128,040722,12.3,E,A,V*4D
20220704 080359+00:00 $WIMWV,319.99,R,0.39,N,A*22
20220704 080401+00:00 $IIMDA,29.9,I,1.011,B,11.9,C,,C,92.8,,,C,,T,,M,,N,,M*23
20220704 080401+00:00 $HCHDT,123.6,T*2F
20220704 080401+00:00 $GPRMC,080356,A,4918.0198,N,12640.6398,W,9.1,128,040722,12.3,E,A,V*54
20220704 080401+00:00 $WIMWV,3,R,3.6,N,A*3B
20220704 080403+00:00 $IIMDA,29.9,I,1.011,B,11.9,C,,C,92.8,,,C,,T,,M,,N,,M*23
20220704 080403+00:00 $HCHDT,123,T*37
20220704 080403+00:00 $GPRMC,080358,A,4918.0198,N,12640.6398,W,9.1,128,040722,12.3,E,A,V*5A
20220704 080403+00:00 $WIMWV,348.49,R,0.99,N,A*21
20220704 080405+00:00 $IIMDA,29.9,I,1.011,B,11.9,C,,C,92.8,,,C,,T,,M,,N,,M*23
20220704 080405+00:00 $HCHDT,123.2,T*2B
20220704 080405+00:00 $GPRMC,080400,A,4918.0198,N,12640.6296,W,9.1,127,040722,12.3,E,A,V*50
20220704 080405+00:00 $WIMWV,301.39,R,0.7,N,A*1C
20220704 080407+00:00 $IIMDA,29.9,I,1.011,B,11.9,C,,C,92.9,,,C,,T,,M,,N,,M*22
20220704 080407+00:00 $HCHDT,123.8,T*21
20220704 080407+00:00 $GPRMC,080402,A,4918.0096,N,12640.6200,W,9.1,127,040722,12.3,E,A,V*52
20220704 080407+00:00 $WIMWV,5.2,R,1.89,N,A*14
20220704 080409+00:00 $IIMDA,29.9,I,1.011,B,11.9,C,,C,92.9,,,C,,T,,M,,N,,M*22
20220704 080409+00:00 $HCHDT,123.9,T*20
20220704 080409+00:00 $GPRMC,080404,A,4918.0096,N,12640.6200,W,9.1,127,040722,12.3,E,A,V*54
20220704 080409+00:00 $WIMWV,352.59,R,3.5,N,A*1D
20220704 080411+00:00 $IIMDA,29.9,I,1.011,B,11.9,C,,C,92.9,,,C,,T,,M,,N,,M*22
20220704 080411+00:00 $HCHDT,123.3,T*2A
20220704 080411+00:00 $GPRMC,080406,A,4918.0096,N,12640.6098,W,9.1,127,040722,12.3,E,A,V*55
20220704 080411+00:00 $WIMWV,222.39,R,0.49,N,A*26
20220704 080413+00:00 $IIMDA,29.9,I,1.011,B,11.9,C,,C,92.9,,,C,,T,,M,,N,,M*22
20220704 080413+00:00 $HCHDT,122.9,T*21
20220704 080413+00:00 $GPRMC,080408,A,4918.0096,N,12640.6098,W,9,127,040722,12.3,E,A,V*44
20220704 080413+00:00 $WIMWV,220.29,R,0.29,N,A*23
20220704 080415+00:00 $IIMDA,29.9,I,1.011,B,11.9,C,,C,92.9,,,C,,T,,M,,N,,M*22
20220704 080415+00:00 $HCHDT,123.2,T*2B
20220704 080415+00:00 $GPRMC,080410,A,4918.0000,N,12640.5996,W,9,127,040722,12.3,E,A,V*46
20220704 080415+00:00 $WIMWV,332.69,R,1.19,N,A*27
20220704 080417+00:00 $IIMDA,29.9,I,1.011,B,11.9,C,,C,92.9,,,C,,T,,M,,N,,M*22
20220704 080417+00:00 $HCHDT,123.4,T*2D
20220704 080417+00:00 $GPRMC,080412,A,4918.0000,N,12640.5900,W,9.1,127,040722,12.3,E,A,V*54
20220704 080417+00:00 $WIMWV,30.8,R,0.99,N,A*28
20220704 080419+00:00 $IIMDA,29.9,I,1.011,B,11.9,C,,C,92.9,,,C,,T,,M,,N,,M*22
20220704 080419+00:00 $HCHDT,123.6,T*2F
20220704 080419+00:00 $GPRMC,080414,A,4918.0000,N,12640.5900,W,9.1,127,040722,12.3,E,A,V*52
20220704 080419+00:00 $WIMWV,336.49,R,2.39,N,A*20
20220704 080421+00:00 $IIMDA,29.9,I,1.011,B,11.9,C,,C,93,,,C,,T,,M,,N,,M*34
20220704 080421+00:00 $HCHDT,123.8,T*21
20220704 080421+00:00 $GPRMC,080416,A,4917.9898,N,12640.5798,W,9.1,127,040722,12.3,E,A,V*50
20220704 080421+00:00 $WIMWV,269.99,R,0.49,N,A*23
20220704 080423+00:00 $IIMDA,29.9,I,1.011,B,11.9,C,,C,93,,,C,,T,,M,,N,,M*34
20220704 080423+00:00 $HCHDT,124.1,T*2F
20220704 080423+00:00 $GPRMC,080418,A,4917.9898,N,12640.5696,W,9.1,126,040722,12.3,E,A,V*50
20220704 080423+00:00 $WIMWV,335.69,R,1.79,N,A*26
20220704 080425+00:00 $IIMDA,29.9,I,1.011,B,11.9,C,,C,93,,,C,,T,,M,,N,,M*34
20220704 080425+00:00 $HCHDT,123.9,T*20
20220704 080425+00:00 $GPRMC,080420,A,4917.9898,N,12640.5696,W,9.1,126,040722,12.3,E,A,V*5B
20220704 080425+00:00 $WIMWV,7.9,R,5.29,N,A*13
20220704 080427+00:00 $IIMDA,29.9,I,1.011,B,11.9,C,,C,92.9,,,C,,T,,M,,N,,M*22
20220704 080427+00:00 $HCHDT,123.7,T*2E
20220704 080427+00:00 $GPRMC,080422,A,4917.9796,N,12640.5600,W,9.1,127,040722,12.3,E,A,V*56
20220704 080427+00:00 $WIMWV,3.8,R,4.49,N,A*11
20220704 080429+00:00 $IIMDA,29.9,I,1.011,B,11.9,C,,C,92.9,,,C,,T,,M,,N,,M*22
20220704 080429+00:00 $HCHDT,123.9,T*20
20220704 080429+00:00 $GPRMC,080424,A,4917.9796,N,12640.5600,W,9.1,127,040722,12.3,E,A,V*50
20220704 080429+00:00 $WIMWV,350.99,R,1.4,N,A*10
20220704 080431+00:00 $IIMDA,29.9,I,1.011,B,11.9,C,,C,92.9,,,C,,T,,M,,N,,M*22
20220704 080431+00:00 $HCHDT,124.2,T*2C
20220704 080431+00:00 $GPRMC,080426,A,4917.9796,N,12640.5498,W,9.1,127,040722,12.3,E,A,V*51
20220704 080431+00:00 $WIMWV,334.89,R,1.28,N,A*2D
20220704 080433+00:00 $IIMDA,29.9,I,1.011,B,11.9,C,,C,92.9,,,C,,T,,M,,N,,M*22
20220704 080433+00:00 $HCHDT,124.1,T*2F
20220704 080433+00:00 $GPRMC,080428,A,4917.9796,N,12640.5396,W,9.1,127,040722,12.3,E,A,V*56
20220704 080433+00:00 $WIMWV,337.59,R,1.59,N,A*25
20220704 080435+00:00 $IIMDA,29.9,I,1.011,B,11.9,C,,C,92.8,,,C,,T,,M,,N,,M*23
20220704 080435+00:00 $HCHDT,124.3,T*2D
20220704 080435+00:00 $GPRMC,080430,A,4917.9700,N,12640.5396,W,9.1,127,040722,12.3,E,A,V*50
20220704 080435+00:00 $WIMWV,302.69,R,1.79,N,A*22
20220704 080437+00:00 $IIMDA,29.9,I,1.011,B,11.9,C,,C,92.8,,,C,,T,,M,,N,,M*23
20220704 080437+00:00 $HCHDT,124.2,T*2C
20220704 080437+00:00 $GPRMC,080432,A,4917.9700,N,12640.5300,W,9.1,127,040722,12.3,E,A,V*5D
20220704 080437+00:00 $WIMWV,328.69,R,1.4,N,A*10
20220704 080439+00:00 $IIMDA,29.9,I,1.011,B,11.9,C,,C,92.8,,,C,,T,,M,,N,,M*23
20220704 080439+00:00 $HCHDT,123.7,T*2E
20220704 080439+00:00 $GPRMC,080434,A,4917.9700,N,12640.5300,W,9.1,127,040722,12.3,E,A,V*5B
20220704 080439+00:00 $WIMWV,333.49,R,1.28,N,A*26
20220704 080441+00:00 $IIMDA,29.9,I,1.011,B,11.9,C,,C,92.8,,,C,,T,,M,,N,,M*23
20220704 080441+00:00 $HCHDT,123.8,T*21
20220704 080441+00:00 $GPRMC,080436,A,4917.9598,N,12640.5198,W,9.1,127,040722,12.3,E,A,V*59
20220704 080441+00:00 $WIMWV,301.39,R,0.49,N,A*26
20220704 080443+00:00 $IIMDA,29.9,I,1.011,B,11.9,C,,C,92.8,,,C,,T,,M,,N,,M*23
20220704 080443+00:00 $HCHDT,123.9,T*20
20220704 080443+00:00 $GPRMC,080438,A,4917.9598,N,12640.5096,W,9.1,128,040722,12.3,E,A,V*57
20220704 080443+00:00 $WIMWV,180.6,R,0.19,N,A*14
20220704 080445+00:00 $IIMDA,29.9,I,1.011,B,11.9,C,,C,92.8,,,C,,T,,M,,N,,M*23
20220704 080445+00:00 $HCHDT,123.6,T*2F
20220704 080445+00:00 $GPRMC,080440,A,4917.9598,N,12640.5096,W,9.1,128,040722,12.3,E,A,V*58
20220704 080445+00:00 $WIMWV,305.69,R,0.58,N,A*27
20220704 080447+00:00 $IIMDA,29.9,I,1.011,B,11.9,C,,C,92.8,,,C,,T,,M,,N,,M*23
20220704 080447+00:00 $HCHDT,123.7,T*2E
20220704 080447+00:00 $GPRMC,080442,A,4917.9496,N,12640.5000,W,9.1,128,040722,12.3,E,A,V*5A
20220704 080447+00:00 $WIMWV,340.19,R,0.7,N,A*1B
20220704 080449+00:00 $IIMDA,29.9,I,1.011,B,11.9,C,,C,92.8,,,C,,T,,M,,N,,M*23
20220704 080449+00:00 $HCHDT,123.7,T*2E
20220704 080449+00:00 $GPRMC,080444,A,4917.9496,N,12640.4898,W,9.1,128,040722,12.3,E,A,V*54
20220704 080449+00:00 $WIMWV,269.99,R,0.39,N,A*24
20220704 080451+00:00 $IIMDA,29.9,I,1.011,B,11.9,C,,C,92.8,,,C,,T,,M,,N,,M*23
20220704 080451+00:00 $HCHDT,124.3,T*2D
20220704 080451+00:00 $GPRMC,080446,A,4917.9496,N,12640.4898,W,9.1,128,040722,12.3,E,A,V*56
20220704 080451+00:00 $WIMWV,269.99,R,0.19,N,A*26
20220704 080453+00:00 $IIMDA,29.9,I,1.011,B,11.9,C,,C,92.8,,,C,,T,,M,,N,,M*23
20220704 080453+00:00 $HCHDT,124.1,T*2F
20220704 080453+00:00 $GPRMC,080448,A,4917.9400,N,12640.4796,W,9.1,127,040722,12.3,E,A,V*59
20220704 080453+00:00 $WIMWV,355.69,R,2.68,N,A*23
20220704 080455+00:00 $IIMDA,29.9,I,1.011,B,11.9,C,,C,92.8,,,C,,T,,M,,N,,M*23
20220704 080455+00:00 $HCHDT,123.6,T*2F
20220704 080455+00:00 $GPRMC,080450,A,4917.9400,N,12640.4796,W,9.1,128,040722,12.3,E,A,V*5F
20220704 080455+00:00 $WIMWV,7.9,R,1.59,N,A*10
20220704 080457+00:00 $IIMDA,29.9,I,1.011,B,11.9,C,,C,92.8,,,C,,T,,M,,N,,M*23
20220704 080457+00:00 $HCHDT,123,T*37
20220704 080457+00:00 $GPRMC,080452,A,4917.9400,N,12640.4700,W,9.19,128,040722,12.3,E,A,V*6B
20220704 080457+00:00 $WIMWV,0.19,R,0.49,N,A*26
20220704 080459+00:00 $IIMDA,29.9,I,1.011,B,11.9,C,,C,92.8,,,C,,T,,M,,N,,M*23
20220704 080459+00:00 $HCHDT,123.2,T*2B
20220704 080459+00:00 $GPRMC,080454,A,4917.9400,N,12640.4598,W,9.19,128,040722,12.3,E,A,V*6E
20220704 080459+00:00 $WIMWV,326.99,R,0.58,N,A*29
20220704 080501+00:00 $IIMDA,29.9,I,1.011,B,11.9,C,,C,92.8,,,C,,T,,M,,N,,M*23
20220704 080501+00:00 $HCHDT,124,T*30
20220704 080501+00:00 $GPRMC,080456,A,4917.9298,N,12640.4598,W,9.19,128,040722,12.3,E,A,V*6B
20220704 080501+00:00 $WIMWV,352.29,R,1.79,N,A*23
20220704 080503+00:00 $IIMDA,29.9,I,1.011,B,11.9,C,,C,92.8,,,C,,T,,M,,N,,M*23
20220704 080503+00:00 $HCHDT,124.2,T*2C
20220704 080503+00:00 $GPRMC,080458,A,4917.9298,N,12640.4496,W,9.19,128,040722,12.3,E,A,V*6A
20220704 080503+00:00 $WIMWV,353.59,R,2.29,N,A*23
20220704 080505+00:00 $IIMDA,29.9,I,1.011,B,11.9,C,,C,92.8,,,C,,T,,M,,N,,M*23
20220704 080505+00:00 $HCHDT,123.8,T*21
20220704 080505+00:00 $GPRMC,080500,A,4917.9298,N,12640.4496,W,9.19,128,040722,12.3,E,A,V*66
20220704 080505+00:00 $WIMWV,348.99,R,1.79,N,A*23
20220704 080507+00:00 $IIMDA,29.9,I,1.011,B,11.9,C,,C,92.7,,,C,,T,,M,,N,,M*2C
20220704 080507+00:00 $HCHDT,123.4,T*2D
20220704 080507+00:00 $GPRMC,080502,A,4917.9196,N,12640.4400,W,9.19,127,040722,12.3,E,A,V*69
20220704 080507+00:00 $WIMWV,31.8,R,0.49,N,A*24
20220704 080509+00:00 $IIMDA,29.9,I,1.011,B,11.9,C,,C,92.7,,,C,,T,,M,,N,,M*2C
20220704 080509+00:00 $HCHDT,123.5,T*2C
20220704 080509+00:00 $GPRMC,080504,A,4917.9196,N,12640.4298,W,9.19,127,040722,12.3,E,A,V*68
20220704 080509+00:00 $WIMWV,33.29,R,1.09,N,A*10
20220704 080511+00:00 $IIMDA,29.9,I,1.011,B,11.9,C,,C,92.8,,,C,,T,,M,,N,,M*23
20220704 080511+00:00 $HCHDT,123.9,T*20
20220704 080511+00:00 $GPRMC,080506,A,4917.9196,N,12640.4298,W,9.19,127,040722,12.3,E,A,V*6A
20220704 080511+00:00 $WIMWV,314.79,R,0.49,N,A*26
20220704 080513+00:00 $IIMDA,29.9,I,1.011,B,11.9,C,,C,92.7,,,C,,T,,M,,N,,M*2C
20220704 080513+00:00 $HCHDT,123.8,T*21
20220704 080513+00:00 $GPRMC,080508,A,4917.9100,N,12640.4196,W,9.19,127,040722,12.3,E,A,V*66
20220704 080513+00:00 $WIMWV,14.5,R,2.49,N,A*2C
20220704 080515+00:00 $IIMDA,29.9,I,1.011,B,12,C,,C,92.7,,,C,,T,,M,,N,,M*38
20220704 080515+00:00 $HCHDT,123.6,T*2F
20220704 080515+00:00 $GPRMC,080510,A,4917.9100,N,12640.4100,W,9.19,127,040722,12.3,E,A,V*60
20220704 080515+00:00 $WIMWV,8.79,R,2.99,N,A*27
20220704 080517+00:00 $IIMDA,29.9,I,1.011,B,12,C,,C,92.7,,,C,,T,,M,,N,,M*38
20220704 080517+00:00 $HCHDT,123.6,T*2F
20220704 080517+00:00 $GPRMC,080512,A,4917.9100,N,12640.4100,W,9.1,127,040722,12.3,E,A,V*5B
20220704 080517+00:00 $WIMWV,330.19,R,1.5,N,A*1F
20220704 080519+00:00 $IIMDA,29.9,I,1.011,B,12,C,,C,92.7,,,C,,T,,M,,N,,M*38
20220704 080519+00:00 $HCHDT,123.6,T*2F
20220704 080519+00:00 $GPRMC,080514,A,4917.9100,N,12640.3998,W,9.19,127,040722,12.3,E,A,V*6A
20220704 080519+00:00 $WIMWV,350.29,R,1.19,N,A*27
20220704 080521+00:00 $IIMDA,29.9,I,1.011,B,12,C,,C,92.7,,,C,,T,,M,,N,,M*38
20220704 080521+00:00 $HCHDT,124.2,T*2C
20220704 080521+00:00 $GPRMC,080516,A,4917.8998,N,12640.3998,W,9.19,127,040722,12.3,E,A,V*60
20220704 080521+00:00 $WIMWV,7.3,R,3.79,N,A*1A
20220704 080523+00:00 $IIMDA,29.9,I,1.011,B,12,C,,C,92.7,,,C,,T,,M,,N,,M*38
20220704 080523+00:00 $HCHDT,124.2,T*2C
20220704 080523+00:00 $GPRMC,080518,A,4917.8998,N,12640.3896,W,9.19,127,040722,12.3,E,A,V*61
20220704 080523+00:00 $WIMWV,6,R,1.59,N,A*06
20220704 080525+00:00 $IIMDA,29.9,I,1.011,B,12,C,,C,92.6,,,C,,T,,M,,N,,M*39
20220704 080525+00:00 $HCHDT,123.6,T*2F
20220704 080525+00:00 $GPRMC,080520,A,4917.8998,N,12640.3800,W,9.19,127,040722,12.3,E,A,V*65
20220704 080525+00:00 $WIMWV,308.29,R,0.89,N,A*22
20220704 080527+00:00 $IIMDA,29.9,I,1.011,B,12,C,,C,92.6,,,C,,T,,M,,N,,M*39
20220704 080527+00:00 $HCHDT,123.4,T*2D
20220704 080527+00:00 $GPRMC,080522,A,4917.8896,N,12640.3800,W,9.19,127,040722,12.3,E,A,V*68
20220704 080527+00:00 $WIMWV,230.5,R,0.39,N,A*1D
20220704 080529+00:00 $IIMDA,29.9,I,1.011,B,12,C,,C,92.5,,,C,,T,,M,,N,,M*3A
20220704 080529+00:00 $HCHDT,123.5,T*2C
20220704 080529+00:00 $GPRMC,080524,A,4917.8896,N,12640.3698,W,9.1,127,040722,12.3,E,A,V*58
20220704 080529+00:00 $WIMWV,348.59,R,1.69,N,A*2E
20220704 080531+00:00 $IIMDA,29.9,I,1.011,B,12,C,,C,92.6,,,C,,T,,M,,N,,M*39
20220704 080531+00:00 $HCHDT,124,T*30
20220704 080531+00:00 $GPRMC,080526,A,4917.8896,N,12640.3596,W,9.1,127,040722,12.3,E,A,V*57
20220704 080531+00:00 $WIMWV,345.09,R,1.59,N,A*25
20220704 080533+00:00 $IIMDA,29.9,I,1.011,B,12,C,,C,92.6,,,C,,T,,M,,N,,M*39
20220704 080533+00:00 $HCHDT,124.2,T*2C
20220704 080533+00:00 $GPRMC,080528,A,4917.8800,N,12640.3596,W,9.19,127,040722,12.3,E,A,V*6F
20220704 080533+00:00 $WIMWV,339.19,R,1.69,N,A*2C
20220704 080535+00:00 $IIMDA,29.9,I,1.011,B,12,C,,C,92.6,,,C,,T,,M,,N,,M*39
20220704 080535+00:00 $HCHDT,124.1,T*2F
20220704 080535+00:00 $GPRMC,080530,A,4917.8800,N,12640.3500,W,9.19,127,040722,12.3,E,A,V*69
20220704 080535+00:00 $WIMWV,0.19,R,1.5,N,A*1F
20220704 080537+00:00 $IIMDA,29.9,I,1.011,B,12,C,,C,92.5,,,C,,T,,M,,N,,M*3A
20220704 080537+00:00 $HCHDT,123.4,T*2D
20220704 080537+00:00 $GPRMC,080532,A,4917.8800,N,12640.3500,W,9.19,127,040722,12.3,E,A,V*6B
20220704 080537+00:00 $WIMWV,313.19,R,0.29,N,A*21
20220704 080539+00:00 $IIMDA,29.9,I,1.011,B,12,C,,C,92.5,,,C,,T,,M,,N,,M*3A
20220704 080539+00:00 $HCHDT,122.8,T*20
20220704 080539+00:00 $GPRMC,080534,A,4917.8698,N,12640.3398,W,9.19,127,040722,12.3,E,A,V*65
20220704 080539+00:00 $WIMWV,221.9,R,0.19,N,A*13
20220704 080541+00:00 $IIMDA,29.9,I,1.011,B,12,C,,C,92.5,,,C,,T,,M,,N,,M*3A
20220704 080541+00:00 $HCHDT,123,T*37
20220704 080541+00:00 $GPRMC,080536,A,4917.8698,N,12640.3296,W,9.19,126,040722,12.3,E,A,V*69
20220704 080541+00:00 $WIMWV,212.99,R,0.7,N,A*15
20220704 080543+00:00 $IIMDA,29.9,I,1.011,B,12,C,,C,92.5,,,C,,T,,M,,N,,M*3A
20220704 080543+00:00 $HCHDT,123.4,T*2D
20220704 080543+00:00 $GPRMC,080538,A,4917.8698,N,12640.3296,W,9.19,126,040722,12.3,E,A,V*67
20220704 080543+00:00 $WIMWV,343.99,R,1.09,N,A*2F
20220704 080545+00:00 $IIMDA,29.9,I,1.011,B,12,C,,C,92.4,,,C,,T,,M,,N,,M*3B
20220704 080545+00:00 $HCHDT,124.1,T*2F
20220704 080545+00:00 $GPRMC,080540,A,4917.8698,N,12640.3200,W,9.19,127,040722,12.3,E,A,V*66
20220704 080545+00:00 $WIMWV,331.89,R,0.7,N,A*14
20220704 080547+00:00 $IIMDA,29.9,I,1.011,B,12,C,,C,92.3,,,C,,T,,M,,N,,M*3C
20220704 080547+00:00 $HCHDT,124.1,T*2F
20220704 080547+00:00 $GPRMC,080542,A,4917.8596,N,12640.3098,W,9.19,126,040722,12.3,E,A,V*6B
20220704 080547+00:00 $WIMWV,29.5,R,0.39,N,A*27
20220704 080549+00:00 $IIMDA,29.9,I,1.011,B,12,C,,C,92.4,,,C,,T,,M,,N,,M*3B
20220704 080549+00:00 $HCHDT,123.8,T*21
20220704 080549+00:00 $GPRMC,080544,A,4917.8596,N,12640.3098,W,9.19,126,040722,12.3,E,A,V*6D
20220704 080549+00:00 $WIMWV,351.19,R,1.5,N,A*18
20220704 080551+00:00 $IIMDA,29.9,I,1.011,B,12,C,,C,92.4,,,C,,T,,M,,N,,M*3B
20220704 080551+00:00 $HCHDT,124.1,T*2F
20220704 080551+00:00 $GPRMC,080546,A,4917.8596,N,12640.2996,W,9.19,126,040722,12.3,E,A,V*69
20220704 080551+00:00 $WIMWV,0.19,R,0.58,N,A*26
20220704 080553+00:00 $IIMDA,29.9,I,1.011,B,12,C,,C,92.4,,,C,,T,,M,,N,,M*3B
20220704 080553+00:00 $HCHDT,124.6,T*28
20220704 080553+00:00 $GPRMC,080548,A,4917.8500,N,12640.2996,W,9.19,127,040722,12.3,E,A,V*69
20220704 080553+00:00 $WIMWV,19.8,R,0.58,N,A*2E
20220704 080555+00:00 $IIMDA,29.9,I,1.011,B,12,C,,C,92.4,,,C,,T,,M,,N,,M*3B
20220704 080555+00:00 $HCHDT,125.2,T*2D
20220704 080555+00:00 $GPRMC,080550,A,4917.8500,N,12640.2900,W,9.19,127,040722,12.3,E,A,V*6F
20220704 080555+00:00 $WIMWV,349.89,R,1.19,N,A*25
20220704 080557+00:00 $IIMDA,29.9,I,1.011,B,12,C,,C,92.3,,,C,,T,,M,,N,,M*3C
20220704 080557+00:00 $HCHDT,125.5,T*2A
20220704 080557+00:00 $GPRMC,080552,A,4917.8500,N,12640.2798,W,9.19,127,040722,12.3,E,A,V*62
20220704 080557+00:00 $WIMWV,91.7,R,0.8,N,A*14
20220704 080559+00:00 $IIMDA,29.9,I,1.011,B,12,C,,C,92.3,,,C,,T,,M,,N,,M*3C
20220704 080559+00:00 $HCHDT,125.1,T*2E
20220704 080559+00:00 $GPRMC,080554,A,4917.8398,N,12640.2798,W,9.19,127,040722,12.3,E,A,V*63
20220704 080559+00:00 $WIMWV,80.09,R,0.89,N,A*13
20220704 080601+00:00 $IIMDA,29.9,I,1.011,B,12,C,,C,92.3,,,C,,T,,M,,N,,M*3C
20220704 080601+00:00 $HCHDT,124.8,T*26
20220704 080601+00:00 $GPRMC,080556,A,4917.8398,N,12640.2696,W,9.19,127,040722,12.3,E,A,V*6E
20220704 080601+00:00 $WIMWV,149.39,R,1.28,N,A*2E
20220704 080603+00:00 $IIMDA,29.9,I,1.011,B,12,C,,C,92.2,,,C,,T,,M,,N,,M*3D
20220704 080603+00:00 $HCHDT,124.7,T*29
20220704 080603+00:00 $GPRMC,080558,A,4917.8398,N,12640.2600,W,9.19,127,040722,12.3,E,A,V*6F
20220704 080603+00:00 $WIMWV,116.8,R,0.99,N,A*1D
20220704 080605+00:00 $IIMDA,29.9,I,1.011,B,12,C,,C,92.2,,,C,,T,,M,,N,,M*3D
20220704 080605+00:00 $HCHDT,125.2,T*2D
20220704 080605+00:00 $GPRMC,080600,A,4917.8296,N,12640.2600,W,9.19,127,040722,12.3,E,A,V*6E
20220704 080605+00:00 $WIMWV,156.8,R,0.39,N,A*13
20220704 080607+00:00 $IIMDA,29.9,I,1.011,B,12,C,,C,92.2,,,C,,T,,M,,N,,M*3D
20220704 080607+00:00 $HCHDT,125.3,T*2C
20220704 080607+00:00 $GPRMC,080602,A,4917.8296,N,12640.2498,W,9.19,128,040722,12.3,E,A,V*60
20220704 080607+00:00 $WIMWV,102,R,1.09,N,A*06
20220704 080609+00:00 $IIMDA,29.9,I,1.011,B,12,C,,C,92.2,,,C,,T,,M,,N,,M*3D
20220704 080609+00:00 $HCHDT,124.7,T*29
20220704 080609+00:00 $GPRMC,080604,A,4917.8296,N,12640.2498,W,9.19,128,040722,12.3,E,A,V*66
20220704 080609+00:00 $WIMWV,25.59,R,0.58,N,A*15
20220704 080611+00:00 $IIMDA,29.9,I,1.011,B,12,C,,C,92.2,,,C,,T,,M,,N,,M*3D
20220704 080611+00:00 $HCHDT,124.2,T*2C
20220704 080611+00:00 $GPRMC,080606,A,4917.8296,N,12640.2396,W,9.19,128,040722,12.3,E,A,V*6D
20220704 080611+00:00 $WIMWV,326.39,R,0.49,N,A*23
20220704 080613+00:00 $IIMDA,29.9,I,1.011,B,12,C,,C,92.1,,,C,,T,,M,,N,,M*3E
20220704 080613+00:00 $HCHDT,124.3,T*2D
20220704 080613+00:00 $GPRMC,080608,A,4917.8200,N,12640.2300,W,9.19,127,040722,12.3,E,A,V*6C
20220704 080613+00:00 $WIMWV,119.3,R,0.99,N,A*19
20220704 080615+00:00 $IIMDA,29.9,I,1.011,B,12,C,,C,92.1,,,C,,T,,M,,N,,M*3E
20220704 080615+00:00 $HCHDT,125.1,T*2E
20220704 080615+00:00 $GPRMC,080610,A,4917.8200,N,12640.2300,W,9.19,127,040722,12.3,E,A,V*65
20220704 080615+00:00 $WIMWV,71.29,R,0.58,N,A*13
20220704 080617+00:00 $IIMDA,29.9,I,1.011,B,12,C,,C,92.1,,,C,,T,,M,,N,,M*3E
20220704 080617+00:00 $HCHDT,125.5,T*2A
20220704 080617+00:00 $GPRMC,080612,A,4917.8200,N,12640.2198,W,9.19,127,040722,12.3,E,A,V*64
20220704 080617+00:00 $WIMWV,3.4,R,3.09,N,A*1E
20220704 080619+00:00 $IIMDA,29.9,I,1.011,B,12,C,,C,92.1,,,C,,T,,M,,N,,M*3E
20220704 080619+00:00 $HCHDT,125.2,T*2D
20220704 080619+00:00 $GPRMC,080614,A,4917.8098,N,12640.2096,W,9.19,128,040722,12.3,E,A,V*61
20220704 080619+00:00 $WIMWV,109.8,R,1.09,N,A*1B
20220704 080621+00:00 $IIMDA,29.9,I,1.011,B,12,C,,C,92.1,,,C,,T,,M,,N,,M*3E
20220704 080621+00:00 $HCHDT,124.5,T*2B
20220704 080621+00:00 $GPRMC,080616,A,4917.8098,N,12640.2096,W,9.19,128,040722,12.3,E,A,V*63
20220704 080621+00:00 $WIMWV,336.09,R,0.39,N,A*26
20220704 080623+00:00 $IIMDA,29.9,I,1.011,B,12,C,,C,92.1,,,C,,T,,M,,N,,M*3E
20220704 080623+00:00 $HCHDT,123.5,T*2C
20220704 080623+00:00 $GPRMC,080618,A,4917.8098,N,12640.2000,W,9.19,127,040722,12.3,E,A,V*6D
20220704 080623+00:00 $WIMWV,6,R,1.5,N,A*3F
20220704 080625+00:00 $IIMDA,29.9,I,1.011,B,12,C,,C,92.1,,,C,,T,,M,,N,,M*3E
20220704 080625+00:00 $HCHDT,123.5,T*2C
20220704 080625+00:00 $GPRMC,080620,A,4917.7996,N,12640.2000,W,9.19,127,040722,12.3,E,A,V*6E
20220704 080625+00:00 $WIMWV,19.3,R,0.89,N,A*29
20220704 080627+00:00 $IIMDA,29.9,I,1.011,B,12,C,,C,92.1,,,C,,T,,M,,N,,M*3E
20220704 080627+00:00 $HCHDT,124.3,T*2D
20220704 080627+00:00 $GPRMC,080622,A,4917.7996,N,12640.1898,W,9.19,127,040722,12.3,E,A,V*66
20220704 080627+00:00 $WIMWV,350.49,R,0.8,N,A*10
20220704 080629+00:00 $IIMDA,29.9,I,1.011,B,12,C,,C,92.1,,,C,,T,,M,,N,,M*3E
20220704 080629+00:00 $HCHDT,124.7,T*29
20220704 080629+00:00 $GPRMC,080624,A,4917.7996,N,12640.1796,W,9.19,127,040722,12.3,E,A,V*61
20220704 080629+00:00 $WIMWV,12.99,R,0.99,N,A*10
20220704 080631+00:00 $IIMDA,29.9,I,1.011,B,12,C,,C,92.1,,,C,,T,,M,,N,,M*3E
20220704 080631+00:00 $HCHDT,124.1,T*2F
20220704 080631+00:00 $GPRMC,080626,A,4917.7900,N,12640.1796,W,9.19,127,040722,12.3,E,A,V*6C
20220704 080631+00:00 $WIMWV,26.69,R,1.79,N,A*17
20220704 080633+00:00 $IIMDA,29.9,I,1.011,B,12,C,,C,92.1,,,C,,T,,M,,N,,M*3E
20220704 080633+00:00 $HCHDT,122.9,T*21
20220704 080633+00:00 $GPRMC,080628,A,4917.7900,N,12640.1700,W,9.29,127,040722,12.3,E,A,V*6E
20220704 080633+00:00 $WIMWV,0.19,R,0.7,N,A*1C
20220704 080635+00:00 $IIMDA,29.9,I,1.011,B,12,C,,C,92.1,,,C,,T,,M,,N,,M*3E
20220704 080635+00:00 $HCHDT,122.4,T*2C
20220704 080635+00:00 $GPRMC,080630,A,4917.7900,N,12640.1598,W,9.19,127,040722,12.3,E,A,V*67
20220704 080635+00:00 $WIMWV,17.3,R,2.1,N,A*15
20220704 080637+00:00 $IIMDA,29.9,I,1.011,B,12,C,,C,92.1,,,C,,T,,M,,N,,M*3E
20220704 080637+00:00 $HCHDT,122.8,T*20
20220704 080637+00:00 $GPRMC,080632,A,4917.7900,N,12640.1598,W,9.19,127,040722,12.3,E,A,V*65
20220704 080637+00:00 $WIMWV,29.3,R,2.1,N,A*18
20220704 080639+00:00 $IIMDA,29.9,I,1.011,B,12,C,,C,92.1,,,C,,T,,M,,N,,M*3E
20220704 080639+00:00 $HCHDT,123.2,T*2B
20220704 080639+00:00 $GPRMC,080634,A,4917.7798,N,12640.1496,W,9.19,126,040722,12.3,E,A,V*62
20220704 080639+00:00 $WIMWV,31.09,R,0.99,N,A*18
20220704 080641+00:00 $IIMDA,29.9,I,1.011,B,12,C,,C,92,,,C,,T,,M,,N,,M*21
20220704 080641+00:00 $HCHDT,123.4,T*2D
20220704 080641+00:00 $GPRMC,080636,A,4917.7798,N,12640.1496,W,9.19,126,040722,12.3,E,A,V*60
20220704 080641+00:00 $WIMWV,337.59,R,0.58,N,A*25
20220704 080643+00:00 $IIMDA,29.9,I,1.011,B,12,C,,C,92,,,C,,T,,M,,N,,M*21
20220704 080643+00:00 $HCHDT,123.4,T*2D
20220704 080643+00:00 $GPRMC,080638,A,4917.7798,N,12640.1400,W,9.19,126,040722,12.3,E,A,V*61
20220704 080643+00:00 $WIMWV,24.4,R,0.7,N,A*16
20220704 080645+00:00 $IIMDA,29.9,I,1.011,B,12,C,,C,92,,,C,,T,,M,,N,,M*21
20220704 080645+00:00 $HCHDT,123.7,T*2E
20220704 080645+00:00 $GPRMC,080640,A,4917.7696,N,12640.1298,W,9.19,126,040722,12.3,E,A,V*66
20220704 080645+00:00 $WIMWV,23.59,R,1.09,N,A*16
20220704 080647+00:00 $IIMDA,29.9,I,1.011,B,12,C,,C,92,,,C,,T,,M,,N,,M*21
20220704 080647+00:00 $HCHDT,123.7,T*2E
20220704 080647+00:00 $GPRMC,080642,A,4917.7696,N,12640.1298,W,9.19,126,040722,12.3,E,A,V*64
20220704 080647+00:00 $WIMWV,64.39,R,0.39,N,A*11
20220704 080649+00:00 $IIMDA,29.9,I,1.011,B,12,C,,C,92,,,C,,T,,M,,N,,M*21
20220704 080649+00:00 $HCHDT,123.9,T*20
20220704 080649+00:00 $GPRMC,080644,A,4917.7696,N,12640.1196,W,9.19,126,040722,12.3,E,A,V*6F
20220704 080649+00:00 $WIMWV,17.5,R,2.59,N,A*2E
20220704 080651+00:00 $IIMDA,29.9,I,1.011,B,12,C,,C,92,,,C,,T,,M,,N,,M*21
20220704 080651+00:00 $HCHDT,124.4,T*2A
20220704 080651+00:00 $GPRMC,080646,A,4917.7600,N,12640.1100,W,9.19,127,040722,12.3,E,A,V*6C
20220704 080651+00:00 $WIMWV,10.9,R,1.4,N,A*1E
20220704 080653+00:00 $IIMDA,29.9,I,1.011,B,12,C,,C,92,,,C,,T,,M,,N,,M*21
20220704 080653+00:00 $HCHDT,124.7,T*29
20220704 080653+00:00 $GPRMC,080648,A,4917.7600,N,12640.1100,W,9.19,127,040722,12.3,E,A,V*62
20220704 080653+00:00 $WIMWV,29,R,0.29,N,A*3D
20220704 080655+00:00 $IIMDA,29.9,I,1.011,B,12,C,,C,91.9,,,C,,T,,M,,N,,M*35
20220704 080655+00:00 $HCHDT,125,T*31
20220704 080655+00:00 $GPRMC,080650,A,4917.7600,N,12640.0998,W,9.19,127,040722,12.3,E,A,V*63
20220704 080655+00:00 $WIMWV,60.19,R,0.29,N,A*16
20220704 080657+00:00 $IIMDA,29.9,I,1.011,B,12,C,,C,91.9,,,C,,T,,M,,N,,M*35
20220704 080657+00:00 $HCHDT,124.9,T*27
20220704 080657+00:00 $GPRMC,080652,A,4917.7498,N,12640.0998,W,9.19,127,040722,12.3,E,A,V*62
20220704 080657+00:00 $WIMWV,13.89,R,0.89,N,A*11
20220704 080659+00:00 $IIMDA,29.9,I,1.011,B,12,C,,C,91.9,,,C,,T,,M,,N,,M*35
20220704 080659+00:00 $HCHDT,124.5,T*2B
20220704 080659+00:00 $GPRMC,080654,A,4917.7498,N,12640.0896,W,9.19,127,040722,12.3,E,A,V*6B
20220704 080659+00:00 $WIMWV,127.6,R,0.58,N,A*1C
20220704 080701+00:00 $IIMDA,29.9,I,1.011,B,12,C,,C,91.9,,,C,,T,,M,,N,,M*35
20220704 080701+00:00 $HCHDT,124.3,T*2D
20220704 080701+00:00 $GPRMC,080656,A,4917.7498,N,12640.0800,W,9.19,128,040722,12.3,E,A,V*69
20220704 080701+00:00 $WIMWV,70.59,R,0.58,N,A*15
20220704 080703+00:00 $IIMDA,29.9,I,1.011,B,12,C,,C,91.9,,,C,,T,,M,,N,,M*35
20220704 080703+00:00 $HCHDT,123.9,T*20
20220704 080703+00:00 $GPRMC,080658,A,4917.7498,N,12640.0800,W,9.19,127,040722,12.3,E,A,V*68
20220704 080703+00:00 $WIMWV,19.5,R,1.09,N,A*26
20220704 080705+00:00 $IIMDA,29.9,I,1.011,B,12,C,,C,91.9,,,C,,T,,M,,N,,M*35
20220704 080705+00:00 $HCHDT,124.1,T*2F
20220704 080705+00:00 $GPRMC,080700,A,4917.7396,N,12640.0698,W,9.19,127,040722,12.3,E,A,V*62
20220704 080705+00:00 $WIMWV,0.19,R,1.98,N,A*2B
20220704 080707+00:00 $IIMDA,29.9,I,1.011,B,12,C,,C,91.9,,,C,,T,,M,,N,,M*35
20220704 080707+00:00 $HCHDT,124.5,T*2B
20220704 080707+00:00 $GPRMC,080702,A,4917.7396,N,12640.0596,W,9.29,127,040722,12.3,E,A,V*6E
20220704 080707+00:00 $WIMWV,333.79,R,0.49,N,A*23
20220704 080709+00:00 $IIMDA,29.9,I,1.011,B,12,C,,C,91.9,,,C,,T,,M,,N,,M*35
20220704 080709+00:00 $HCHDT,124.6,T*28
20220704 080709+00:00 $GPRMC,080704,A,4917.7396,N,12640.0596,W,9.29,127,040722,12.3,E,A,V*68
20220704 080709+00:00 $WIMWV,326.39,R,0.49,N,A*23
20220704 080711+00:00 $IIMDA,29.9,I,1.011,B,12,C,,C,91.9,,,C,,T,,M,,N,,M*35
20220704 080711+00:00 $HCHDT,124.3,T*2D
20220704 080711+00:00 $GPRMC,080706,A,4917.7300,N,12640.0500,W,9.19,127,040722,12.3,E,A,V*69
20220704 080711+00:00 $WIMWV,91.7,R,0.7,N,A*1B
20220704 080713+00:00 $IIMDA,29.9,I,1.011,B,12,C,,C,91.9,,,C,,T,,M,,N,,M*35
20220704 080713+00:00 $HCHDT,124.9,T*27
20220704 080713+00:00 $GPRMC,080708,A,4917.7300,N,12640.0500,W,9.19,127,040722,12.3,E,A,V*67
20220704 080713+00:00 $WIMWV,0.19,R,0.89,N,A*2A
20220704 080715+00:00 $IIMDA,29.9,I,1.011,B,12,C,,C,91.9,,,C,,T,,M,,N,,M*35
20220704 080715+00:00 $HCHDT,124.8,T*26
20220704 080715+00:00 $GPRMC,080710,A,4917.7300,N,12640.0398,W,9.19,127,040722,12.3,E,A,V*69
20220704 080715+00:00 $WIMWV,333.79,R,1.59,N,A*23
20220704 080717+00:00 $IIMDA,29.9,I,1.011,B,12,C,,C,91.9,,,C,,T,,M,,N,,M*35
20220704 080717+00:00 $HCHDT,124.3,T*2D
20220704 080717+00:00 $GPRMC,080712,A,4917.7198,N,12640.0296,W,9.19,128,040722,12.3,E,A,V*68
20220704 080717+00:00 $WIMWV,337.49,R,0.89,N,A*28
20220704 080719+00:00 $IIMDA,29.9,I,1.011,B,12,C,,C,91.9,,,C,,T,,M,,N,,M*35
20220704 080719+00:00 $HCHDT,124.2,T*2C
20220704 080719+00:00 $GPRMC,080714,A,4917.7198,N,12640.0296,W,9.19,128,040722,12.3,E,A,V*6E
20220704 080719+00:00 $WIMWV,317.19,R,0.39,N,A*24
20220704 080721+00:00 $IIMDA,29.9,I,1.011,B,12,C,,C,91.9,,,C,,T,,M,,N,,M*35
20220704 080721+00:00 $HCHDT,124.4,T*2A
20220704 080721+00:00 $GPRMC,080716,A,4917.7198,N,12640.0200,W,9.19,128,040722,12.3,E,A,V*63
20220704 080721+00:00 $WIMWV,54.2,R,0.39,N,A*2A
20220704 080723+00:00 $IIMDA,29.9,I,1.011,B,12,C,,C,91.9,,,C,,T,,M,,N,,M*35
20220704 080723+00:00 $HCHDT,124.5,T*2B
20220704 080723+00:00 $GPRMC,080718,A,4917.7096,N,12640.0098,W,9.19,128,040722,12.3,E,A,V*61
20220704 080723+00:00 $WIMWV,122.1,R,0.99,N,A*13
20220704 080725+00:00 $IIMDA,29.9,I,1.011,B,12,C,,C,91.9,,,C,,T,,M,,N,,M*35
20220704 080725+00:00 $HCHDT,124.8,T*26
20220704 080725+00:00 $GPRMC,080720,A,4917.7096,N,12640.0098,W,9.19,128,040722,12.3,E,A,V*6A
20220704 080725+00:00 $WIMWV,71.4,R,1.09,N,A*29
20220704 080727+00:00 $IIMDA,29.9,I,1.011,B,12,C,,C,91.9,,,C,,T,,M,,N,,M*35
20220704 080727+00:00 $HCHDT,124.6,T*28
20220704 080727+00:00 $GPRMC,080722,A,4917.7096,N,12639.9996,W,9.19,128,040722,12.3,E,A,V*68
20220704 080727+00:00 $WIMWV,151.09,R,1.59,N,A*22
20220704 080729+00:00 $IIMDA,29.9,I,1.011,B,12,C,,C,91.9,,,C,,T,,M,,N,,M*35
20220704 080729+00:00 $HCHDT,124.3,T*2D
20220704 080729+00:00 $GPRMC,080724,A,4917.7096,N,12639.9996,W,9.19,128,040722,12.3,E,A,V*6E
20220704 080729+00:00 $WIMWV,62.3,R,1.09,N,A*2C
20220704 080731+00:00 $IIMDA,29.9,I,1.011,B,12,C,,C,91.9,,,C,,T,,M,,N,,M*35
20220704 080731+00:00 $HCHDT,124.2,T*2C
20220704 080731+00:00 $GPRMC,080726,A,4917.7000,N,12639.9900,W,9.19,128,040722,12.3,E,A,V*6C
20220704 080731+00:00 $WIMWV,25.7,R,0.39,N,A*29
20220704 080733+00:00 $IIMDA,29.9,I,1.011,B,12,C,,C,91.9,,,C,,T,,M,,N,,M*35
20220704 080733+00:00 $HCHDT,123.9,T*20
20220704 080733+00:00 $GPRMC,080728,A,4917.7000,N,12639.9798,W,9.19,128,040722,12.3,E,A,V*6D
20220704 080733+00:00 $WIMWV,15.1,R,0.49,N,A*2B
20220704 080735+00:00 $IIMDA,29.9,I,1.011,B,12,C,,C,91.9,,,C,,T,,M,,N,,M*35
20220704 080735+00:00 $HCHDT,123.8,T*21
20220704 080735+00:00 $GPRMC,080730,A,4917.7000,N,12639.9798,W,9.19,127,040722,12.3,E,A,V*6B
20220704 080735+00:00 $WIMWV,330.49,R,0.49,N,A*23
20220704 080737+00:00 $IIMDA,29.9,I,1.011,B,12,C,,C,91.9,,,C,,T,,M,,N,,M*35
20220704 080737+00:00 $HCHDT,124.3,T*2D
20220704 080737+00:00 $GPRMC,080732,A,4917.6898,N,12639.9696,W,9.19,127,040722,12.3,E,A,V*6E
20220704 080737+00:00 $WIMWV,91.7,R,0.29,N,A*27
20220704 080739+00:00 $IIMDA,29.9,I,1.011,B,12,C,,C,91.8,,,C,,T,,M,,N,,M*34
20220704 080739+00:00 $HCHDT,124.4,T*2A
20220704 080739+00:00 $GPRMC,080734,A,4917.6898,N,12639.9600,W,9.19,127,040722,12.3,E,A,V*67
20220704 080739+00:00 $WIMWV,67.29,R,0.99,N,A*19
20220704 080741+00:00 $IIMDA,29.9,I,1.011,B,12,C,,C,91.9,,,C,,T,,M,,N,,M*35
20220704 080741+00:00 $HCHDT,124.3,T*2D
20220704 080741+00:00 $GPRMC,080736,A,4917.6898,N,12639.9600,W,9.19,127,040722,12.3,E,A,V*65
20220704 080741+00:00 $WIMWV,78.2,R,0.58,N,A*23
20220704 080743+00:00 $IIMDA,29.9,I,1.011,B,12,C,,C,91.9,,,C,,T,,M,,N,,M*35
20220704 080743+00:00 $HCHDT,123.7,T*2E
20220704 080743+00:00 $GPRMC,080738,A,4917.6796,N,12639.9498,W,9.19,127,040722,12.3,E,A,V*69
20220704 080743+00:00 $WIMWV,6.2,R,1.69,N,A*19
20220704 080745+00:00 $IIMDA,29.9,I,1.011,B,12,C,,C,91.9,,,C,,T,,M,,N,,M*35
20220704 080745+00:00 $HCHDT,123.7,T*2E
20220704 080745+00:00 $GPRMC,080740,A,4917.6796,N,12639.9498,W,9.19,127,040722,12.3,E,A,V*66
