20220704 190000+00:00 $IIMDA,29.9,I,1.013,B,10.9,C,,C,94.9,,,C,,T,,M,,N,,M*27
20220704 190000+00:00 $HCHDT,116.2,T*2D
20220704 190000+00:00 $GPRMC,185956,A,4829.1696,N,12433.3996,W,8.01,115,040722,11.9,E,A,V*60
20220704 190000+00:00 $WIMWV,354.09,R,8.18,N,A*29
20220704 190002+00:00 $IIMDA,29.9,I,1.013,B,10.9,C,,C,95,,,C,,T,,M,,N,,M*31
20220704 190002+00:00 $HCHDT,116.2,T*2D
20220704 190002+00:00 $GPRMC,185958,A,4829.1696,N,12433.3900,W,8.01,115,040722,11.9,E,A,V*61
20220704 190002+00:00 $WIMWV,356.99,R,8.18,N,A*22
20220704 190004+00:00 $IIMDA,29.9,I,1.013,B,10.9,C,,C,95,,,C,,T,,M,,N,,M*31
20220704 190004+00:00 $HCHDT,115.8,T*24
20220704 190004+00:00 $GPRMC,190000,A,4829.1696,N,12433.3900,W,8.01,115,040722,11.9,E,A,V*61
20220704 190004+00:00 $WIMWV,354.79,R,8.28,N,A*2D
20220704 190006+00:00 $IIMDA,29.9,I,1.013,B,10.9,C,,C,95,,,C,,T,,M,,N,,M*31
20220704 190006+00:00 $HCHDT,115.6,T*2A
20220704 190006+00:00 $GPRMC,190002,A,4829.1600,N,12433.3798,W,8.01,116,040722,11.9,E,A,V*60
20220704 190006+00:00 $WIMWV,351.79,R,8.69,N,A*2D
20220704 190008+00:00 $IIMDA,29.9,I,1.013,B,10.9,C,,C,95,,,C,,T,,M,,N,,M*31
20220704 190008+00:00 $HCHDT,115.6,T*2A
20220704 190008+00:00 $GPRMC,190004,A,4829.1600,N,12433.3696,W,8.01,116,040722,11.9,E,A,V*69
20220704 190008+00:00 $WIMWV,349.89,R,8.79,N,A*2A
20220704 190010+00:00 $IIMDA,29.9,I,1.013,B,10.9,C,,C,95,,,C,,T,,M,,N,,M*31
20220704 190010+00:00 $HCHDT,115.6,T*2A
20220704 190010+00:00 $GPRMC,190006,A,4829.1600,N,12433.3696,W,8.01,115,040722,11.9,E,A,V*68
20220704 190010+00:00 $WIMWV,356.69,R,8.09,N,A*2D
20220704 190012+00:00 $IIMDA,29.9,I,1.013,B,10.9,C,,C,95,,,C,,T,,M,,N,,M*31
20220704 190012+00:00 $HCHDT,115.4,T*28
20220704 190012+00:00 $GPRMC,190008,A,4829.1600,N,12433.3600,W,8.01,116,040722,11.9,E,A,V*6A
20220704 190012+00:00 $WIMWV,358.79,R,7.99,N,A*24
20220704 190014+00:00 $IIMDA,29.9,I,1.013,B,10.9,C,,C,95,,,C,,T,,M,,N,,M*31
20220704 190014+00:00 $HCHDT,115.3,T*2F
20220704 190014+00:00 $GPRMC,190010,A,4829.1600,N,12433.3600,W,8.01,116,040722,11.9,E,A,V*63
20220704 190014+00:00 $WIMWV,354.09,R,8.4,N,A*14
20220704 190016+00:00 $IIMDA,29.9,I,1.013,B,10.9,C,,C,95,,,C,,T,,M,,N,,M*31
20220704 190016+00:00 $HCHDT,115.1,T*2D
20220704 190016+00:00 $GPRMC,190012,A,4829.1498,N,12433.3498,W,8.01,115,040722,11.9,E,A,V*62
20220704 190016+00:00 $WIMWV,350.99,R,8.49,N,A*20
20220704 190018+00:00 $IIMDA,29.9,I,1.013,B,10.9,C,,C,95,,,C,,T,,M,,N,,M*31
20220704 190018+00:00 $HCHDT,114.9,T*24
20220704 190018+00:00 $GPRMC,190014,A,4829.1498,N,12433.3396,W,8.01,115,040722,11.9,E,A,V*6D
20220704 190018+00:00 $WIMWV,356.19,R,8.69,N,A*2C
20220704 190020+00:00 $IIMDA,29.9,I,1.013,B,10.9,C,,C,95,,,C,,T,,M,,N,,M*31
20220704 190020+00:00 $HCHDT,114.6,T*2B
20220704 190020+00:00 $GPRMC,190016,A,4829.1498,N,12433.3396,W,8.01,115,040722,11.9,E,A,V*6F
20220704 190020+00:00 $WIMWV,358.39,R,8.28,N,A*25
20220704 190022+00:00 $IIMDA,29.9,I,1.013,B,10.9,C,,C,95,,,C,,T,,M,,N,,M*31
20220704 190022+00:00 $HCHDT,114.9,T*24
20220704 190022+00:00 $GPRMC,190018,A,4829.1498,N,12433.3300,W,8.01,115,040722,11.9,E,A,V*6E
20220704 190022+00:00 $WIMWV,355.89,R,7.99,N,A*26
20220704 190024+00:00 $IIMDA,29.9,I,1.013,B,10.9,C,,C,95,,,C,,T,,M,,N,,M*31
20220704 190024+00:00 $HCHDT,115.5,T*29
20220704 190024+00:00 $GPRMC,190020,A,4829.1498,N,12433.3198,W,8.01,115,040722,11.9,E,A,V*66
20220704 190024+00:00 $WIMWV,347.69,R,8.69,N,A*2B
20220704 190026+00:00 $IIMDA,29.9,I,1.013,B,10.9,C,,C,95,,,C,,T,,M,,N,,M*31
20220704 190026+00:00 $HCHDT,115.9,T*25
20220704 190026+00:00 $GPRMC,190022,A,4829.1498,N,12433.3198,W,8.01,115,040722,11.9,E,A,V*64
20220704 190026+00:00 $WIMWV,357.19,R,8.49,N,A*2F
20220704 190028+00:00 $IIMDA,29.9,I,1.013,B,10.9,C,,C,95,,,C,,T,,M,,N,,M*31
20220704 190028+00:00 $HCHDT,115.7,T*2B
20220704 190028+00:00 $GPRMC,190024,A,4829.1396,N,12433.3096,W,8.01,115,040722,11.9,E,A,V*64
20220704 190028+00:00 $WIMWV,356.09,R,8.49,N,A*2F
20220704 190030+00:00 $IIMDA,29.9,I,1.013,B,10.9,C,,C,95,,,C,,T,,M,,N,,M*31
20220704 190030+00:00 $HCHDT,115,T*32
20220704 190030+00:00 $GPRMC,190026,A,4829.1396,N,12433.3096,W,8.01,115,040722,11.9,E,A,V*66
20220704 190030+00:00 $WIMWV,354.19,R,8.18,N,A*28
20220704 190032+00:00 $IIMDA,29.9,I,1.013,B,10.9,C,,C,95,,,C,,T,,M,,N,,M*31
20220704 190032+00:00 $HCHDT,114.8,T*25
20220704 190032+00:00 $GPRMC,190028,A,4829.1396,N,12433.3000,W,8.01,115,040722,11.9,E,A,V*67
20220704 190032+00:00 $WIMWV,351.69,R,8.4,N,A*17
20220704 190034+00:00 $IIMDA,29.9,I,1.013,B,10.9,C,,C,95,,,C,,T,,M,,N,,M*31
20220704 190034+00:00 $HCHDT,115.3,T*2F
20220704 190034+00:00 $GPRMC,190030,A,4829.1396,N,12433.2898,W,8.01,115,040722,11.9,E,A,V*66
20220704 190034+00:00 $WIMWV,352.29,R,8.4,N,A*10
20220704 190036+00:00 $IIMDA,29.9,I,1.013,B,10.9,C,,C,95,,,C,,T,,M,,N,,M*31
20220704 190036+00:00 $HCHDT,115.7,T*2B
20220704 190036+00:00 $GPRMC,190032,A,4829.1396,N,12433.2898,W,8.01,115,040722,11.9,E,A,V*64
20220704 190036+00:00 $WIMWV,357.59,R,8.4,N,A*12
20220704 190038+00:00 $IIMDA,29.9,I,1.013,B,10.9,C,,C,95,,,C,,T,,M,,N,,M*31
20220704 190038+00:00 $HCHDT,115.8,T*24
20220704 190038+00:00 $GPRMC,190034,A,4829.1300,N,12433.2796,W,8.01,115,040722,11.9,E,A,V*6C
20220704 190038+00:00 $WIMWV,359.59,R,8.18,N,A*21
20220704 190040+00:00 $IIMDA,29.9,I,1.013,B,10.9,C,,C,95,,,C,,T,,M,,N,,M*31
20220704 190040+00:00 $HCHDT,115.2,T*2E
20220704 190040+00:00 $GPRMC,190036,A,4829.1300,N,12433.2796,W,8.01,115,040722,11.9,E,A,V*6E
20220704 190040+00:00 $WIMWV,345.89,R,8.28,N,A*22
20220704 190042+00:00 $IIMDA,29.9,I,1.013,B,10.9,C,,C,95,,,C,,T,,M,,N,,M*31
20220704 190042+00:00 $HCHDT,114.6,T*2B
20220704 190042+00:00 $GPRMC,190038,A,4829.1300,N,12433.2700,W,8.01,115,040722,11.9,E,A,V*6F
20220704 190042+00:00 $WIMWV,352.49,R,8.4,N,A*16
20220704 190044+00:00 $IIMDA,29.9,I,1.013,B,10.9,C,,C,95,,,C,,T,,M,,N,,M*31
20220704 190044+00:00 $HCHDT,114.4,T*29
20220704 190044+00:00 $GPRMC,190040,A,4829.1300,N,12433.2598,W,8.01,115,040722,11.9,E,A,V*63
20220704 190044+00:00 $WIMWV,357.79,R,8.4,N,A*10
20220704 190046+00:00 $IIMDA,29.9,I,1.013,B,10.9,C,,C,95,,,C,,T,,M,,N,,M*31
20220704 190046+00:00 $HCHDT,114.9,T*24
20220704 190046+00:00 $GPRMC,190042,A,4829.1300,N,12433.2598,W,8.01,115,040722,11.9,E,A,V*61
20220704 190046+00:00 $WIMWV,358.19,R,7.89,N,A*23
20220704 190048+00:00 $IIMDA,29.9,I,1.013,B,10.9,C,,C,95,,,C,,T,,M,,N,,M*31
20220704 190048+00:00 $HCHDT,115.5,T*29
20220704 190048+00:00 $GPRMC,190044,A,4829.1198,N,12433.2496,W,8.01,115,040722,11.9,E,A,V*6B
20220704 190048+00:00 $WIMWV,351.99,R,8.4,N,A*18
20220704 190050+00:00 $IIMDA,29.9,I,1.013,B,10.9,C,,C,95,,,C,,T,,M,,N,,M*31
20220704 190050+00:00 $HCHDT,115.4,T*28
20220704 190050+00:00 $GPRMC,190046,A,4829.1198,N,12433.2496,W,8.01,115,040722,11.9,E,A,V*69
20220704 190050+00:00 $WIMWV,350.79,R,8.49,N,A*2E
20220704 190052+00:00 $IIMDA,29.9,I,1.013,B,10.9,C,,C,95,,,C,,T,,M,,N,,M*31
20220704 190052+00:00 $HCHDT,115.1,T*2D
20220704 190052+00:00 $GPRMC,190048,A,4829.1198,N,12433.2400,W,8.01,115,040722,11.9,E,A,V*68
20220704 190052+00:00 $WIMWV,350.09,R,8.59,N,A*28
20220704 190054+00:00 $IIMDA,29.9,I,1.013,B,10.9,C,,C,95,,,C,,T,,M,,N,,M*31
20220704 190054+00:00 $HCHDT,115.3,T*2F
20220704 190054+00:00 $GPRMC,190050,A,4829.1198,N,12433.2298,W,8.01,114,040722,11.9,E,A,V*67
20220704 190054+00:00 $WIMWV,355.79,R,8.49,N,A*2B
20220704 190056+00:00 $IIMDA,29.9,I,1.013,B,10.9,C,,C,95,,,C,,T,,M,,N,,M*31
20220704 190056+00:00 $HCHDT,115.2,T*2E
20220704 190056+00:00 $GPRMC,190052,A,4829.1198,N,12433.2298,W,8.01,114,040722,11.9,E,A,V*65
20220704 190056+00:00 $WIMWV,354.69,R,8.4,N,A*12
20220704 190058+00:00 $IIMDA,29.9,I,1.013,B,10.9,C,,C,95,,,C,,T,,M,,N,,M*31
20220704 190058+00:00 $HCHDT,115.1,T*2D
20220704 190058+00:00 $GPRMC,190054,A,4829.1198,N,12433.2196,W,8.01,114,040722,11.9,E,A,V*6E
20220704 190058+00:00 $WIMWV,353.39,R,8.49,N,A*29
20220704 190100+00:00 $IIMDA,29.9,I,1.013,B,10.9,C,,C,95,,,C,,T,,M,,N,,M*31
20220704 190100+00:00 $HCHDT,115.4,T*28
20220704 190100+00:00 $GPRMC,190056,A,4829.1096,N,12433.2196,W,8.01,114,040722,11.9,E,A,V*63
20220704 190100+00:00 $WIMWV,350.69,R,8.69,N,A*2D
20220704 190102+00:00 $IIMDA,29.9,I,1.013,B,10.9,C,,C,95,,,C,,T,,M,,N,,M*31
20220704 190102+00:00 $HCHDT,115.7,T*2B
20220704 190102+00:00 $GPRMC,190058,A,4829.1096,N,12433.2100,W,8.01,114,040722,11.9,E,A,V*62
20220704 190102+00:00 $WIMWV,353.69,R,8.79,N,A*2F
20220704 190104+00:00 $IIMDA,29.9,I,1.013,B,10.9,C,,C,95,,,C,,T,,M,,N,,M*31
20220704 190104+00:00 $HCHDT,115.5,T*29
20220704 190104+00:00 $GPRMC,190100,A,4829.1096,N,12433.1998,W,8.01,115,040722,11.9,E,A,V*65
20220704 190104+00:00 $WIMWV,349.49,R,8.88,N,A*28
20220704 190106+00:00 $IIMDA,29.9,I,1.013,B,10.9,C,,C,95.1,,,C,,T,,M,,N,,M*2E
20220704 190106+00:00 $HCHDT,115.1,T*2D
20220704 190106+00:00 $GPRMC,190102,A,4829.1096,N,12433.1998,W,8.01,115,040722,11.9,E,A,V*67
20220704 190106+00:00 $WIMWV,353.99,R,8.49,N,A*23
20220704 190108+00:00 $IIMDA,29.9,I,1.013,B,10.9,C,,C,95,,,C,,T,,M,,N,,M*31
20220704 190108+00:00 $HCHDT,114.9,T*24
20220704 190108+00:00 $GPRMC,190104,A,4829.1096,N,12433.1896,W,8.01,115,040722,11.9,E,A,V*6E
20220704 190108+00:00 $WIMWV,349.49,R,8.69,N,A*27
20220704 190110+00:00 $IIMDA,29.9,I,1.013,B,10.9,C,,C,95,,,C,,T,,M,,N,,M*31
20220704 190110+00:00 $HCHDT,115.2,T*2E
20220704 190110+00:00 $GPRMC,190106,A,4829.1000,N,12433.1800,W,8.01,114,040722,11.9,E,A,V*6D
20220704 190110+00:00 $WIMWV,352.49,R,8.79,N,A*2C
20220704 190112+00:00 $IIMDA,29.9,I,1.013,B,10.9,C,,C,95,,,C,,T,,M,,N,,M*31
20220704 190112+00:00 $HCHDT,115.4,T*28
20220704 190112+00:00 $GPRMC,190108,A,4829.1000,N,12433.1800,W,8.01,114,040722,11.9,E,A,V*63
20220704 190112+00:00 $WIMWV,354.49,R,8.28,N,A*2E
20220704 190114+00:00 $IIMDA,29.9,I,1.013,B,10.9,C,,C,95.1,,,C,,T,,M,,N,,M*2E
20220704 190114+00:00 $HCHDT,115.4,T*28
20220704 190114+00:00 $GPRMC,190110,A,4829.1000,N,12433.1698,W,8.01,115,040722,11.9,E,A,V*64
20220704 190114+00:00 $WIMWV,353.69,R,8.49,N,A*2C
20220704 190116+00:00 $IIMDA,29.9,I,1.013,B,10.9,C,,C,95,,,C,,T,,M,,N,,M*31
20220704 190116+00:00 $HCHDT,115.3,T*2F
20220704 190116+00:00 $GPRMC,190112,A,4829.1000,N,12433.1698,W,8.01,115,040722,11.9,E,A,V*66
20220704 190116+00:00 $WIMWV,348.89,R,8.4,N,A*11
20220704 190118+00:00 $IIMDA,29.9,I,1.013,B,10.9,C,,C,95,,,C,,T,,M,,N,,M*31
20220704 190118+00:00 $HCHDT,115.1,T*2D
20220704 190118+00:00 $GPRMC,190114,A,4829.1000,N,12433.1596,W,8.01,115,040722,11.9,E,A,V*6D
20220704 190118+00:00 $WIMWV,349.99,R,8.4,N,A*11
20220704 190120+00:00 $IIMDA,29.9,I,1.013,B,10.9,C,,C,95,,,C,,T,,M,,N,,M*31
20220704 190120+00:00 $HCHDT,114.9,T*24
20220704 190120+00:00 $GPRMC,190116,A,4829.1000,N,12433.1500,W,8.01,114,040722,11.9,E,A,V*61
20220704 190120+00:00 $WIMWV,353.69,R,8.59,N,A*2D
20220704 190122+00:00 $IIMDA,29.9,I,1.013,B,10.9,C,,C,95,,,C,,T,,M,,N,,M*31
20220704 190122+00:00 $HCHDT,114.8,T*25
20220704 190122+00:00 $GPRMC,190118,A,4829.0898,N,12433.1500,W,8.01,114,040722,11.9,E,A,V*67
20220704 190122+00:00 $WIMWV,353.79,R,8.49,N,A*2D
20220704 190124+00:00 $IIMDA,29.9,I,1.013,B,10.9,C,,C,95,,,C,,T,,M,,N,,M*31
20220704 190124+00:00 $HCHDT,114.9,T*24
20220704 190124+00:00 $GPRMC,190120,A,4829.0898,N,12433.1398,W,8.11,114,040722,11.9,E,A,V*6A
20220704 190124+00:00 $WIMWV,350.39,R,8.79,N,A*29
20220704 190126+00:00 $IIMDA,29.9,I,1.013,B,10.9,C,,C,95,,,C,,T,,M,,N,,M*31
20220704 190126+00:00 $HCHDT,115.5,T*29
20220704 190126+00:00 $GPRMC,190122,A,4829.0898,N,12433.1398,W,8.11,114,040722,11.9,E,A,V*68
20220704 190126+00:00 $WIMWV,352.39,R,8.59,N,A*29
20220704 190128+00:00 $IIMDA,29.9,I,1.013,B,10.9,C,,C,95,,,C,,T,,M,,N,,M*31
20220704 190128+00:00 $HCHDT,115.7,T*2B
20220704 190128+00:00 $GPRMC,190124,A,4829.0898,N,12433.1296,W,8.11,114,040722,11.9,E,A,V*61
20220704 190128+00:00 $WIMWV,356.29,R,8.28,N,A*2A
20220704 190130+00:00 $IIMDA,29.9,I,1.013,B,10.9,C,,C,95.1,,,C,,T,,M,,N,,M*2E
20220704 190130+00:00 $HCHDT,115.7,T*2B
20220704 190130+00:00 $GPRMC,190126,A,4829.0898,N,12433.1200,W,8.01,114,040722,11.9,E,A,V*6D
20220704 190130+00:00 $WIMWV,350.89,R,8.18,N,A*25
20220704 190132+00:00 $IIMDA,29.9,I,1.013,B,10.9,C,,C,95,,,C,,T,,M,,N,,M*31
20220704 190132+00:00 $HCHDT,115.7,T*2B
20220704 190132+00:00 $GPRMC,190128,A,4829.0796,N,12433.1200,W,8.01,115,040722,11.9,E,A,V*63
20220704 190132+00:00 $WIMWV,347.19,R,8.69,N,A*2C
20220704 190134+00:00 $IIMDA,29.9,I,1.013,B,10.9,C,,C,95.1,,,C,,T,,M,,N,,M*2E
20220704 190134+00:00 $HCHDT,115.9,T*25
20220704 190134+00:00 $GPRMC,190130,A,4829.0796,N,12433.1098,W,8.01,115,040722,11.9,E,A,V*69
20220704 190134+00:00 $WIMWV,349.79,R,8.98,N,A*2A
20220704 190136+00:00 $IIMDA,29.9,I,1.013,B,10.9,C,,C,95.1,,,C,,T,,M,,N,,M*2E
20220704 190136+00:00 $HCHDT,116.1,T*2E
20220704 190136+00:00 $GPRMC,190132,A,4829.0796,N,12433.1098,W,8.01,115,040722,11.9,E,A,V*6B
20220704 190136+00:00 $WIMWV,351.59,R,8.69,N,A*2F
20220704 190138+00:00 $IIMDA,29.9,I,1.013,B,10.9,C,,C,95,,,C,,T,,M,,N,,M*31
20220704 190138+00:00 $HCHDT,116.4,T*2B
20220704 190138+00:00 $GPRMC,190134,A,4829.0796,N,12433.0996,W,8.11,115,040722,11.9,E,A,V*6A
20220704 190138+00:00 $WIMWV,354.59,R,8.49,N,A*28
20220704 190140+00:00 $IIMDA,29.9,I,1.013,B,10.9,C,,C,95,,,C,,T,,M,,N,,M*31
20220704 190140+00:00 $HCHDT,116.3,T*2C
20220704 190140+00:00 $GPRMC,190136,A,4829.0796,N,12433.0900,W,8.11,115,040722,11.9,E,A,V*67
20220704 190140+00:00 $WIMWV,348.39,R,8.59,N,A*22
20220704 190142+00:00 $IIMDA,29.9,I,1.013,B,10.9,C,,C,95,,,C,,T,,M,,N,,M*31
20220704 190142+00:00 $HCHDT,116,T*31
20220704 190142+00:00 $GPRMC,190138,A,4829.0700,N,12433.0900,W,8.11,115,040722,11.9,E,A,V*66
20220704 190142+00:00 $WIMWV,349.19,R,8.18,N,A*24
20220704 190144+00:00 $IIMDA,29.9,I,1.013,B,10.9,C,,C,95,,,C,,T,,M,,N,,M*31
20220704 190144+00:00 $HCHDT,115.5,T*29
20220704 190144+00:00 $GPRMC,190140,A,4829.0700,N,12433.0798,W,8.01,115,040722,11.9,E,A,V*67
20220704 190144+00:00 $WIMWV,354.19,R,8.4,N,A*15
20220704 190146+00:00 $IIMDA,29.9,I,1.013,B,10.9,C,,C,95,,,C,,T,,M,,N,,M*31
20220704 190146+00:00 $HCHDT,115,T*32
20220704 190146+00:00 $GPRMC,190142,A,4829.0700,N,12433.0798,W,8.01,115,040722,11.9,E,A,V*65
20220704 190146+00:00 $WIMWV,357.99,R,8.59,N,A*26
20220704 190148+00:00 $IIMDA,29.9,I,1.013,B,10.9,C,,C,95,,,C,,T,,M,,N,,M*31
20220704 190148+00:00 $HCHDT,115,T*32
20220704 190148+00:00 $GPRMC,190144,A,4829.0700,N,12433.0696,W,8.01,115,040722,11.9,E,A,V*6C
20220704 190148+00:00 $WIMWV,358.69,R,8.79,N,A*24
20220704 190150+00:00 $IIMDA,29.9,I,1.013,B,10.9,C,,C,95,,,C,,T,,M,,N,,M*31
20220704 190150+00:00 $HCHDT,115.4,T*28
20220704 190150+00:00 $GPRMC,190146,A,4829.0700,N,12433.0600,W,8.01,115,040722,11.9,E,A,V*61
20220704 190150+00:00 $WIMWV,350.29,R,8.98,N,A*27
20220704 190152+00:00 $IIMDA,29.9,I,1.013,B,10.9,C,,C,95,,,C,,T,,M,,N,,M*31
20220704 190152+00:00 $HCHDT,115.5,T*29
20220704 190152+00:00 $GPRMC,190148,A,4829.0700,N,12433.0600,W,8.11,115,040722,11.9,E,A,V*6E
20220704 190152+00:00 $WIMWV,350.89,R,8.59,N,A*20
20220704 190154+00:00 $IIMDA,29.9,I,1.013,B,10.9,C,,C,95.1,,,C,,T,,M,,N,,M*2E
20220704 190154+00:00 $HCHDT,115.3,T*2F
20220704 190154+00:00 $GPRMC,190150,A,4829.0598,N,12433.0498,W,8.11,115,040722,11.9,E,A,V*67
20220704 190154+00:00 $WIMWV,353.79,R,8.09,N,A*29
20220704 190156+00:00 $IIMDA,29.9,I,1.013,B,10.9,C,,C,95.1,,,C,,T,,M,,N,,M*2E
20220704 190156+00:00 $HCHDT,114.9,T*24
20220704 190156+00:00 $GPRMC,190152,A,4829.0598,N,12433.0396,W,8.11,115,040722,11.9,E,A,V*6C
20220704 190156+00:00 $WIMWV,353.19,R,8.49,N,A*2B
20220704 190158+00:00 $IIMDA,29.9,I,1.013,B,10.9,C,,C,95.1,,,C,,T,,M,,N,,M*2E
20220704 190158+00:00 $HCHDT,115,T*32
20220704 190158+00:00 $GPRMC,190154,A,4829.0598,N,12433.0396,W,8.11,115,040722,11.9,E,A,V*6A
20220704 190158+00:00 $WIMWV,349.39,R,8.4,N,A*1B
20220704 190200+00:00 $IIMDA,29.9,I,1.013,B,10.9,C,,C,95,,,C,,T,,M,,N,,M*31
20220704 190200+00:00 $HCHDT,115.3,T*2F
20220704 190200+00:00 $GPRMC,190156,A,4829.0598,N,12433.0300,W,8.01,114,040722,11.9,E,A,V*67
20220704 190200+00:00 $WIMWV,353.59,R,7.99,N,A*2D
20220704 190202+00:00 $IIMDA,29.9,I,1.013,B,10.9,C,,C,95.1,,,C,,T,,M,,N,,M*2E
20220704 190202+00:00 $HCHDT,115.2,T*2E
20220704 190202+00:00 $GPRMC,190158,A,4829.0598,N,12433.0300,W,8.01,114,040722,11.9,E,A,V*69
20220704 190202+00:00 $WIMWV,358.39,R,8.09,N,A*26
20220704 190204+00:00 $IIMDA,29.9,I,1.013,B,10.9,C,,C,95.1,,,C,,T,,M,,N,,M*2E
20220704 190204+00:00 $HCHDT,114.9,T*24
20220704 190204+00:00 $GPRMC,190200,A,4829.0496,N,12433.0198,W,8.01,115,040722,11.9,E,A,V*6A
20220704 190204+00:00 $WIMWV,355.49,R,8.4,N,A*11
20220704 190206+00:00 $IIMDA,29.9,I,1.013,B,10.9,C,,C,95,,,C,,T,,M,,N,,M*31
20220704 190206+00:00 $HCHDT,114.8,T*25
20220704 190206+00:00 $GPRMC,190202,A,4829.0496,N,12433.0096,W,8.01,115,040722,11.9,E,A,V*67
20220704 190206+00:00 $WIMWV,351.69,R,8.49,N,A*2E
20220704 190208+00:00 $IIMDA,29.9,I,1.013,B,10.9,C,,C,95.1,,,C,,T,,M,,N,,M*2E
20220704 190208+00:00 $HCHDT,115.2,T*2E
20220704 190208+00:00 $GPRMC,190204,A,4829.0496,N,12433.0096,W,8.01,114,040722,11.9,E,A,V*60
20220704 190208+00:00 $WIMWV,349.49,R,8.59,N,A*24
20220704 190210+00:00 $IIMDA,29.9,I,1.013,B,10.9,C,,C,95,,,C,,T,,M,,N,,M*31
20220704 190210+00:00 $HCHDT,115.5,T*29
20220704 190210+00:00 $GPRMC,190206,A,4829.0496,N,12433.0000,W,8.01,114,040722,11.9,E,A,V*6D
20220704 190210+00:00 $WIMWV,355.99,R,8.28,N,A*22
20220704 190212+00:00 $IIMDA,29.9,I,1.013,B,10.9,C,,C,95,,,C,,T,,M,,N,,M*31
20220704 190212+00:00 $HCHDT,115.6,T*2A
20220704 190212+00:00 $GPRMC,190208,A,4829.0496,N,12433.0000,W,8.01,114,040722,11.9,E,A,V*63
20220704 190212+00:00 $WIMWV,356.39,R,8.28,N,A*2B
20220704 190214+00:00 $IIMDA,29.9,I,1.013,B,10.9,C,,C,95,,,C,,T,,M,,N,,M*31
20220704 190214+00:00 $HCHDT,115.7,T*2B
20220704 190214+00:00 $GPRMC,190210,A,4829.0400,N,12432.9898,W,8.01,115,040722,11.9,E,A,V*65
20220704 190214+00:00 $WIMWV,356.79,R,8.4,N,A*11
20220704 190216+00:00 $IIMDA,29.9,I,1.013,B,10.9,C,,C,95.1,,,C,,T,,M,,N,,M*2E
20220704 190216+00:00 $HCHDT,115.8,T*24
20220704 190216+00:00 $GPRMC,190212,A,4829.0400,N,12432.9796,W,8.01,115,040722,11.9,E,A,V*66
20220704 190216+00:00 $WIMWV,356.79,R,8.28,N,A*2F
20220704 190218+00:00 $IIMDA,29.9,I,1.013,B,10.9,C,,C,95,,,C,,T,,M,,N,,M*31
20220704 190218+00:00 $HCHDT,115.8,T*24
20220704 190218+00:00 $GPRMC,190214,A,4829.0400,N,12432.9796,W,8.01,115,040722,11.9,E,A,V*60
20220704 190218+00:00 $WIMWV,355.69,R,8.4,N,A*13
20220704 190220+00:00 $IIMDA,29.9,I,1.013,B,10.9,C,,C,95,,,C,,T,,M,,N,,M*31
20220704 190220+00:00 $HCHDT,115.8,T*24
20220704 190220+00:00 $GPRMC,190216,A,4829.0400,N,12432.9700,W,8.01,115,040722,11.9,E,A,V*6D
20220704 190220+00:00 $WIMWV,353.99,R,8.59,N,A*22
20220704 190222+00:00 $IIMDA,29.9,I,1.013,B,10.9,C,,C,95.1,,,C,,T,,M,,N,,M*2E
20220704 190222+00:00 $HCHDT,116,T*31
20220704 190222+00:00 $GPRMC,190218,A,4829.0400,N,12432.9700,W,8.01,115,040722,11.9,E,A,V*63
20220704 190222+00:00 $WIMWV,349.89,R,8.49,N,A*29
20220704 190224+00:00 $IIMDA,29.9,I,1.013,B,10.9,C,,C,95,,,C,,T,,M,,N,,M*31
20220704 190224+00:00 $HCHDT,116.1,T*2E
20220704 190224+00:00 $GPRMC,190220,A,4829.0400,N,12432.9598,W,8.01,115,040722,11.9,E,A,V*6B
20220704 190224+00:00 $WIMWV,350.99,R,8.49,N,A*20
20220704 190226+00:00 $IIMDA,29.9,I,1.013,B,10.9,C,,C,95,,,C,,T,,M,,N,,M*31
20220704 190226+00:00 $HCHDT,116,T*31
20220704 190226+00:00 $GPRMC,190222,A,4829.0298,N,12432.9496,W,8.01,115,040722,11.9,E,A,V*61
20220704 190226+00:00 $WIMWV,352.09,R,8.18,N,A*2F
20220704 190228+00:00 $IIMDA,29.9,I,1.013,B,10.9,C,,C,95,,,C,,T,,M,,N,,M*31
20220704 190228+00:00 $HCHDT,115.7,T*2B
20220704 190228+00:00 $GPRMC,190224,A,4829.0298,N,12432.9496,W,8.01,115,040722,11.9,E,A,V*67
20220704 190228+00:00 $WIMWV,359.59,R,8.4,N,A*1C
20220704 190230+00:00 $IIMDA,29.9,I,1.013,B,10.9,C,,C,95,,,C,,T,,M,,N,,M*31
20220704 190230+00:00 $HCHDT,115.5,T*29
20220704 190230+00:00 $GPRMC,190226,A,4829.0298,N,12432.9400,W,8.01,115,040722,11.9,E,A,V*6A
20220704 190230+00:00 $WIMWV,351.39,R,8.4,N,A*12
20220704 190232+00:00 $IIMDA,29.9,I,1.013,B,10.9,C,,C,95.1,,,C,,T,,M,,N,,M*2E
20220704 190232+00:00 $HCHDT,115.6,T*2A
20220704 190232+00:00 $GPRMC,190228,A,4829.0298,N,12432.9298,W,8.01,115,040722,11.9,E,A,V*63
20220704 190232+00:00 $WIMWV,354.19,R,8.28,N,A*2B
20220704 190234+00:00 $IIMDA,29.9,I,1.013,B,10.9,C,,C,95,,,C,,T,,M,,N,,M*31
20220704 190234+00:00 $HCHDT,115.8,T*24
20220704 190234+00:00 $GPRMC,190230,A,4829.0298,N,12432.9298,W,8.01,115,040722,11.9,E,A,V*6A
20220704 190234+00:00 $WIMWV,353.69,R,8.28,N,A*2B
20220704 190236+00:00 $IIMDA,29.9,I,1.013,B,10.9,C,,C,95.1,,,C,,T,,M,,N,,M*2E
20220704 190236+00:00 $HCHDT,115.9,T*25
20220704 190236+00:00 $GPRMC,190232,A,4829.0196,N,12432.9196,W,8.01,115,040722,11.9,E,A,V*68
20220704 190236+00:00 $WIMWV,350.99,R,8.59,N,A*21
20220704 190238+00:00 $IIMDA,29.9,I,1.013,B,10.9,C,,C,95.1,,,C,,T,,M,,N,,M*2E
20220704 190238+00:00 $HCHDT,115.7,T*2B
20220704 190238+00:00 $GPRMC,190234,A,4829.0196,N,12432.9196,W,8.01,115,040722,11.9,E,A,V*6E
20220704 190238+00:00 $WIMWV,350.19,R,8.4,N,A*11
20220704 190240+00:00 $IIMDA,29.9,I,1.013,B,10.9,C,,C,95.1,,,C,,T,,M,,N,,M*2E
20220704 190240+00:00 $HCHDT,115.7,T*2B
20220704 190240+00:00 $GPRMC,190236,A,4829.0196,N,12432.9100,W,8.01,115,040722,11.9,E,A,V*63
20220704 190240+00:00 $WIMWV,355.99,R,8.18,N,A*21
20220704 190242+00:00 $IIMDA,29.9,I,1.013,B,10.9,C,,C,95.1,,,C,,T,,M,,N,,M*2E
20220704 190242+00:00 $HCHDT,116.1,T*2E
20220704 190242+00:00 $GPRMC,190238,A,4829.0196,N,12432.8998,W,8.01,115,040722,11.9,E,A,V*65
20220704 190242+00:00 $WIMWV,356.29,R,8.28,N,A*2A
20220704 190244+00:00 $IIMDA,29.9,I,1.013,B,10.9,C,,C,95,,,C,,T,,M,,N,,M*31
20220704 190244+00:00 $HCHDT,116.4,T*2B
20220704 190244+00:00 $GPRMC,190240,A,4829.0196,N,12432.8998,W,8.01,115,040722,11.9,E,A,V*6A
20220704 190244+00:00 $WIMWV,357.29,R,8.09,N,A*28
20220704 190246+00:00 $IIMDA,29.9,I,1.013,B,10.9,C,,C,95.1,,,C,,T,,M,,N,,M*2E
20220704 190246+00:00 $HCHDT,116.1,T*2E
20220704 190246+00:00 $GPRMC,190242,A,4829.0100,N,12432.8896,W,8.01,115,040722,11.9,E,A,V*68
20220704 190246+00:00 $WIMWV,351.69,R,7.99,N,A*2C
20220704 190248+00:00 $IIMDA,29.9,I,1.013,B,10.9,C,,C,95,,,C,,T,,M,,N,,M*31
20220704 190248+00:00 $HCHDT,115.8,T*24
20220704 190248+00:00 $GPRMC,190244,A,4829.0100,N,12432.8896,W,8.01,115,040722,11.9,E,A,V*6E
20220704 190248+00:00 $WIMWV,346.99,R,8.28,N,A*20
20220704 190250+00:00 $IIMDA,29.9,I,1.013,B,10.9,C,,C,95.1,,,C,,T,,M,,N,,M*2E
20220704 190250+00:00 $HCHDT,115.8,T*24
20220704 190250+00:00 $GPRMC,190246,A,4829.0100,N,12432.8800,W,8.01,115,040722,11.9,E,A,V*63
20220704 190250+00:00 $WIMWV,349.69,R,8.59,N,A*26
20220704 190252+00:00 $IIMDA,29.9,I,1.013,B,10.9,C,,C,95.1,,,C,,T,,M,,N,,M*2E
20220704 190252+00:00 $HCHDT,116.1,T*2E
20220704 190252+00:00 $GPRMC,190248,A,4829.0100,N,12432.8698,W,8.01,115,040722,11.9,E,A,V*62
20220704 190252+00:00 $WIMWV,352.09,R,8.88,N,A*26
20220704 190254+00:00 $IIMDA,29.9,I,1.013,B,10.9,C,,C,95.1,,,C,,T,,M,,N,,M*2E
20220704 190254+00:00 $HCHDT,115.6,T*2A
20220704 190254+00:00 $GPRMC,190250,A,4829.0100,N,12432.8698,W,8.01,115,040722,11.9,E,A,V*6B
20220704 190254+00:00 $WIMWV,355.39,R,8.09,N,A*2B
20220704 190256+00:00 $IIMDA,29.9,I,1.013,B,10.9,C,,C,95,,,C,,T,,M,,N,,M*31
20220704 190256+00:00 $HCHDT,114.8,T*25
20220704 190256+00:00 $GPRMC,190252,A,4829.0100,N,12432.8596,W,8.01,115,040722,11.9,E,A,V*64
20220704 190256+00:00 $WIMWV,347.49,R,8.09,N,A*2F
20220704 190258+00:00 $IIMDA,29.9,I,1.013,B,10.9,C,,C,95,,,C,,T,,M,,N,,M*31
20220704 190258+00:00 $HCHDT,114.3,T*2E
20220704 190258+00:00 $GPRMC,190254,A,4828.9998,N,12432.8596,W,8.01,115,040722,11.9,E,A,V*63
20220704 190258+00:00 $WIMWV,345.79,R,8.28,N,A*2D
20220704 190300+00:00 $IIMDA,29.9,I,1.013,B,10.9,C,,C,95,,,C,,T,,M,,N,,M*31
20220704 190300+00:00 $HCHDT,114.7,T*2A
20220704 190300+00:00 $GPRMC,190256,A,4828.9998,N,12432.8500,W,8.01,114,040722,11.9,E,A,V*6F
20220704 190300+00:00 $WIMWV,352.39,R,8.18,N,A*2C
20220704 190302+00:00 $IIMDA,29.9,I,1.013,B,10.9,C,,C,95.1,,,C,,T,,M,,N,,M*2E
20220704 190302+00:00 $HCHDT,115.5,T*29
20220704 190302+00:00 $GPRMC,190258,A,4828.9998,N,12432.8398,W,8.01,114,040722,11.9,E,A,V*66
20220704 190302+00:00 $WIMWV,350.59,R,8.09,N,A*28
20220704 190304+00:00 $IIMDA,29.9,I,1.013,B,10.9,C,,C,95,,,C,,T,,M,,N,,M*31
20220704 190304+00:00 $HCHDT,116,T*31
20220704 190304+00:00 $GPRMC,190300,A,4828.9998,N,12432.8398,W,8.01,114,040722,11.9,E,A,V*6A
20220704 190304+00:00 $WIMWV,351.99,R,8.49,N,A*21
20220704 190306+00:00 $IIMDA,29.9,I,1.013,B,10.9,C,,C,95,,,C,,T,,M,,N,,M*31
20220704 190306+00:00 $HCHDT,115.8,T*24
20220704 190306+00:00 $GPRMC,190302,A,4828.9998,N,12432.8296,W,8.01,115,040722,11.9,E,A,V*66
20220704 190306+00:00 $WIMWV,351.79,R,8.18,N,A*2B
20220704 190308+00:00 $IIMDA,29.9,I,1.013,B,10.9,C,,C,95,,,C,,T,,M,,N,,M*31
20220704 190308+00:00 $HCHDT,115.5,T*29
20220704 190308+00:00 $GPRMC,190304,A,4828.9896,N,12432.8296,W,8.01,115,040722,11.9,E,A,V*6F
20220704 190308+00:00 $WIMWV,350.89,R,8.69,N,A*23
20220704 190310+00:00 $IIMDA,29.9,I,1.013,B,10.9,C,,C,95,,,C,,T,,M,,N,,M*31
20220704 190310+00:00 $HCHDT,115,T*32
20220704 190310+00:00 $GPRMC,190306,A,4828.9896,N,12432.8200,W,8.01,115,040722,11.9,E,A,V*62
20220704 190310+00:00 $WIMWV,352.09,R,8.18,N,A*2F
20220704 190312+00:00 $IIMDA,29.9,I,1.013,B,10.9,C,,C,95,,,C,,T,,M,,N,,M*31
20220704 190312+00:00 $HCHDT,114.8,T*25
20220704 190312+00:00 $GPRMC,190308,A,4828.9896,N,12432.8098,W,8.01,115,040722,11.9,E,A,V*6F
20220704 190312+00:00 $WIMWV,354.99,R,8.49,N,A*24
20220704 190314+00:00 $IIMDA,29.9,I,1.013,B,10.9,C,,C,95.1,,,C,,T,,M,,N,,M*2E
20220704 190314+00:00 $HCHDT,115.3,T*2F
20220704 190314+00:00 $GPRMC,190310,A,4828.9896,N,12432.8098,W,8.01,115,040722,11.9,E,A,V*66
20220704 190314+00:00 $WIMWV,348.79,R,8.59,N,A*26
20220704 190316+00:00 $IIMDA,29.9,I,1.013,B,10.9,C,,C,95,,,C,,T,,M,,N,,M*31
20220704 190316+00:00 $HCHDT,115.7,T*2B
20220704 190316+00:00 $GPRMC,190312,A,4828.9896,N,12432.7996,W,8.01,115,040722,11.9,E,A,V*6C
20220704 190316+00:00 $WIMWV,349.49,R,8.18,N,A*21
20220704 190318+00:00 $IIMDA,29.9,I,1.013,B,10.9,C,,C,95,,,C,,T,,M,,N,,M*31
20220704 190318+00:00 $HCHDT,115.5,T*29
20220704 190318+00:00 $GPRMC,190314,A,4828.9896,N,12432.7996,W,8.01,115,040722,11.9,E,A,V*6A
20220704 190318+00:00 $WIMWV,350.09,R,8.4,N,A*10
20220704 190320+00:00 $IIMDA,29.9,I,1.013,B,10.9,C,,C,95,,,C,,T,,M,,N,,M*31
20220704 190320+00:00 $HCHDT,115.2,T*2E
20220704 190320+00:00 $GPRMC,190316,A,4828.9800,N,12432.7900,W,7.89,114,040722,11.9,E,A,V*66
20220704 190320+00:00 $WIMWV,357.89,R,7.99,N,A*24
20220704 190322+00:00 $IIMDA,29.9,I,1.013,B,10.9,C,,C,95,,,C,,T,,M,,N,,M*31
20220704 190322+00:00 $HCHDT,115.3,T*2F
20220704 190322+00:00 $GPRMC,190318,A,4828.9800,N,12432.7798,W,7.89,114,040722,11.9,E,A,V*67
20220704 190322+00:00 $WIMWV,355.89,R,8.59,N,A*25
20220704 190324+00:00 $IIMDA,29.9,I,1.013,B,10.9,C,,C,95,,,C,,T,,M,,N,,M*31
20220704 190324+00:00 $HCHDT,115.6,T*2A
20220704 190324+00:00 $GPRMC,190320,A,4828.9800,N,12432.7798,W,8.01,114,040722,11.9,E,A,V*63
20220704 190324+00:00 $WIMWV,351.09,R,8.98,N,A*24
20220704 190326+00:00 $IIMDA,29.9,I,1.013,B,10.9,C,,C,95,,,C,,T,,M,,N,,M*31
20220704 190326+00:00 $HCHDT,115.4,T*28
20220704 190326+00:00 $GPRMC,190322,A,4828.9800,N,12432.7696,W,8.01,115,040722,11.9,E,A,V*6F
20220704 190326+00:00 $WIMWV,347.49,R,8.59,N,A*2A
20220704 190328+00:00 $IIMDA,29.9,I,1.013,B,10.9,C,,C,95,,,C,,T,,M,,N,,M*31
20220704 190328+00:00 $HCHDT,115,T*32
20220704 190328+00:00 $GPRMC,190324,A,4828.9800,N,12432.7600,W,8.01,114,040722,11.9,E,A,V*67
20220704 190328+00:00 $WIMWV,346.69,R,8.49,N,A*28
20220704 190330+00:00 $IIMDA,29.9,I,1.013,B,10.9,C,,C,95,,,C,,T,,M,,N,,M*31
20220704 190330+00:00 $HCHDT,115.2,T*2E
20220704 190330+00:00 $GPRMC,190326,A,4828.9698,N,12432.7600,W,8.01,114,040722,11.9,E,A,V*6A
20220704 190330+00:00 $WIMWV,348.09,R,8.59,N,A*21
20220704 190332+00:00 $IIMDA,29.9,I,1.013,B,10.9,C,,C,95,,,C,,T,,M,,N,,M*31
20220704 190332+00:00 $HCHDT,115.9,T*25
20220704 190332+00:00 $GPRMC,190328,A,4828.9698,N,12432.7498,W,8.01,114,040722,11.9,E,A,V*67
20220704 190332+00:00 $WIMWV,353.79,R,8.59,N,A*2C
20220704 190334+00:00 $IIMDA,29.9,I,1.013,B,10.9,C,,C,95,,,C,,T,,M,,N,,M*31
20220704 190334+00:00 $HCHDT,116.1,T*2E
20220704 190334+00:00 $GPRMC,190330,A,4828.9698,N,12432.7498,W,8.01,114,040722,11.9,E,A,V*6E
20220704 190334+00:00 $WIMWV,354.99,R,8.69,N,A*26
20220704 190336+00:00 $IIMDA,29.9,I,1.013,B,10.9,C,,C,95,,,C,,T,,M,,N,,M*31
20220704 190336+00:00 $HCHDT,116.2,T*2D
20220704 190336+00:00 $GPRMC,190332,A,4828.9698,N,12432.7396,W,8.01,115,040722,11.9,E,A,V*64
20220704 190336+00:00 $WIMWV,352.09,R,8.69,N,A*29
20220704 190338+00:00 $IIMDA,29.9,I,1.013,B,10.9,C,,C,95,,,C,,T,,M,,N,,M*31
20220704 190338+00:00 $HCHDT,115.9,T*25
20220704 190338+00:00 $GPRMC,190334,A,4828.9698,N,12432.7300,W,8.01,115,040722,11.9,E,A,V*6D
20220704 190338+00:00 $WIMWV,345.79,R,8.69,N,A*28
20220704 190340+00:00 $IIMDA,29.9,I,1.013,B,10.9,C,,C,95,,,C,,T,,M,,N,,M*31
20220704 190340+00:00 $HCHDT,115.7,T*2B
20220704 190340+00:00 $GPRMC,190336,A,4828.9596,N,12432.7300,W,8.01,115,040722,11.9,E,A,V*62
20220704 190340+00:00 $WIMWV,345.49,R,7.99,N,A*2B
20220704 190342+00:00 $IIMDA,29.9,I,1.013,B,10.9,C,,C,95,,,C,,T,,M,,N,,M*31
20220704 190342+00:00 $HCHDT,115.7,T*2B
20220704 190342+00:00 $GPRMC,190338,A,4828.9596,N,12432.7198,W,8.01,115,040722,11.9,E,A,V*6F
20220704 190342+00:00 $WIMWV,353.39,R,8.4,N,A*10
20220704 190344+00:00 $IIMDA,29.9,I,1.013,B,10.9,C,,C,95,,,C,,T,,M,,N,,M*31
20220704 190344+00:00 $HCHDT,115.8,T*24
20220704 190344+00:00 $GPRMC,190340,A,4828.9596,N,12432.7198,W,8.01,115,040722,11.9,E,A,V*60
20220704 190344+00:00 $WIMWV,347.99,R,8.49,N,A*26
20220704 190346+00:00 $IIMDA,29.9,I,1.013,B,10.9,C,,C,95,,,C,,T,,M,,N,,M*31
20220704 190346+00:00 $HCHDT,116.2,T*2D
20220704 190346+00:00 $GPRMC,190342,A,4828.9596,N,12432.7096,W,8.01,115,040722,11.9,E,A,V*6D
20220704 190346+00:00 $WIMWV,356.09,R,8.49,N,A*2F
20220704 190348+00:00 $IIMDA,29.9,I,1.013,B,10.9,C,,C,95,,,C,,T,,M,,N,,M*31
20220704 190348+00:00 $HCHDT,116.3,T*2C
20220704 190348+00:00 $GPRMC,190344,A,4828.9596,N,12432.7000,W,8.01,115,040722,11.9,E,A,V*64
20220704 190348+00:00 $WIMWV,353.39,R,8.98,N,A*25
20220704 190350+00:00 $IIMDA,29.9,I,1.013,B,10.9,C,,C,95,,,C,,T,,M,,N,,M*31
20220704 190350+00:00 $HCHDT,115.8,T*24
20220704 190350+00:00 $GPRMC,190346,A,4828.9596,N,12432.7000,W,8.01,115,040722,11.9,E,A,V*66
20220704 190350+00:00 $WIMWV,351.29,R,8.79,N,A*29
20220704 190352+00:00 $IIMDA,29.9,I,1.013,B,10.9,C,,C,95,,,C,,T,,M,,N,,M*31
20220704 190352+00:00 $HCHDT,115.5,T*29
20220704 190352+00:00 $GPRMC,190348,A,4828.9500,N,12432.6898,W,8.01,115,040722,11.9,E,A,V*6F
20220704 190352+00:00 $WIMWV,346.19,R,8.69,N,A*2D
20220704 190354+00:00 $IIMDA,29.9,I,1.013,B,10.9,C,,C,95,,,C,,T,,M,,N,,M*31
20220704 190354+00:00 $HCHDT,115.8,T*24
20220704 190354+00:00 $GPRMC,190350,A,4828.9500,N,12432.6898,W,8.11,115,040722,11.9,E,A,V*67
20220704 190354+00:00 $WIMWV,349.89,R,8.79,N,A*2A
20220704 190356+00:00 $IIMDA,29.9,I,1.013,B,10.9,C,,C,95.1,,,C,,T,,M,,N,,M*2E
20220704 190356+00:00 $HCHDT,116.1,T*2E
20220704 190356+00:00 $GPRMC,190352,A,4828.9500,N,12432.6796,W,8.11,115,040722,11.9,E,A,V*64
20220704 190356+00:00 $WIMWV,351.39,R,8.4,N,A*12
20220704 190358+00:00 $IIMDA,29.9,I,1.013,B,10.9,C,,C,95,,,C,,T,,M,,N,,M*31
20220704 190358+00:00 $HCHDT,116.2,T*2D
20220704 190358+00:00 $GPRMC,190354,A,4828.9500,N,12432.6700,W,8.01,115,040722,11.9,E,A,V*6C
20220704 190358+00:00 $WIMWV,351.29,R,8.79,N,A*29
20220704 190400+00:00 $IIMDA,29.9,I,1.013,B,10.9,C,,C,95,,,C,,T,,M,,N,,M*31
20220704 190400+00:00 $HCHDT,116.2,T*2D
20220704 190400+00:00 $GPRMC,190356,A,4828.9500,N,12432.6700,W,8.01,115,040722,11.9,E,A,V*6E
20220704 190400+00:00 $WIMWV,356.29,R,8.49,N,A*2D
20220704 190402+00:00 $IIMDA,29.9,I,1.013,B,10.9,C,,C,95,,,C,,T,,M,,N,,M*31
20220704 190402+00:00 $HCHDT,116.2,T*2D
20220704 190402+00:00 $GPRMC,190358,A,4828.9398,N,12432.6598,W,8.01,115,040722,11.9,E,A,V*64
20220704 190402+00:00 $WIMWV,349.89,R,8.98,N,A*25
20220704 190404+00:00 $IIMDA,29.9,I,1.013,B,10.9,C,,C,95,,,C,,T,,M,,N,,M*31
20220704 190404+00:00 $HCHDT,116.2,T*2D
20220704 190404+00:00 $GPRMC,190400,A,4828.9398,N,12432.6496,W,8.01,115,040722,11.9,E,A,V*61
20220704 190404+00:00 $WIMWV,351.59,R,8.79,N,A*2E
20220704 190406+00:00 $IIMDA,29.9,I,1.013,B,10.9,C,,C,95,,,C,,T,,M,,N,,M*31
20220704 190406+00:00 $HCHDT,116.2,T*2D
20220704 190406+00:00 $GPRMC,190402,A,4828.9398,N,12432.6496,W,8.11,115,040722,11.9,E,A,V*62
20220704 190406+00:00 $WIMWV,352.69,R,8.28,N,A*2A
20220704 190408+00:00 $IIMDA,29.9,I,1.013,B,10.9,C,,C,95,,,C,,T,,M,,N,,M*31
20220704 190408+00:00 $HCHDT,116.3,T*2C
20220704 190408+00:00 $GPRMC,190404,A,4828.9398,N,12432.6400,W,8.11,115,040722,11.9,E,A,V*6B
20220704 190408+00:00 $WIMWV,348.19,R,8.28,N,A*26
20220704 190410+00:00 $IIMDA,29.9,I,1.013,B,10.9,C,,C,95,,,C,,T,,M,,N,,M*31
20220704 190410+00:00 $HCHDT,116.3,T*2C
20220704 190410+00:00 $GPRMC,190406,A,4828.9398,N,12432.6400,W,8.11,115,040722,11.9,E,A,V*69
20220704 190410+00:00 $WIMWV,352.59,R,8.79,N,A*2D
20220704 190412+00:00 $IIMDA,29.9,I,1.013,B,10.9,C,,C,95,,,C,,T,,M,,N,,M*31
20220704 190412+00:00 $HCHDT,115.9,T*25
20220704 190412+00:00 $GPRMC,190408,A,4828.9296,N,12432.6298,W,8.01,115,040722,11.9,E,A,V*6E
20220704 190412+00:00 $WIMWV,351.39,R,8.59,N,A*2A
20220704 190414+00:00 $IIMDA,29.9,I,1.013,B,10.9,C,,C,95,,,C,,T,,M,,N,,M*31
20220704 190414+00:00 $HCHDT,115.5,T*29
20220704 190414+00:00 $GPRMC,190410,A,4828.9296,N,12432.6196,W,8.01,115,040722,11.9,E,A,V*6A
20220704 190414+00:00 $WIMWV,351.89,R,8.49,N,A*20
20220704 190416+00:00 $IIMDA,29.9,I,1.013,B,10.9,C,,C,95,,,C,,T,,M,,N,,M*31
20220704 190416+00:00 $HCHDT,115,T*32
20220704 190416+00:00 $GPRMC,190412,A,4828.9296,N,12432.6196,W,8.01,115,040722,11.9,E,A,V*68
20220704 190416+00:00 $WIMWV,359.59,R,8.79,N,A*26
20220704 190418+00:00 $IIMDA,29.9,I,1.013,B,10.9,C,,C,95,,,C,,T,,M,,N,,M*31
20220704 190418+00:00 $HCHDT,115.2,T*2E
20220704 190418+00:00 $GPRMC,190414,A,4828.9296,N,12432.6100,W,8.11,115,040722,11.9,E,A,V*60
20220704 190418+00:00 $WIMWV,348.99,R,9.1,N,A*14
20220704 190420+00:00 $IIMDA,29.9,I,1.013,B,10.9,C,,C,95,,,C,,T,,M,,N,,M*31
20220704 190420+00:00 $HCHDT,115.7,T*2B
20220704 190420+00:00 $GPRMC,190416,A,4828.9296,N,12432.6100,W,8.11,115,040722,11.9,E,A,V*62
20220704 190420+00:00 $WIMWV,349.89,R,8.98,N,A*25
20220704 190422+00:00 $IIMDA,29.9,I,1.013,B,10.9,C,,C,95,,,C,,T,,M,,N,,M*31
20220704 190422+00:00 $HCHDT,115.7,T*2B
20220704 190422+00:00 $GPRMC,190418,A,4828.9296,N,12432.5998,W,8.11,115,040722,11.9,E,A,V*66
20220704 190422+00:00 $WIMWV,349.99,R,8.59,N,A*29
20220704 190424+00:00 $IIMDA,29.9,I,1.013,B,10.9,C,,C,95,,,C,,T,,M,,N,,M*31
20220704 190424+00:00 $HCHDT,115.2,T*2E
20220704 190424+00:00 $GPRMC,190420,A,4828.9200,N,12432.5896,W,8.11,115,040722,11.9,E,A,V*6D
20220704 190424+00:00 $WIMWV,351.49,R,8.69,N,A*2E
20220704 190426+00:00 $IIMDA,29.9,I,1.013,B,10.9,C,,C,95,,,C,,T,,M,,N,,M*31
20220704 190426+00:00 $HCHDT,114.8,T*25
20220704 190426+00:00 $GPRMC,190422,A,4828.9200,N,12432.5896,W,8.11,115,040722,11.9,E,A,V*6F
20220704 190426+00:00 $WIMWV,348.99,R,8.88,N,A*24
20220704 190428+00:00 $IIMDA,29.9,I,1.013,B,10.9,C,,C,94.9,,,C,,T,,M,,N,,M*27
20220704 190428+00:00 $HCHDT,115.2,T*2E
20220704 190428+00:00 $GPRMC,190424,A,4828.9200,N,12432.5800,W,8.11,114,040722,11.9,E,A,V*67
20220704 190428+00:00 $WIMWV,355.89,R,8.88,N,A*29
20220704 190430+00:00 $IIMDA,29.9,I,1.013,B,10.9,C,,C,95,,,C,,T,,M,,N,,M*31
20220704 190430+00:00 $HCHDT,115.6,T*2A
20220704 190430+00:00 $GPRMC,190426,A,4828.9200,N,12432.5800,W,8.11,114,040722,11.9,E,A,V*65
20220704 190430+00:00 $WIMWV,354.39,R,8.88,N,A*23
20220704 190432+00:00 $IIMDA,29.9,I,1.013,B,10.9,C,,C,94.9,,,C,,T,,M,,N,,M*27
20220704 190432+00:00 $HCHDT,115.9,T*25
20220704 190432+00:00 $GPRMC,190428,A,4828.9200,N,12432.5698,W,8.11,115,040722,11.9,E,A,V*65
20220704 190432+00:00 $WIMWV,353.29,R,8.79,N,A*2B
20220704 190434+00:00 $IIMDA,29.9,I,1.013,B,10.9,C,,C,95,,,C,,T,,M,,N,,M*31
20220704 190434+00:00 $HCHDT,116.1,T*2E
20220704 190434+00:00 $GPRMC,190430,A,4828.9098,N,12432.5596,W,8.11,115,040722,11.9,E,A,V*62
20220704 190434+00:00 $WIMWV,347.09,R,8.69,N,A*2D
20220704 190436+00:00 $IIMDA,29.9,I,1.013,B,10.9,C,,C,94.9,,,C,,T,,M,,N,,M*27
20220704 190436+00:00 $HCHDT,116.2,T*2D
20220704 190436+00:00 $GPRMC,190432,A,4828.9098,N,12432.5596,W,8.11,115,040722,11.9,E,A,V*60
20220704 190436+00:00 $WIMWV,345.79,R,8.59,N,A*2B
20220704 190438+00:00 $IIMDA,29.9,I,1.013,B,10.9,C,,C,94.9,,,C,,T,,M,,N,,M*27
20220704 190438+00:00 $HCHDT,115.8,T*24
20220704 190438+00:00 $GPRMC,190434,A,4828.9098,N,12432.5500,W,8.11,115,040722,11.9,E,A,V*69
20220704 190438+00:00 $WIMWV,355.39,R,8.28,N,A*28
20220704 190440+00:00 $IIMDA,29.9,I,1.013,B,10.9,C,,C,94.9,,,C,,T,,M,,N,,M*27
20220704 190440+00:00 $HCHDT,115.1,T*2D
20220704 190440+00:00 $GPRMC,190436,A,4828.9098,N,12432.5398,W,8.11,115,040722,11.9,E,A,V*6C
20220704 190440+00:00 $WIMWV,358.79,R,8.79,N,A*25
20220704 190442+00:00 $IIMDA,29.9,I,1.013,B,10.9,C,,C,94.9,,,C,,T,,M,,N,,M*27
20220704 190442+00:00 $HCHDT,114.9,T*24
20220704 190442+00:00 $GPRMC,190438,A,4828.9098,N,12432.5398,W,8.11,115,040722,11.9,E,A,V*62
20220704 190442+00:00 $WIMWV,351.19,R,9.1,N,A*14
20220704 190444+00:00 $IIMDA,29.9,I,1.013,B,10.9,C,,C,94.9,,,C,,T,,M,,N,,M*27
20220704 190444+00:00 $HCHDT,115.9,T*25
20220704 190444+00:00 $GPRMC,190440,A,4828.8996,N,12432.5296,W,8.11,115,040722,11.9,E,A,V*64
20220704 190444+00:00 $WIMWV,350.59,R,9.39,N,A*2A
20220704 190446+00:00 $IIMDA,29.9,I,1.013,B,10.9,C,,C,94.9,,,C,,T,,M,,N,,M*27
20220704 190446+00:00 $HCHDT,116.4,T*2B
20220704 190446+00:00 $GPRMC,190442,A,4828.8996,N,12432.5296,W,8.11,115,040722,11.9,E,A,V*66
20220704 190446+00:00 $WIMWV,348.99,R,8.98,N,A*25
20220704 190448+00:00 $IIMDA,29.9,I,1.013,B,10.9,C,,C,94.9,,,C,,T,,M,,N,,M*27
20220704 190448+00:00 $HCHDT,115.7,T*2B
20220704 190448+00:00 $GPRMC,190444,A,4828.8996,N,12432.5200,W,8.2,115,040722,11.9,E,A,V*5D
20220704 190448+00:00 $WIMWV,348.79,R,8.59,N,A*26
20220704 190450+00:00 $IIMDA,29.9,I,1.013,B,10.9,C,,C,94.9,,,C,,T,,M,,N,,M*27
20220704 190450+00:00 $HCHDT,114.3,T*2E
20220704 190450+00:00 $GPRMC,190446,A,4828.8996,N,12432.5098,W,8.11,115,040722,11.9,E,A,V*6E
20220704 190450+00:00 $WIMWV,346.69,R,8.69,N,A*2A
20220704 190452+00:00 $IIMDA,29.9,I,1.013,B,10.9,C,,C,94.9,,,C,,T,,M,,N,,M*27
20220704 190452+00:00 $HCHDT,114.4,T*29
20220704 190452+00:00 $GPRMC,190448,A,4828.8996,N,12432.5098,W,8.11,115,040722,11.9,E,A,V*60
20220704 190452+00:00 $WIMWV,354.69,R,9.1,N,A*16
20220704 190454+00:00 $IIMDA,29.9,I,1.013,B,10.9,C,,C,94.9,,,C,,T,,M,,N,,M*27
20220704 190454+00:00 $HCHDT,115.5,T*29
20220704 190454+00:00 $GPRMC,190450,A,4828.8996,N,12432.4996,W,8.11,115,040722,11.9,E,A,V*6F
20220704 190454+00:00 $WIMWV,354.39,R,8.59,N,A*2F
20220704 190456+00:00 $IIMDA,29.9,I,1.013,B,10.9,C,,C,94.9,,,C,,T,,M,,N,,M*27
20220704 190456+00:00 $HCHDT,116.1,T*2E
20220704 190456+00:00 $GPRMC,190452,A,4828.8900,N,12432.4996,W,8.11,115,040722,11.9,E,A,V*62
20220704 190456+00:00 $WIMWV,357.39,R,8.88,N,A*20
20220704 190458+00:00 $IIMDA,29.9,I,1.013,B,10.9,C,,C,94.9,,,C,,T,,M,,N,,M*27
20220704 190458+00:00 $HCHDT,115.7,T*2B
20220704 190458+00:00 $GPRMC,190454,A,4828.8900,N,12432.4900,W,8.11,115,040722,11.9,E,A,V*6B
20220704 190458+00:00 $WIMWV,348.79,R,8.49,N,A*27
20220704 190500+00:00 $IIMDA,29.9,I,1.013,B,10.9,C,,C,94.9,,,C,,T,,M,,N,,M*27
20220704 190500+00:00 $HCHDT,115.3,T*2F
20220704 190500+00:00 $GPRMC,190456,A,4828.8900,N,12432.4798,W,8.11,115,040722,11.9,E,A,V*66
20220704 190500+00:00 $WIMWV,337.69,R,7.99,N,A*2C
20220704 190502+00:00 $IIMDA,29.9,I,1.013,B,10.9,C,,C,94.9,,,C,,T,,M,,N,,M*27
20220704 190502+00:00 $HCHDT,115.7,T*2B
20220704 190502+00:00 $GPRMC,190458,A,4828.8900,N,12432.4798,W,8.11,115,040722,11.9,E,A,V*68
20220704 190502+00:00 $WIMWV,348.19,R,8.18,N,A*25
20220704 190504+00:00 $IIMDA,29.9,I,1.013,B,10.9,C,,C,94.9,,,C,,T,,M,,N,,M*27
20220704 190504+00:00 $HCHDT,116.1,T*2E
20220704 190504+00:00 $GPRMC,190500,A,4828.8900,N,12432.4696,W,8.11,115,040722,11.9,E,A,V*6B
20220704 190504+00:00 $WIMWV,355.59,R,8.59,N,A*28
20220704 190506+00:00 $IIMDA,29.9,I,1.013,B,10.9,C,,C,94.9,,,C,,T,,M,,N,,M*27
20220704 190506+00:00 $HCHDT,116.1,T*2E
20220704 190506+00:00 $GPRMC,190502,A,4828.8798,N,12432.4600,W,8.11,115,040722,11.9,E,A,V*69
20220704 190506+00:00 $WIMWV,349.79,R,8.88,N,A*2B
20220704 190508+00:00 $IIMDA,29.9,I,1.013,B,10.9,C,,C,94.9,,,C,,T,,M,,N,,M*27
20220704 190508+00:00 $HCHDT,116,T*31
20220704 190508+00:00 $GPRMC,190504,A,4828.8798,N,12432.4600,W,8.11,116,040722,11.9,E,A,V*6C
20220704 190508+00:00 $WIMWV,349.69,R,8.79,N,A*24
20220704 190510+00:00 $IIMDA,29.9,I,1.013,B,10.9,C,,C,94.9,,,C,,T,,M,,N,,M*27
20220704 190510+00:00 $HCHDT,116,T*31
20220704 190510+00:00 $GPRMC,190506,A,4828.8798,N,12432.4498,W,8.11,116,040722,11.9,E,A,V*6D
20220704 190510+00:00 $WIMWV,347.89,R,9.1,N,A*1A
20220704 190512+00:00 $IIMDA,29.9,I,1.013,B,10.9,C,,C,94.9,,,C,,T,,M,,N,,M*27
20220704 190512+00:00 $HCHDT,116,T*31
20220704 190512+00:00 $GPRMC,190508,A,4828.8798,N,12432.4498,W,8.11,116,040722,11.9,E,A,V*63
20220704 190512+00:00 $WIMWV,353.29,R,8.59,N,A*29
20220704 190514+00:00 $IIMDA,29.9,I,1.013,B,11,C,,C,94.9,,,C,,T,,M,,N,,M*31
20220704 190514+00:00 $HCHDT,115.9,T*25
20220704 190514+00:00 $GPRMC,190510,A,4828.8798,N,12432.4396,W,8.11,116,040722,11.9,E,A,V*63
20220704 190514+00:00 $WIMWV,353.49,R,8.59,N,A*2F
20220704 190516+00:00 $IIMDA,29.9,I,1.013,B,11,C,,C,94.9,,,C,,T,,M,,N,,M*31
20220704 190516+00:00 $HCHDT,115.9,T*25
20220704 190516+00:00 $GPRMC,190512,A,4828.8696,N,12432.4300,W,8.11,116,040722,11.9,E,A,V*61
20220704 190516+00:00 $WIMWV,350.19,R,8.69,N,A*2A
20220704 190518+00:00 $IIMDA,29.9,I,1.013,B,11,C,,C,94.9,,,C,,T,,M,,N,,M*31
20220704 190518+00:00 $HCHDT,115.9,T*25
20220704 190518+00:00 $GPRMC,190514,A,4828.8696,N,12432.4300,W,8.11,116,040722,11.9,E,A,V*67
20220704 190518+00:00 $WIMWV,346.59,R,8.88,N,A*26
20220704 190520+00:00 $IIMDA,29.9,I,1.013,B,11,C,,C,94.9,,,C,,T,,M,,N,,M*31
20220704 190520+00:00 $HCHDT,115.8,T*24
20220704 190520+00:00 $GPRMC,190516,A,4828.8696,N,12432.4198,W,8.11,116,040722,11.9,E,A,V*66
20220704 190520+00:00 $WIMWV,353.99,R,9.19,N,A*27
20220704 190522+00:00 $IIMDA,29.9,I,1.013,B,11,C,,C,94.9,,,C,,T,,M,,N,,M*31
20220704 190522+00:00 $HCHDT,115.9,T*25
20220704 190522+00:00 $GPRMC,190518,A,4828.8696,N,12432.4198,W,8.11,116,040722,11.9,E,A,V*68
20220704 190522+00:00 $WIMWV,357.69,R,8.98,N,A*24
20220704 190524+00:00 $IIMDA,29.9,I,1.013,B,11,C,,C,94.9,,,C,,T,,M,,N,,M*31
20220704 190524+00:00 $HCHDT,116.2,T*2D
20220704 190524+00:00 $GPRMC,190520,A,4828.8696,N,12432.4096,W,8.11,116,040722,11.9,E,A,V*6C
20220704 190524+00:00 $WIMWV,348.79,R,9.1,N,A*1A
20220704 190526+00:00 $IIMDA,29.9,I,1.013,B,11,C,,C,94.9,,,C,,T,,M,,N,,M*31
20220704 190526+00:00 $HCHDT,116.1,T*2E
20220704 190526+00:00 $GPRMC,190522,A,4828.8600,N,12432.4000,W,8.11,116,040722,11.9,E,A,V*6E
20220704 190526+00:00 $WIMWV,345.69,R,8.79,N,A*28
20220704 190528+00:00 $IIMDA,29.9,I,1.013,B,11,C,,C,94.9,,,C,,T,,M,,N,,M*31
20220704 190528+00:00 $HCHDT,115.7,T*2B
20220704 190528+00:00 $GPRMC,190524,A,4828.8600,N,12432.4000,W,8.11,116,040722,11.9,E,A,V*68
20220704 190528+00:00 $WIMWV,349.29,R,8.69,N,A*21
20220704 190530+00:00 $IIMDA,29.9,I,1.013,B,11,C,,C,94.9,,,C,,T,,M,,N,,M*31
20220704 190530+00:00 $HCHDT,115.6,T*2A
20220704 190530+00:00 $GPRMC,190526,A,4828.8600,N,12432.3898,W,8.11,116,040722,11.9,E,A,V*64
20220704 190530+00:00 $WIMWV,352.09,R,8.59,N,A*2A
20220704 190532+00:00 $IIMDA,29.9,I,1.013,B,11,C,,C,94.9,,,C,,T,,M,,N,,M*31
20220704 190532+00:00 $HCHDT,115.5,T*29
20220704 190532+00:00 $GPRMC,190528,A,4828.8600,N,12432.3898,W,8.11,116,040722,11.9,E,A,V*6A
20220704 190532+00:00 $WIMWV,357.99,R,8.28,N,A*20
20220704 190534+00:00 $IIMDA,29.9,I,1.013,B,11,C,,C,94.9,,,C,,T,,M,,N,,M*31
20220704 190534+00:00 $HCHDT,115.6,T*2A
20220704 190534+00:00 $GPRMC,190530,A,4828.8600,N,12432.3796,W,8.11,116,040722,11.9,E,A,V*62
20220704 190534+00:00 $WIMWV,349.79,R,9.19,N,A*22
20220704 190536+00:00 $IIMDA,29.9,I,1.013,B,11,C,,C,94.9,,,C,,T,,M,,N,,M*31
20220704 190536+00:00 $HCHDT,115.9,T*25
20220704 190536+00:00 $GPRMC,190532,A,4828.8498,N,12432.3700,W,8.11,116,040722,11.9,E,A,V*6C
20220704 190536+00:00 $WIMWV,349.89,R,9.1,N,A*14
20220704 190538+00:00 $IIMDA,29.9,I,1.013,B,11,C,,C,94.9,,,C,,T,,M,,N,,M*31
20220704 190538+00:00 $HCHDT,115.5,T*29
20220704 190538+00:00 $GPRMC,190534,A,4828.8498,N,12432.3700,W,8.11,116,040722,11.9,E,A,V*6A
20220704 190538+00:00 $WIMWV,348.99,R,8.59,N,A*28
20220704 190540+00:00 $IIMDA,29.9,I,1.013,B,11,C,,C,94.8,,,C,,T,,M,,N,,M*30
20220704 190540+00:00 $HCHDT,114.7,T*2A
20220704 190540+00:00 $GPRMC,190536,A,4828.8498,N,12432.3598,W,8.11,116,040722,11.9,E,A,V*6B
20220704 190540+00:00 $WIMWV,341.99,R,8.18,N,A*24
20220704 190542+00:00 $IIMDA,29.9,I,1.013,B,11,C,,C,94.9,,,C,,T,,M,,N,,M*31
20220704 190542+00:00 $HCHDT,114.4,T*29
20220704 190542+00:00 $GPRMC,190538,A,4828.8498,N,12432.3496,W,8.11,115,040722,11.9,E,A,V*69
20220704 190542+00:00 $WIMWV,344.19,R,8.4,N,A*14
20220704 190544+00:00 $IIMDA,29.9,I,1.013,B,11,C,,C,94.8,,,C,,T,,M,,N,,M*30
20220704 190544+00:00 $HCHDT,114.9,T*24
20220704 190544+00:00 $GPRMC,190540,A,4828.8498,N,12432.3496,W,8.11,115,040722,11.9,E,A,V*66
20220704 190544+00:00 $WIMWV,352.19,R,8.4,N,A*13
20220704 190546+00:00 $IIMDA,29.9,I,1.013,B,11,C,,C,94.9,,,C,,T,,M,,N,,M*31
20220704 190546+00:00 $HCHDT,115.8,T*24
20220704 190546+00:00 $GPRMC,190542,A,4828.8396,N,12432.3400,W,8.11,115,040722,11.9,E,A,V*62
20220704 190546+00:00 $WIMWV,351.89,R,8.69,N,A*22
20220704 190548+00:00 $IIMDA,29.9,I,1.013,B,11,C,,C,94.9,,,C,,T,,M,,N,,M*31
20220704 190548+00:00 $HCHDT,116.2,T*2D
20220704 190548+00:00 $GPRMC,190544,A,4828.8396,N,12432.3400,W,8.11,115,040722,11.9,E,A,V*64
20220704 190548+00:00 $WIMWV,350.69,R,8.79,N,A*2C
20220704 190550+00:00 $IIMDA,29.9,I,1.013,B,11,C,,C,94.9,,,C,,T,,M,,N,,M*31
20220704 190550+00:00 $HCHDT,116,T*31
20220704 190550+00:00 $GPRMC,190546,A,4828.8396,N,12432.3298,W,8.11,115,040722,11.9,E,A,V*61
20220704 190550+00:00 $WIMWV,348.99,R,8.79,N,A*2A
20220704 190552+00:00 $IIMDA,29.9,I,1.013,B,11,C,,C,94.9,,,C,,T,,M,,N,,M*31
20220704 190552+00:00 $HCHDT,115.8,T*24
20220704 190552+00:00 $GPRMC,190548,A,4828.8396,N,12432.3196,W,8.11,115,040722,11.9,E,A,V*62
20220704 190552+00:00 $WIMWV,349.39,R,8.88,N,A*2F
20220704 190554+00:00 $IIMDA,29.9,I,1.013,B,11,C,,C,94.9,,,C,,T,,M,,N,,M*31
20220704 190554+00:00 $HCHDT,115.4,T*28
20220704 190554+00:00 $GPRMC,190550,A,4828.8396,N,12432.3196,W,8.11,115,040722,11.9,E,A,V*6B
20220704 190554+00:00 $WIMWV,349.39,R,8.28,N,A*25
20220704 190556+00:00 $IIMDA,29.9,I,1.013,B,11,C,,C,94.9,,,C,,T,,M,,N,,M*31
20220704 190556+00:00 $HCHDT,115,T*32
20220704 190556+00:00 $GPRMC,190552,A,4828.8300,N,12432.3100,W,8.11,115,040722,11.9,E,A,V*69
20220704 190556+00:00 $WIMWV,350.69,R,8.49,N,A*2F
20220704 190558+00:00 $IIMDA,29.9,I,1.013,B,11,C,,C,94.9,,,C,,T,,M,,N,,M*31
20220704 190558+00:00 $HCHDT,115.3,T*2F
20220704 190558+00:00 $GPRMC,190554,A,4828.8300,N,12432.3100,W,8.01,115,040722,11.9,E,A,V*6E
20220704 190558+00:00 $WIMWV,349.69,R,8.79,N,A*24
20220704 190600+00:00 $IIMDA,29.9,I,1.013,B,11,C,,C,94.9,,,C,,T,,M,,N,,M*31
20220704 190600+00:00 $HCHDT,116.1,T*2E
20220704 190600+00:00 $GPRMC,190556,A,4828.8300,N,12432.2998,W,8.01,115,040722,11.9,E,A,V*64
20220704 190600+00:00 $WIMWV,349.69,R,9.19,N,A*23
20220704 190602+00:00 $IIMDA,29.9,I,1.013,B,11,C,,C,94.9,,,C,,T,,M,,N,,M*31
20220704 190602+00:00 $HCHDT,116.4,T*2B
20220704 190602+00:00 $GPRMC,190558,A,4828.8300,N,12432.2896,W,8.11,115,040722,11.9,E,A,V*64
20220704 190602+00:00 $WIMWV,350.79,R,8.79,N,A*2D
20220704 190604+00:00 $IIMDA,29.9,I,1.013,B,11,C,,C,94.9,,,C,,T,,M,,N,,M*31
20220704 190604+00:00 $HCHDT,115.7,T*2B
20220704 190604+00:00 $GPRMC,190600,A,4828.8300,N,12432.2896,W,8.11,115,040722,11.9,E,A,V*6A
20220704 190604+00:00 $WIMWV,349.79,R,8.59,N,A*27
20220704 190606+00:00 $IIMDA,29.9,I,1.013,B,11,C,,C,94.9,,,C,,T,,M,,N,,M*31
20220704 190606+00:00 $HCHDT,114.9,T*24
20220704 190606+00:00 $GPRMC,190602,A,4828.8300,N,12432.2800,W,8.11,115,040722,11.9,E,A,V*67
20220704 190606+00:00 $WIMWV,345.49,R,8.49,N,A*29
20220704 190608+00:00 $IIMDA,29.9,I,1.013,B,11,C,,C,94.9,,,C,,T,,M,,N,,M*31
20220704 190608+00:00 $HCHDT,114.8,T*25
20220704 190608+00:00 $GPRMC,190604,A,4828.8198,N,12432.2800,W,8.11,115,040722,11.9,E,A,V*62
20220704 190608+00:00 $WIMWV,355.39,R,8.49,N,A*2F
20220704 190610+00:00 $IIMDA,29.9,I,1.013,B,11,C,,C,94.9,,,C,,T,,M,,N,,M*31
20220704 190610+00:00 $HCHDT,114.8,T*25
20220704 190610+00:00 $GPRMC,190606,A,4828.8198,N,12432.2698,W,8.01,115,040722,11.9,E,A,V*6E
20220704 190610+00:00 $WIMWV,356.19,R,8.59,N,A*2F
20220704 190612+00:00 $IIMDA,29.9,I,1.013,B,11,C,,C,94.9,,,C,,T,,M,,N,,M*31
20220704 190612+00:00 $HCHDT,114.5,T*28
20220704 190612+00:00 $GPRMC,190608,A,4828.8198,N,12432.2596,W,8.01,115,040722,11.9,E,A,V*6D
20220704 190612+00:00 $WIMWV,351.19,R,8.59,N,A*28
20220704 190614+00:00 $IIMDA,29.9,I,1.013,B,11,C,,C,94.9,,,C,,T,,M,,N,,M*31
20220704 190614+00:00 $HCHDT,114.5,T*28
20220704 190614+00:00 $GPRMC,190610,A,4828.8198,N,12432.2596,W,8.01,115,040722,11.9,E,A,V*64
20220704 190614+00:00 $WIMWV,345.69,R,8.88,N,A*26
20220704 190616+00:00 $IIMDA,29.9,I,1.013,B,11,C,,C,94.9,,,C,,T,,M,,N,,M*31
20220704 190616+00:00 $HCHDT,115.1,T*2D
20220704 190616+00:00 $GPRMC,190612,A,4828.8198,N,12432.2500,W,8.01,115,040722,11.9,E,A,V*69
20220704 190616+00:00 $WIMWV,347.59,R,8.69,N,A*28
20220704 190618+00:00 $IIMDA,29.9,I,1.013,B,11,C,,C,94.9,,,C,,T,,M,,N,,M*31
20220704 190618+00:00 $HCHDT,115.4,T*28
20220704 190618+00:00 $GPRMC,190614,A,4828.8096,N,12432.2500,W,8.01,114,040722,11.9,E,A,V*61
20220704 190618+00:00 $WIMWV,349.79,R,8.79,N,A*25
20220704 190620+00:00 $IIMDA,29.9,I,1.013,B,11,C,,C,94.9,,,C,,T,,M,,N,,M*31
20220704 190620+00:00 $HCHDT,115.1,T*2D
20220704 190620+00:00 $GPRMC,190616,A,4828.8096,N,12432.2398,W,8.01,114,040722,11.9,E,A,V*64
20220704 190620+00:00 $WIMWV,349.89,R,8.28,N,A*2E
20220704 190622+00:00 $IIMDA,29.9,I,1.013,B,11,C,,C,94.9,,,C,,T,,M,,N,,M*31
20220704 190622+00:00 $HCHDT,114.5,T*28
20220704 190622+00:00 $GPRMC,190618,A,4828.8096,N,12432.2296,W,8.01,114,040722,11.9,E,A,V*65
20220704 190622+00:00 $WIMWV,349.99,R,8.4,N,A*11
20220704 190624+00:00 $IIMDA,29.9,I,1.013,B,11,C,,C,94.9,,,C,,T,,M,,N,,M*31
20220704 190624+00:00 $HCHDT,114.5,T*28
20220704 190624+00:00 $GPRMC,190620,A,4828.8096,N,12432.2296,W,8.01,114,040722,11.9,E,A,V*6E
20220704 190624+00:00 $WIMWV,348.09,R,8.59,N,A*21
20220704 190626+00:00 $IIMDA,29.9,I,1.013,B,11,C,,C,94.9,,,C,,T,,M,,N,,M*31
20220704 190626+00:00 $HCHDT,114.5,T*28
20220704 190626+00:00 $GPRMC,190622,A,4828.8096,N,12432.2200,W,7.89,114,040722,11.9,E,A,V*6C
20220704 190626+00:00 $WIMWV,350.89,R,9.1,N,A*1C
20220704 190628+00:00 $IIMDA,29.9,I,1.013,B,11,C,,C,94.9,,,C,,T,,M,,N,,M*31
20220704 190628+00:00 $HCHDT,114.6,T*2B
20220704 190628+00:00 $GPRMC,190624,A,4828.8096,N,12432.2098,W,8.01,114,040722,11.9,E,A,V*66
20220704 190628+00:00 $WIMWV,352.09,R,8.98,N,A*27
20220704 190630+00:00 $IIMDA,29.9,I,1.013,B,11,C,,C,94.9,,,C,,T,,M,,N,,M*31
20220704 190630+00:00 $HCHDT,114.4,T*29
20220704 190630+00:00 $GPRMC,190626,A,4828.8000,N,12432.2098,W,8.01,114,040722,11.9,E,A,V*6B
20220704 190630+00:00 $WIMWV,347.69,R,8.79,N,A*2A
20220704 190632+00:00 $IIMDA,29.9,I,1.013,B,11,C,,C,94.9,,,C,,T,,M,,N,,M*31
20220704 190632+00:00 $HCHDT,114.2,T*2F
20220704 190632+00:00 $GPRMC,190628,A,4828.8000,N,12432.1996,W,8.01,114,040722,11.9,E,A,V*61
20220704 190632+00:00 $WIMWV,343.79,R,8.59,N,A*2D
20220704 190634+00:00 $IIMDA,29.9,I,1.013,B,11,C,,C,94.8,,,C,,T,,M,,N,,M*30
20220704 190634+00:00 $HCHDT,114.1,T*2C
20220704 190634+00:00 $GPRMC,190630,A,4828.8000,N,12432.1996,W,8.01,113,040722,11.9,E,A,V*6F
20220704 190634+00:00 $WIMWV,347.19,R,8.49,N,A*2E
20220704 190636+00:00 $IIMDA,29.9,I,1.013,B,11,C,,C,94.9,,,C,,T,,M,,N,,M*31
20220704 190636+00:00 $HCHDT,114.2,T*2F
20220704 190636+00:00 $GPRMC,190632,A,4828.8000,N,12432.1900,W,8.01,113,040722,11.9,E,A,V*62
20220704 190636+00:00 $WIMWV,353.99,R,8.28,N,A*24
20220704 190638+00:00 $IIMDA,29.9,I,1.013,B,11,C,,C,94.9,,,C,,T,,M,,N,,M*31
20220704 190638+00:00 $HCHDT,114.3,T*2E
20220704 190638+00:00 $GPRMC,190634,A,4828.8000,N,12432.1798,W,7.89,113,040722,11.9,E,A,V*64
20220704 190638+00:00 $WIMWV,349.89,R,8.79,N,A*2A
20220704 190640+00:00 $IIMDA,29.9,I,1.013,B,11,C,,C,94.8,,,C,,T,,M,,N,,M*30
20220704 190640+00:00 $HCHDT,114.2,T*2F
20220704 190640+00:00 $GPRMC,190636,A,4828.8000,N,12432.1798,W,7.89,113,040722,11.9,E,A,V*66
20220704 190640+00:00 $WIMWV,347.69,R,8.79,N,A*2A
20220704 190642+00:00 $IIMDA,29.9,I,1.013,B,11,C,,C,94.9,,,C,,T,,M,,N,,M*31
20220704 190642+00:00 $HCHDT,114.2,T*2F
20220704 190642+00:00 $GPRMC,190638,A,4828.7898,N,12432.1696,W,8.01,113,040722,11.9,E,A,V*6E
20220704 190642+00:00 $WIMWV,348.89,R,9.1,N,A*15
20220704 190644+00:00 $IIMDA,29.9,I,1.013,B,11,C,,C,94.9,,,C,,T,,M,,N,,M*31
20220704 190644+00:00 $HCHDT,114.5,T*28
20220704 190644+00:00 $GPRMC,190640,A,4828.7898,N,12432.1696,W,8.01,113,040722,11.9,E,A,V*61
20220704 190644+00:00 $WIMWV,349.99,R,8.79,N,A*2B
20220704 190646+00:00 $IIMDA,29.9,I,1.013,B,11,C,,C,94.9,,,C,,T,,M,,N,,M*31
20220704 190646+00:00 $HCHDT,114.8,T*25
20220704 190646+00:00 $GPRMC,190642,A,4828.7898,N,12432.1600,W,8.01,113,040722,11.9,E,A,V*6C
20220704 190646+00:00 $WIMWV,351.09,R,8.69,N,A*2A
20220704 190648+00:00 $IIMDA,29.9,I,1.013,B,11,C,,C,94.8,,,C,,T,,M,,N,,M*30
20220704 190648+00:00 $HCHDT,114.6,T*2B
20220704 190648+00:00 $GPRMC,190644,A,4828.7898,N,12432.1498,W,8.01,113,040722,11.9,E,A,V*69
20220704 190648+00:00 $WIMWV,347.89,R,8.4,N,A*1E
20220704 190650+00:00 $IIMDA,29.9,I,1.013,B,11,C,,C,94.9,,,C,,T,,M,,N,,M*31
20220704 190650+00:00 $HCHDT,114.2,T*2F
20220704 190650+00:00 $GPRMC,190646,A,4828.7898,N,12432.1498,W,8.01,113,040722,11.9,E,A,V*6B
20220704 190650+00:00 $WIMWV,350.19,R,8.88,N,A*25
20220704 190652+00:00 $IIMDA,29.9,I,1.013,B,11,C,,C,94.9,,,C,,T,,M,,N,,M*31
20220704 190652+00:00 $HCHDT,114.2,T*2F
20220704 190652+00:00 $GPRMC,190648,A,4828.7796,N,12432.1396,W,7.89,113,040722,11.9,E,A,V*62
20220704 190652+00:00 $WIMWV,354.09,R,8.69,N,A*2F
20220704 190654+00:00 $IIMDA,29.9,I,1.013,B,11,C,,C,94.9,,,C,,T,,M,,N,,M*31
20220704 190654+00:00 $HCHDT,114.6,T*2B
20220704 190654+00:00 $GPRMC,190650,A,4828.7796,N,12432.1396,W,7.89,113,040722,11.9,E,A,V*6B
20220704 190654+00:00 $WIMWV,351.49,R,9.1,N,A*11
20220704 190656+00:00 $IIMDA,29.9,I,1.013,B,11,C,,C,94.9,,,C,,T,,M,,N,,M*31
20220704 190656+00:00 $HCHDT,114.7,T*2A
20220704 190656+00:00 $GPRMC,190652,A,4828.7796,N,12432.1300,W,7.89,113,040722,11.9,E,A,V*66
20220704 190656+00:00 $WIMWV,349.29,R,8.88,N,A*2E
20220704 190658+00:00 $IIMDA,29.9,I,1.013,B,11,C,,C,94.8,,,C,,T,,M,,N,,M*30
20220704 190658+00:00 $HCHDT,114.3,T*2E
20220704 190658+00:00 $GPRMC,190654,A,4828.7796,N,12432.1198,W,8.01,113,040722,11.9,E,A,V*6C
20220704 190658+00:00 $WIMWV,344.49,R,8.59,N,A*29
20220704 190700+00:00 $IIMDA,29.9,I,1.013,B,11,C,,C,94.9,,,C,,T,,M,,N,,M*31
20220704 190700+00:00 $HCHDT,114,T*33
20220704 190700+00:00 $GPRMC,190656,A,4828.7796,N,12432.1198,W,8.01,113,040722,11.9,E,A,V*6E
20220704 190700+00:00 $WIMWV,344.49,R,8.4,N,A*11
20220704 190702+00:00 $IIMDA,29.9,I,1.013,B,11,C,,C,94.8,,,C,,T,,M,,N,,M*30
20220704 190702+00:00 $HCHDT,114,T*33
20220704 190702+00:00 $GPRMC,190658,A,4828.7796,N,12432.1096,W,8.01,113,040722,11.9,E,A,V*6F
20220704 190702+00:00 $WIMWV,349.89,R,8.4,N,A*10
20220704 190704+00:00 $IIMDA,29.9,I,1.013,B,11,C,,C,94.9,,,C,,T,,M,,N,,M*31
20220704 190704+00:00 $HCHDT,114,T*33
20220704 190704+00:00 $GPRMC,190700,A,4828.7700,N,12432.1000,W,8.01,112,040722,11.9,E,A,V*62
20220704 190704+00:00 $WIMWV,348.79,R,8.69,N,A*25
20220704 190706+00:00 $IIMDA,29.9,I,1.013,B,11,C,,C,94.8,,,C,,T,,M,,N,,M*30
20220704 190706+00:00 $HCHDT,114.2,T*2F
20220704 190706+00:00 $GPRMC,190702,A,4828.7700,N,12432.1000,W,7.89,113,040722,11.9,E,A,V*6E
20220704 190706+00:00 $WIMWV,351.29,R,8.88,N,A*27
20220704 190708+00:00 $IIMDA,29.9,I,1.013,B,11,C,,C,94.8,,,C,,T,,M,,N,,M*30
20220704 190708+00:00 $HCHDT,114.4,T*29
20220704 190708+00:00 $GPRMC,190704,A,4828.7700,N,12432.0898,W,7.89,113,040722,11.9,E,A,V*60
20220704 190708+00:00 $WIMWV,343.39,R,8.88,N,A*25
20220704 190710+00:00 $IIMDA,29.9,I,1.013,B,11,C,,C,94.8,,,C,,T,,M,,N,,M*30
20220704 190710+00:00 $HCHDT,114.3,T*2E
20220704 190710+00:00 $GPRMC,190706,A,4828.7700,N,12432.0898,W,7.89,113,040722,11.9,E,A,V*62
20220704 190710+00:00 $WIMWV,347.89,R,8.79,N,A*24
20220704 190712+00:00 $IIMDA,29.9,I,1.013,B,11,C,,C,94.8,,,C,,T,,M,,N,,M*30
20220704 190712+00:00 $HCHDT,114.3,T*2E
20220704 190712+00:00 $GPRMC,190708,A,4828.7700,N,12432.0796,W,8.01,112,040722,11.9,E,A,V*63
20220704 190712+00:00 $WIMWV,348.09,R,8.69,N,A*22
20220704 190714+00:00 $IIMDA,29.9,I,1.013,B,11,C,,C,94.8,,,C,,T,,M,,N,,M*30
20220704 190714+00:00 $HCHDT,114.4,T*29
20220704 190714+00:00 $GPRMC,190710,A,4828.7700,N,12432.0700,W,8.01,113,040722,11.9,E,A,V*64
20220704 190714+00:00 $WIMWV,348.49,R,8.49,N,A*24
20220704 190716+00:00 $IIMDA,29.9,I,1.013,B,11,C,,C,94.8,,,C,,T,,M,,N,,M*30
20220704 190716+00:00 $HCHDT,114.8,T*25
20220704 190716+00:00 $GPRMC,190712,A,4828.7598,N,12432.0700,W,8.01,113,040722,11.9,E,A,V*65
20220704 190716+00:00 $WIMWV,348.89,R,8.59,N,A*29
20220704 190718+00:00 $IIMDA,29.9,I,1.013,B,11,C,,C,94.8,,,C,,T,,M,,N,,M*30
20220704 190718+00:00 $HCHDT,115,T*32
20220704 190718+00:00 $GPRMC,190714,A,4828.7598,N,12432.0598,W,7.89,113,040722,11.9,E,A,V*6F
20220704 190718+00:00 $WIMWV,350.79,R,8.49,N,A*2E
20220704 190720+00:00 $IIMDA,29.9,I,1.013,B,11,C,,C,94.8,,,C,,T,,M,,N,,M*30
20220704 190720+00:00 $HCHDT,114.8,T*25
20220704 190720+00:00 $GPRMC,190716,A,4828.7598,N,12432.0598,W,7.89,113,040722,11.9,E,A,V*6D
20220704 190720+00:00 $WIMWV,344.49,R,8.59,N,A*29
20220704 190722+00:00 $IIMDA,29.9,I,1.013,B,11,C,,C,94.8,,,C,,T,,M,,N,,M*30
20220704 190722+00:00 $HCHDT,114.4,T*29
20220704 190722+00:00 $GPRMC,190718,A,4828.7598,N,12432.0496,W,8.01,113,040722,11.9,E,A,V*63
20220704 190722+00:00 $WIMWV,347.99,R,8.69,N,A*24
20220704 190724+00:00 $IIMDA,29.9,I,1.013,B,11,C,,C,94.8,,,C,,T,,M,,N,,M*30
20220704 190724+00:00 $HCHDT,114.4,T*29
20220704 190724+00:00 $GPRMC,190720,A,4828.7598,N,12432.0400,W,8.01,113,040722,11.9,E,A,V*67
20220704 190724+00:00 $WIMWV,347.69,R,8.49,N,A*29
20220704 190726+00:00 $IIMDA,29.9,I,1.013,B,11,C,,C,94.8,,,C,,T,,M,,N,,M*30
20220704 190726+00:00 $HCHDT,114.6,T*2B
20220704 190726+00:00 $GPRMC,190722,A,4828.7598,N,12432.0400,W,8.01,113,040722,11.9,E,A,V*65
20220704 190726+00:00 $WIMWV,348.79,R,8.59,N,A*26
20220704 190728+00:00 $IIMDA,29.9,I,1.013,B,11,C,,C,94.8,,,C,,T,,M,,N,,M*30
20220704 190728+00:00 $HCHDT,114.4,T*29
20220704 190728+00:00 $GPRMC,190724,A,4828.7496,N,12432.0298,W,8.01,113,040722,11.9,E,A,V*6B
20220704 190728+00:00 $WIMWV,340.59,R,8.28,N,A*2A
20220704 190730+00:00 $IIMDA,29.9,I,1.013,B,11,C,,C,94.8,,,C,,T,,M,,N,,M*30
20220704 190730+00:00 $HCHDT,113.9,T*23
20220704 190730+00:00 $GPRMC,190726,A,4828.7496,N,12432.0196,W,7.89,113,040722,11.9,E,A,V*6B
20220704 190730+00:00 $WIMWV,348.19,R,8.49,N,A*21
20220704 190732+00:00 $IIMDA,29.9,I,1.013,B,11,C,,C,94.8,,,C,,T,,M,,N,,M*30
20220704 190732+00:00 $HCHDT,113.5,T*2F
20220704 190732+00:00 $GPRMC,190728,A,4828.7496,N,12432.0196,W,7.89,113,040722,11.9,E,A,V*65
20220704 190732+00:00 $WIMWV,351.69,R,8.69,N,A*2C
20220704 190734+00:00 $IIMDA,29.9,I,1.013,B,11,C,,C,94.8,,,C,,T,,M,,N,,M*30
20220704 190734+00:00 $HCHDT,113.7,T*2D
20220704 190734+00:00 $GPRMC,190730,A,4828.7496,N,12432.0100,W,7.89,113,040722,11.9,E,A,V*63
20220704 190734+00:00 $WIMWV,348.59,R,9.1,N,A*18
20220704 190736+00:00 $IIMDA,29.9,I,1.013,B,11,C,,C,94.8,,,C,,T,,M,,N,,M*30
20220704 190736+00:00 $HCHDT,113.8,T*22
20220704 190736+00:00 $GPRMC,190732,A,4828.7496,N,12432.0100,W,8.01,112,040722,11.9,E,A,V*6F
20220704 190736+00:00 $WIMWV,349.49,R,8.98,N,A*29
20220704 190738+00:00 $IIMDA,29.9,I,1.013,B,11,C,,C,94.8,,,C,,T,,M,,N,,M*30
20220704 190738+00:00 $HCHDT,113.8,T*22
20220704 190738+00:00 $GPRMC,190734,A,4828.7496,N,12431.9998,W,8.01,112,040722,11.9,E,A,V*6A
20220704 190738+00:00 $WIMWV,345.39,R,8.49,N,A*2E
20220704 190740+00:00 $IIMDA,29.9,I,1.013,B,11,C,,C,94.8,,,C,,T,,M,,N,,M*30
20220704 190740+00:00 $HCHDT,113.9,T*23
20220704 190740+00:00 $GPRMC,190736,A,4828.7400,N,12431.9896,W,8.01,112,040722,11.9,E,A,V*68
20220704 190740+00:00 $WIMWV,343.39,R,8.4,N,A*11
20220704 190742+00:00 $IIMDA,29.9,I,1.013,B,11,C,,C,94.8,,,C,,T,,M,,N,,M*30
20220704 190742+00:00 $HCHDT,114,T*33
