20231006 215050+01:00 $HCHDT,177.1,T*29
20231006 215051+01:00 $GPRMC,205047,A,4918.7228,N,12306.4158,W,0,0,061023,,,D,V*1A
20231006 215052+01:00 $HCHDT,177.1,T*29
20231006 215052+01:00 $IIMDA,30.1,I,1.02,B,48.3,C,,C,,,,C,,T,,M,,N,,M*0A
20231006 215053+01:00 $GPRMC,205049,A,4918.7229,N,12306.4157,W,0,0,061023,,,D,V*1A
20231006 215054+01:00 $HCHDT,177.2,T*2A
20231006 215054+01:00 $IIMDA,30.1,I,1.02,B,48.3,C,,C,70.1,,,C,,T,,M,,N,,M*12
20231006 215055+01:00 $GPRMC,205051,A,4918.7228,N,12306.4157,W,0,0,061023,,,D,V*12
20231006 215056+01:00 $HCHDT,177.2,T*2A
20231006 215056+01:00 $IIMDA,30.1,I,1.02,B,21.3,C,,C,70.1,,,C,,T,,M,,N,,M*1D
20231006 215057+01:00 $GPRMC,205053,A,4918.7228,N,12306.4157,W,0,0,061023,,,D,V*10
20231006 215058+01:00 $HCHDT,177.2,T*2A
20231006 215058+01:00 $IIMDA,30.1,I,1.02,B,20.8,C,,C,70,,,C,,T,,M,,N,,M*08
20231006 215059+01:00 $WIMWV,102.7,R,1.19,N,A*1E
20231006 215059+01:00 $GPRMC,205055,A,4918.7228,N,12306.4157,W,0,0,061023,,,D,V*16
20231006 215100+01:00 $HCHDT,177.2,T*2A
20231006 215100+01:00 $IIMDA,30.1,I,1.02,B,20.6,C,,C,70,,,C,,T,,M,,N,,M*06
20231006 215101+01:00 $WIMWV,91.7,R,0.99,N,A*2C
20231006 215101+01:00 $GPRMC,205057,A,4918.7228,N,12306.4157,W,0,0,061023,,,D,V*14
20231006 215102+01:00 $HCHDT,177.3,T*2B
20231006 215102+01:00 $IIMDA,30.1,I,1.02,B,20.6,C,,C,69.9,,,C,,T,,M,,N,,M*19
20231006 215103+01:00 $WIMWV,23.1,R,0.89,N,A*22
20231006 215103+01:00 $GPRMC,205059,A,4918.7228,N,12306.4157,W,0,0,061023,,,D,V*1A
20231006 215104+01:00 $HCHDT,177.3,T*2B
20231006 215104+01:00 $IIMDA,30.1,I,1.02,B,20.6,C,,C,69.9,,,C,,T,,M,,N,,M*19
20231006 215105+01:00 $WIMWV,123.5,R,0.8,N,A*2E
20231006 215105+01:00 $GPRMC,205101,A,4918.7223,N,12306.4161,W,0,0,061023,,,D,V*18
20231006 215106+01:00 $HCHDT,177.3,T*2B
20231006 215106+01:00 $IIMDA,30.1,I,1.02,B,20.6,C,,C,69.8,,,C,,T,,M,,N,,M*18
20231006 215107+01:00 $WIMWV,122.49,R,3.98,N,A*2D
20231006 215107+01:00 $GPRMC,205103,A,4918.7223,N,12306.4160,W,0,0,061023,,,D,V*1B
20231006 215108+01:00 $HCHDT,177.3,T*2B
20231006 215108+01:00 $IIMDA,30.1,I,1.02,B,20.6,C,,C,69.8,,,C,,T,,M,,N,,M*18
20231006 215109+01:00 $WIMWV,87.39,R,2.68,N,A*1A
20231006 215109+01:00 $GPRMC,205105,A,4918.7223,N,12306.4160,W,0,0,061023,,,D,V*1D
20231006 215110+01:00 $HCHDT,177.3,T*2B
20231006 215110+01:00 $IIMDA,30.1,I,1.02,B,20.6,C,,C,69.7,,,C,,T,,M,,N,,M*17
20231006 215111+01:00 $WIMWV,113.3,R,2.99,N,A*11
20231006 215111+01:00 $GPRMC,205107,A,4918.7224,N,12306.4159,W,0,0,061023,,,D,V*12
20231006 215112+01:00 $HCHDT,177.3,T*2B
20231006 215112+01:00 $IIMDA,30.1,I,1.02,B,20.6,C,,C,69.7,,,C,,T,,M,,N,,M*17
20231006 215113+01:00 $WIMWV,94.1,R,2.49,N,A*20
20231006 215113+01:00 $GPRMC,205109,A,4918.7224,N,12306.4159,W,0,0,061023,,,D,V*1C
20231006 215114+01:00 $HCHDT,177.3,T*2B
20231006 215114+01:00 $IIMDA,30.1,I,1.02,B,20.6,C,,C,69.7,,,C,,T,,M,,N,,M*17
20231006 215115+01:00 $WIMWV,76.4,R,0.8,N,A*1E
20231006 215115+01:00 $GPRMC,205111,A,4918.7225,N,12306.4159,W,0,0,061023,,,D,V*14
20231006 215116+01:00 $HCHDT,177.2,T*2A
20231006 215116+01:00 $IIMDA,30.1,I,1.02,B,20.6,C,,C,69.6,,,C,,T,,M,,N,,M*16
20231006 215117+01:00 $WIMWV,63.5,R,1.19,N,A*2A
20231006 215117+01:00 $GPRMC,205113,A,4918.7224,N,12306.4159,W,0,0,061023,,,D,V*17
20231006 215118+01:00 $HCHDT,177.2,T*2A
20231006 215118+01:00 $IIMDA,30.1,I,1.02,B,20.6,C,,C,69.6,,,C,,T,,M,,N,,M*16
20231006 215119+01:00 $WIMWV,91.7,R,1.79,N,A*23
20231006 215119+01:00 $GPRMC,205115,A,4918.7224,N,12306.4158,W,0,0,061023,,,D,V*10
20231006 215120+01:00 $HCHDT,177.2,T*2A
20231006 215121+01:00 $IIMDA,30.1,I,1.02,B,20.6,C,,C,69.5,,,C,,T,,M,,N,,M*15
20231006 215121+01:00 $WIMWV,69.69,R,1.89,N,A*13
20231006 215121+01:00 $GPRMC,205117,A,4918.7225,N,12306.4158,W,0,0,061023,,,D,V*13
20231006 215122+01:00 $HCHDT,177.2,T*2A
20231006 215123+01:00 $IIMDA,30.1,I,1.02,B,20.6,C,,C,69.5,,,C,,T,,M,,N,,M*15
20231006 215123+01:00 $WIMWV,56.8,R,2.39,N,A*20
20231006 215123+01:00 $GPRMC,205119,A,4918.7226,N,12306.4158,W,0,0,061023,,,D,V*1E
20231006 215124+01:00 $HCHDT,177.3,T*2B
20231006 215125+01:00 $IIMDA,30.1,I,1.019,B,20.6,C,,C,69.5,,,C,,T,,M,,N,,M*2F
20231006 215125+01:00 $WIMWV,77.1,R,1.98,N,A*22
20231006 215125+01:00 $GPRMC,205121,A,4918.7229,N,12306.4161,W,0,0,061023,,,D,V*10
20231006 215126+01:00 $HCHDT,177.3,T*2B
20231006 215127+01:00 $IIMDA,30.1,I,1.019,B,20.6,C,,C,69.5,,,C,,T,,M,,N,,M*2F
20231006 215127+01:00 $WIMWV,119.1,R,1.4,N,A*2E
20231006 215127+01:00 $GPRMC,205123,A,4918.7229,N,12306.4161,W,0,0,061023,,,D,V*12
20231006 215128+01:00 $HCHDT,177.3,T*2B
20231006 215129+01:00 $IIMDA,30.1,I,1.02,B,20.6,C,,C,69.4,,,C,,T,,M,,N,,M*14
20231006 215129+01:00 $WIMWV,82.9,R,1.79,N,A*2F
20231006 215129+01:00 $GPRMC,205125,A,4918.7229,N,12306.4161,W,0,0,061023,,,D,V*14
20231006 215130+01:00 $HCHDT,177.4,T*2C
20231006 215131+01:00 $IIMDA,30.1,I,1.019,B,20.6,C,,C,69.5,,,C,,T,,M,,N,,M*2F
20231006 215131+01:00 $WIMWV,99,R,2.39,N,A*35
20231006 215131+01:00 $GPRMC,205127,A,4918.7230,N,12306.4160,W,0,0,061023,,,D,V*1F
20231006 215132+01:00 $HCHDT,177.4,T*2C
20231006 215133+01:00 $IIMDA,30.1,I,1.02,B,20.6,C,,C,69.4,,,C,,T,,M,,N,,M*14
20231006 215133+01:00 $WIMWV,100,R,1.5,N,A*38
20231006 215133+01:00 $GPRMC,205129,A,4918.7230,N,12306.4160,W,0,0,061023,,,D,V*11
20231006 215134+01:00 $HCHDT,177.5,T*2D
20231006 215135+01:00 $IIMDA,30.1,I,1.02,B,20.6,C,,C,69.4,,,C,,T,,M,,N,,M*14
20231006 215135+01:00 $WIMWV,91.7,R,0.19,N,A*24
20231006 215135+01:00 $GPRMC,205131,A,4918.7226,N,12306.4156,W,0,0,061023,,,D,V*1A
20231006 215136+01:00 $HCHDT,177.5,T*2D
20231006 215137+01:00 $IIMDA,30.1,I,1.019,B,20.6,C,,C,69.3,,,C,,T,,M,,N,,M*29
20231006 215137+01:00 $WIMWV,71,R,2.39,N,A*33
20231006 215137+01:00 $GPRMC,205133,A,4918.7226,N,12306.4157,W,0,0,061023,,,D,V*19
20231006 215138+01:00 $HCHDT,177.5,T*2D
20231006 215139+01:00 $IIMDA,30.1,I,1.02,B,20.6,C,,C,69.3,,,C,,T,,M,,N,,M*13
20231006 215139+01:00 $WIMWV,105.69,R,1.5,N,A*1C
20231006 215139+01:00 $GPRMC,205135,A,4918.7227,N,12306.4156,W,0,0,061023,,,D,V*1F
20231006 215140+01:00 $HCHDT,177.5,T*2D
20231006 215141+01:00 $IIMDA,30.1,I,1.019,B,20.6,C,,C,69.4,,,C,,T,,M,,N,,M*2E
20231006 215141+01:00 $WIMWV,120.1,R,0.8,N,A*29
20231006 215141+01:00 $GPRMC,205137,A,4918.7228,N,12306.4157,W,0,0,061023,,,D,V*13
20231006 215142+01:00 $HCHDT,177.5,T*2D
20231006 215143+01:00 $IIMDA,30.1,I,1.019,B,20.6,C,,C,69.4,,,C,,T,,M,,N,,M*2E
20231006 215143+01:00 $WIMWV,103.6,R,0.89,N,A*16
20231006 215143+01:00 $GPRMC,205139,A,4918.7228,N,12306.4156,W,0,0,061023,,,D,V*1C
20231006 215144+01:00 $HCHDT,177.6,T*2E
20231006 215145+01:00 $IIMDA,30.1,I,1.019,B,20.6,C,,C,69.4,,,C,,T,,M,,N,,M*2E
20231006 215145+01:00 $WIMWV,127.9,R,0.39,N,A*14
20231006 215145+01:00 $GPRMC,205141,A,4918.7228,N,12306.4156,W,0,0,061023,,,D,V*13
20231006 215146+01:00 $HCHDT,177.6,T*2E
20231006 215147+01:00 $IIMDA,30.1,I,1.019,B,20.6,C,,C,69.4,,,C,,T,,M,,N,,M*2E
20231006 215147+01:00 $WIMWV,103.6,R,1.59,N,A*1A
20231006 215147+01:00 $GPRMC,205143,A,4918.7228,N,12306.4156,W,0,0,061023,,,D,V*11
20231006 215148+01:00 $HCHDT,177.6,T*2E
20231006 215149+01:00 $IIMDA,30.1,I,1.019,B,20.6,C,,C,69.5,,,C,,T,,M,,N,,M*2F
20231006 215149+01:00 $WIMWV,88.49,R,3.09,N,A*14
20231006 215149+01:00 $GPRMC,205145,A,4918.7227,N,12306.4156,W,0,0,061023,,,D,V*18
20231006 215150+01:00 $HCHDT,177.6,T*2E
20231006 215151+01:00 $IIMDA,30.1,I,1.019,B,20.6,C,,C,69.5,,,C,,T,,M,,N,,M*2F
20231006 215151+01:00 $WIMWV,64.39,R,3.6,N,A*2E
20231006 215151+01:00 $GPRMC,205147,A,4918.7227,N,12306.4156,W,0,0,061023,,,D,V*1A
20231006 215152+01:00 $HCHDT,177.6,T*2E
20231006 215153+01:00 $IIMDA,30.1,I,1.019,B,20.6,C,,C,69.5,,,C,,T,,M,,N,,M*2F
20231006 215153+01:00 $WIMWV,82.99,R,1.5,N,A*2D
20231006 215153+01:00 $GPRMC,205149,A,4918.7228,N,12306.4156,W,0,0,061023,,,D,V*1B
20231006 215154+01:00 $HCHDT,177.6,T*2E
20231006 215155+01:00 $IIMDA,30.1,I,1.019,B,20.6,C,,C,69.5,,,C,,T,,M,,N,,M*2F
20231006 215155+01:00 $WIMWV,133.09,R,0.89,N,A*2A
20231006 215155+01:00 $GPRMC,205151,A,4918.7228,N,12306.4155,W,0,0,061023,,,D,V*11
20231006 215156+01:00 $HCHDT,177.6,T*2E
20231006 215157+01:00 $IIMDA,30.1,I,1.019,B,20.6,C,,C,69.5,,,C,,T,,M,,N,,M*2F
20231006 215157+01:00 $WIMWV,0.19,R,0.19,N,A*23
20231006 215157+01:00 $GPRMC,205153,A,4918.7229,N,12306.4155,W,0,0,061023,,,D,V*12
20231006 215158+01:00 $HCHDT,177.6,T*2E
20231006 215159+01:00 $IIMDA,30.1,I,1.019,B,20.6,C,,C,69.6,,,C,,T,,M,,N,,M*2C
20231006 215159+01:00 $WIMWV,73.69,R,1.09,N,A*10
20231006 215159+01:00 $GPRMC,205155,A,4918.7229,N,12306.4156,W,0,0,061023,,,D,V*17
20231006 215200+01:00 $HCHDT,177.6,T*2E
20231006 215201+01:00 $IIMDA,30.1,I,1.019,B,20.6,C,,C,69.6,,,C,,T,,M,,N,,M*2C
20231006 215201+01:00 $WIMWV,70,R,2.29,N,A*33
20231006 215201+01:00 $GPRMC,205157,A,4918.7230,N,12306.4155,W,0,0,061023,,,D,V*1E
20231006 215202+01:00 $HCHDT,177.6,T*2E
20231006 215203+01:00 $IIMDA,30.1,I,1.019,B,20.6,C,,C,69.7,,,C,,T,,M,,N,,M*2D
20231006 215203+01:00 $WIMWV,52.69,R,0.39,N,A*11
20231006 215203+01:00 $GPRMC,205159,A,4918.7229,N,12306.4155,W,0,0,061023,,,D,V*18
20231006 215204+01:00 $HCHDT,177.6,T*2E
20231006 215205+01:00 $IIMDA,30.1,I,1.019,B,20.6,C,,C,69.7,,,C,,T,,M,,N,,M*2D
20231006 215205+01:00 $WIMWV,114.49,R,0.99,N,A*2A
20231006 215205+01:00 $GPRMC,205201,A,4918.7229,N,12306.4154,W,0,0,061023,,,D,V*17
20231006 215206+01:00 $HCHDT,177.6,T*2E
20231006 215207+01:00 $IIMDA,30.1,I,1.02,B,20.6,C,,C,69.7,,,C,,T,,M,,N,,M*17
20231006 215207+01:00 $WIMWV,305.99,R,0.89,N,A*24
20231006 215207+01:00 $GPRMC,205203,A,4918.7229,N,12306.4154,W,0,0,061023,,,D,V*15
20231006 215208+01:00 $HCHDT,177.6,T*2E
20231006 215209+01:00 $IIMDA,30.1,I,1.019,B,20.6,C,,C,69.7,,,C,,T,,M,,N,,M*2D
20231006 215209+01:00 $WIMWV,21.39,R,0.99,N,A*1A
20231006 215209+01:00 $GPRMC,205205,A,4918.7229,N,12306.4154,W,0,0,061023,,,D,V*13
20231006 215210+01:00 $HCHDT,177.6,T*2E
20231006 215211+01:00 $IIMDA,30.1,I,1.02,B,20.6,C,,C,69.7,,,C,,T,,M,,N,,M*17
20231006 215211+01:00 $WIMWV,117.59,R,1.28,N,A*23
20231006 215211+01:00 $GPRMC,205207,A,4918.7229,N,12306.4153,W,0,0,061023,,,D,V*16
20231006 215212+01:00 $HCHDT,177.6,T*2E
20231006 215213+01:00 $IIMDA,30.1,I,1.019,B,20.6,C,,C,69.8,,,C,,T,,M,,N,,M*22
20231006 215213+01:00 $WIMWV,112.7,R,1.59,N,A*1B
20231006 215213+01:00 $GPRMC,205209,A,4918.7230,N,12306.4153,W,0,0,061023,,,D,V*10
20231006 215214+01:00 $HCHDT,177.6,T*2E
20231006 215215+01:00 $IIMDA,30.1,I,1.02,B,20.6,C,,C,69.8,,,C,,T,,M,,N,,M*18
20231006 215215+01:00 $WIMWV,77.8,R,1.4,N,A*1E
20231006 215215+01:00 $GPRMC,205211,A,4918.7230,N,12306.4153,W,0,0,061023,,,D,V*19
20231006 215216+01:00 $HCHDT,177.6,T*2E
20231006 215217+01:00 $IIMDA,30.1,I,1.02,B,20.6,C,,C,69.7,,,C,,T,,M,,N,,M*17
20231006 215217+01:00 $WIMWV,61.5,R,0.39,N,A*2B
20231006 215217+01:00 $GPRMC,205213,A,4918.7229,N,12306.4154,W,0,0,061023,,,D,V*14
20231006 215218+01:00 $HCHDT,177.5,T*2D
20231006 215219+01:00 $IIMDA,30.1,I,1.02,B,20.6,C,,C,69.6,,,C,,T,,M,,N,,M*16
20231006 215219+01:00 $WIMWV,78.09,R,2.99,N,A*17
20231006 215219+01:00 $GPRMC,205215,A,4918.7229,N,12306.4154,W,0,0,061023,,,D,V*12
20231006 215220+01:00 $HCHDT,177.5,T*2D
20231006 215221+01:00 $IIMDA,30.1,I,1.02,B,20.6,C,,C,69.7,,,C,,T,,M,,N,,M*17
20231006 215221+01:00 $WIMWV,72,R,2.2,N,A*08
20231006 215221+01:00 $GPRMC,205217,A,4918.7229,N,12306.4154,W,0,0,061023,,,D,V*10
20231006 215222+01:00 $HCHDT,177.5,T*2D
20231006 215223+01:00 $IIMDA,30.1,I,1.019,B,20.6,C,,C,69.6,,,C,,T,,M,,N,,M*2C
20231006 215223+01:00 $WIMWV,27.1,R,1.5,N,A*13
20231006 215223+01:00 $GPRMC,205217,A,4918.7229,N,12306.4154,W,0,0,061023,,,D,V*10
20231006 215224+01:00 $HCHDT,177.5,T*2D
20231006 215225+01:00 $IIMDA,30.1,I,1.019,B,20.6,C,,C,69.7,,,C,,T,,M,,N,,M*2D
20231006 215225+01:00 $WIMWV,124.39,R,0.8,N,A*16
20231006 215226+01:00 $HCHDT,177.5,T*2D
20231006 215227+01:00 $IIMDA,30.1,I,1.019,B,20.6,C,,C,69.7,,,C,,T,,M,,N,,M*2D
20231006 215227+01:00 $WIMWV,63.9,R,0.7,N,A*18
20231006 215229+01:00 $IIMDA,30.1,I,1.019,B,20.6,C,,C,69.7,,,C,,T,,M,,N,,M*2D
20231006 215229+01:00 $WIMWV,39.6,R,1.89,N,A*2F
20231006 215231+01:00 $IIMDA,30.1,I,1.019,B,20.6,C,,C,69.7,,,C,,T,,M,,N,,M*2D
20231006 215231+01:00 $WIMWV,83.7,R,1.59,N,A*22
20231006 215233+01:00 $IIMDA,30.1,I,1.019,B,20.6,C,,C,69.6,,,C,,T,,M,,N,,M*2C
20231006 215233+01:00 $WIMWV,91.7,R,0.39,N,A*26
20231006 215235+01:00 $IIMDA,30.1,I,1.019,B,20.6,C,,C,69.6,,,C,,T,,M,,N,,M*2C
20231006 215235+01:00 $WIMWV,67.8,R,1.19,N,A*23
20231006 215237+01:00 $IIMDA,30.1,I,1.019,B,20.6,C,,C,69.5,,,C,,T,,M,,N,,M*2F
20231006 215237+01:00 $WIMWV,60.1,R,1.5,N,A*10
20231006 215239+01:00 $IIMDA,30.1,I,1.019,B,20.7,C,,C,69.4,,,C,,T,,M,,N,,M*2F
20231006 215239+01:00 $WIMWV,32.9,R,2.39,N,A*23
20231006 215241+01:00 $IIMDA,30.1,I,1.019,B,20.7,C,,C,69.4,,,C,,T,,M,,N,,M*2F
20231006 215241+01:00 $WIMWV,60.6,R,3.29,N,A*2B
20231006 215243+01:00 $IIMDA,30.1,I,1.019,B,20.7,C,,C,69.4,,,C,,T,,M,,N,,M*2F
20231006 215243+01:00 $WIMWV,64.6,R,3.5,N,A*11
20231006 215245+01:00 $IIMDA,30.1,I,1.019,B,20.7,C,,C,69.4,,,C,,T,,M,,N,,M*2F
20231006 215245+01:00 $WIMWV,49.8,R,1.89,N,A*26
20231006 215247+01:00 $IIMDA,30.1,I,1.019,B,20.7,C,,C,69.3,,,C,,T,,M,,N,,M*28
20231006 215247+01:00 $WIMWV,85,R,3.19,N,A*3B
20231006 215249+01:00 $IIMDA,30.1,I,1.019,B,20.7,C,,C,69.3,,,C,,T,,M,,N,,M*28
20231006 215249+01:00 $WIMWV,113.3,R,1.4,N,A*26
20231006 215251+01:00 $IIMDA,30.1,I,1.019,B,20.7,C,,C,69.3,,,C,,T,,M,,N,,M*28
20231006 215251+01:00 $WIMWV,117.5,R,1.89,N,A*11
20231006 215253+01:00 $IIMDA,30.1,I,1.019,B,20.7,C,,C,69.3,,,C,,T,,M,,N,,M*28
20231006 215253+01:00 $WIMWV,123.4,R,4.78,N,A*1C
20231006 215255+01:00 $IIMDA,30.1,I,1.019,B,20.7,C,,C,69.2,,,C,,T,,M,,N,,M*29
20231006 215255+01:00 $WIMWV,125.7,R,2.8,N,A*28
20231006 215257+01:00 $IIMDA,30.1,I,1.019,B,20.7,C,,C,69.2,,,C,,T,,M,,N,,M*29
20231006 215257+01:00 $WIMWV,112.6,R,2.2,N,A*27
20231006 215259+01:00 $IIMDA,30.1,I,1.019,B,20.7,C,,C,69.2,,,C,,T,,M,,N,,M*29
20231006 215259+01:00 $WIMWV,95.7,R,2.49,N,A*27
20231006 215301+01:00 $IIMDA,30.1,I,1.019,B,20.7,C,,C,69.1,,,C,,T,,M,,N,,M*2A
20231006 215301+01:00 $WIMWV,85.39,R,1.98,N,A*14
20231006 215303+01:00 $IIMDA,30.1,I,1.019,B,20.7,C,,C,69.1,,,C,,T,,M,,N,,M*2A
20231006 215303+01:00 $WIMWV,124.8,R,3.09,N,A*16
20231006 215303+01:00 $GPRMC,205300,A,4918.7244,N,12306.4186,W,0,336,,,,A,V*16
20231006 215304+01:00 $HCHDT,176.7,T*2E
20231006 215305+01:00 $IIMDA,30.1,I,1.019,B,20.7,C,,C,69.2,,,C,,T,,M,,N,,M*29
20231006 215305+01:00 $WIMWV,124.49,R,2.9,N,A*12
20231006 215305+01:00 $GPRMC,205302,A,4918.7243,N,12306.4187,W,0,336,061023,,,A,V*14
20231006 215306+01:00 $HCHDT,176.8,T*21
20231006 215307+01:00 $IIMDA,30.1,I,1.019,B,20.7,C,,C,69.2,,,C,,T,,M,,N,,M*29
20231006 215307+01:00 $WIMWV,112,R,2.29,N,A*06
20231006 215307+01:00 $GPRMC,205304,A,4918.7244,N,12306.4188,W,0,336,061023,,,A,V*1A
20231006 215308+01:00 $HCHDT,177.1,T*29
20231006 215309+01:00 $IIMDA,30.1,I,1.019,B,20.7,C,,C,69.2,,,C,,T,,M,,N,,M*29
20231006 215309+01:00 $WIMWV,33.29,R,1.5,N,A*2C
20231006 215309+01:00 $GPRMC,205306,A,4918.7244,N,12306.4189,W,0,336,061023,,,A,V*19
20231006 215310+01:00 $HCHDT,177.2,T*2A
20231006 215311+01:00 $IIMDA,30.1,I,1.019,B,20.7,C,,C,69.3,,,C,,T,,M,,N,,M*28
20231006 215311+01:00 $WIMWV,76.09,R,1.09,N,A*13
20231006 215311+01:00 $GPRMC,205308,A,4918.7244,N,12306.4190,W,0,336,061023,,,A,V*1F
20231006 215312+01:00 $HCHDT,177.5,T*2D
20231006 215313+01:00 $IIMDA,30.1,I,1.019,B,20.7,C,,C,69.3,,,C,,T,,M,,N,,M*28
20231006 215313+01:00 $WIMWV,82.29,R,2.1,N,A*21
20231006 215313+01:00 $GPRMC,205310,A,4918.7245,N,12306.4172,W,0,336,061023,,,A,V*1B
20231006 215314+01:00 $HCHDT,177,T*36
20231006 215315+01:00 $IIMDA,30.1,I,1.019,B,20.7,C,,C,69.3,,,C,,T,,M,,N,,M*28
20231006 215315+01:00 $WIMWV,100.19,R,1.69,N,A*24
20231006 215315+01:00 $GPRMC,205312,A,4918.7245,N,12306.4150,W,0,336,061023,,,D,V*1C
20231006 215316+01:00 $HCHDT,176.8,T*21
20231006 215317+01:00 $IIMDA,30.1,I,1.019,B,20.7,C,,C,69.3,,,C,,T,,M,,N,,M*28
20231006 215317+01:00 $WIMWV,86.29,R,1.5,N,A*22
20231006 215317+01:00 $GPRMC,205314,A,4918.7243,N,12306.4134,W,0,336,061023,,,D,V*1E
20231006 215318+01:00 $HCHDT,177.1,T*29
20231006 215319+01:00 $IIMDA,30.1,I,1.019,B,20.7,C,,C,69.3,,,C,,T,,M,,N,,M*28
20231006 215319+01:00 $WIMWV,56.2,R,2.2,N,A*12
20231006 215319+01:00 $GPRMC,205316,A,4918.7243,N,12306.4151,W,0,336,061023,,,D,V*1F
20231006 215320+01:00 $HCHDT,177.3,T*2B
20231006 215321+01:00 $IIMDA,30.1,I,1.019,B,20.7,C,,C,69.2,,,C,,T,,M,,N,,M*29
20231006 215321+01:00 $WIMWV,44.09,R,0.58,N,A*17
20231006 215321+01:00 $GPRMC,205318,A,4918.7242,N,12306.4132,W,0,336,061023,,,D,V*15
20231006 215322+01:00 $HCHDT,177.3,T*2B
20231006 215323+01:00 $IIMDA,30.1,I,1.019,B,20.7,C,,C,69.2,,,C,,T,,M,,N,,M*29
20231006 215323+01:00 $WIMWV,334.29,R,0.99,N,A*2C
20231006 215323+01:00 $GPRMC,205320,A,4918.7235,N,12306.4138,W,0,336,061023,,,D,V*14
20231006 215324+01:00 $HCHDT,177.3,T*2B
20231006 215325+01:00 $IIMDA,30.1,I,1.019,B,20.7,C,,C,69.3,,,C,,T,,M,,N,,M*28
20231006 215325+01:00 $WIMWV,30.3,R,1.89,N,A*23
20231006 215325+01:00 $GPRMC,205322,A,4918.7231,N,12306.4123,W,0,336,061023,,,D,V*18
20231006 215326+01:00 $HCHDT,177.3,T*2B
20231006 215327+01:00 $IIMDA,30.1,I,1.019,B,20.7,C,,C,69.3,,,C,,T,,M,,N,,M*28
20231006 215327+01:00 $WIMWV,46.4,R,0.29,N,A*2E
20231006 215327+01:00 $GPRMC,205324,A,4918.7232,N,12306.4122,W,0,336,061023,,,D,V*1C
20231006 215328+01:00 $HCHDT,177.3,T*2B
20231006 215329+01:00 $IIMDA,30.1,I,1.019,B,20.7,C,,C,69.3,,,C,,T,,M,,N,,M*28
20231006 215329+01:00 $WIMWV,73.2,R,0.49,N,A*28
20231006 215329+01:00 $GPRMC,205326,A,4918.7207,N,12306.4148,W,0,336,061023,,,D,V*14
20231006 215330+01:00 $HCHDT,177.2,T*2A
20231006 215331+01:00 $IIMDA,30.1,I,1.019,B,20.7,C,,C,69.2,,,C,,T,,M,,N,,M*29
20231006 215331+01:00 $WIMWV,24.69,R,1.19,N,A*13
20231006 215331+01:00 $GPRMC,205328,A,4918.7207,N,12306.4148,W,0,336,061023,,,D,V*1A
20231006 215332+01:00 $HCHDT,177.1,T*29
20231006 215333+01:00 $IIMDA,30.1,I,1.019,B,20.7,C,,C,69.3,,,C,,T,,M,,N,,M*28
20231006 215333+01:00 $WIMWV,74,R,1.28,N,A*35
20231006 215333+01:00 $GPRMC,205330,A,4918.7207,N,12306.4147,W,0,336,061023,,,D,V*1C
20231006 215334+01:00 $HCHDT,176.9,T*20
20231006 215335+01:00 $IIMDA,30.1,I,1.019,B,20.7,C,,C,69.3,,,C,,T,,M,,N,,M*28
20231006 215335+01:00 $WIMWV,32.5,R,0.49,N,A*2A
20231006 215335+01:00 $GPRMC,205332,A,4918.7208,N,12306.4145,W,0,336,061023,,,D,V*13
20231006 215336+01:00 $HCHDT,177,T*36
20231006 215337+01:00 $IIMDA,30.1,I,1.019,B,20.7,C,,C,69.3,,,C,,T,,M,,N,,M*28
20231006 215337+01:00 $WIMWV,112.9,R,0.7,N,A*2F
20231006 215337+01:00 $GPRMC,205334,A,4918.7209,N,12306.4144,W,0,336,061023,,,D,V*15
20231006 215338+01:00 $HCHDT,177,T*36
20231006 215339+01:00 $IIMDA,30.1,I,1.019,B,20.7,C,,C,69.2,,,C,,T,,M,,N,,M*29
20231006 215339+01:00 $WIMWV,180.6,R,0.29,N,A*17
20231006 215339+01:00 $GPRMC,205336,A,4918.7210,N,12306.4144,W,0,336,061023,,,D,V*1F
20231006 215340+01:00 $HCHDT,177,T*36
20231006 215341+01:00 $IIMDA,30.1,I,1.019,B,20.7,C,,C,69.3,,,C,,T,,M,,N,,M*28
20231006 215341+01:00 $WIMWV,121.59,R,0.58,N,A*20
20231006 215341+01:00 $GPRMC,205338,A,4918.7209,N,12306.4146,W,0,336,061023,,,D,V*1B
20231006 215342+01:00 $HCHDT,177,T*36
20231006 215343+01:00 $IIMDA,30.1,I,1.019,B,20.7,C,,C,69.3,,,C,,T,,M,,N,,M*28
20231006 215343+01:00 $WIMWV,160.59,R,1.09,N,A*20
20231006 215343+01:00 $GPRMC,205340,A,4918.7210,N,12306.4147,W,0,336,061023,,,D,V*1D
20231006 215344+01:00 $HCHDT,177,T*36
20231006 215345+01:00 $IIMDA,30.1,I,1.019,B,20.7,C,,C,69.3,,,C,,T,,M,,N,,M*28
20231006 215345+01:00 $WIMWV,148.99,R,1.28,N,A*25
20231006 215345+01:00 $GPRMC,205342,A,4918.7226,N,12306.4180,W,0,336,061023,,,D,V*11
20231006 215346+01:00 $HCHDT,177.1,T*29
20231006 215347+01:00 $IIMDA,30.1,I,1.019,B,20.8,C,,C,69.3,,,C,,T,,M,,N,,M*27
20231006 215347+01:00 $WIMWV,201.69,R,0.99,N,A*2F
20231006 215347+01:00 $GPRMC,205344,A,4918.7227,N,12306.4179,W,0,336,061023,,,D,V*10
20231006 215348+01:00 $HCHDT,177.2,T*2A
20231006 215349+01:00 $IIMDA,30.1,I,1.019,B,20.8,C,,C,69.2,,,C,,T,,M,,N,,M*26
20231006 215349+01:00 $WIMWV,118.49,R,2.29,N,A*2F
20231006 215349+01:00 $GPRMC,205346,A,4918.7228,N,12306.4179,W,0,336,061023,,,D,V*1D
20231006 215350+01:00 $HCHDT,177.2,T*2A
20231006 215351+01:00 $IIMDA,30.1,I,1.019,B,20.8,C,,C,69.2,,,C,,T,,M,,N,,M*26
20231006 215351+01:00 $WIMWV,114.4,R,1.4,N,A*26
20231006 215351+01:00 $GPRMC,205348,A,4918.7231,N,12306.4179,W,0,336,061023,,,D,V*1B
20231006 215352+01:00 $HCHDT,177.2,T*2A
20231006 215353+01:00 $IIMDA,30.1,I,1.019,B,20.8,C,,C,69.2,,,C,,T,,M,,N,,M*26
20231006 215353+01:00 $WIMWV,117.7,R,3.29,N,A*1B
20231006 215353+01:00 $GPRMC,205350,A,4918.7232,N,12306.4180,W,0,336,061023,,,D,V*17
20231006 215354+01:00 $HCHDT,177.2,T*2A
20231006 215355+01:00 $IIMDA,30.1,I,1.019,B,20.8,C,,C,69.1,,,C,,T,,M,,N,,M*25
20231006 215355+01:00 $WIMWV,115.19,R,2.2,N,A*1E
20231006 215355+01:00 $GPRMC,205352,A,4918.7233,N,12306.4180,W,0,336,061023,,,D,V*14
20231006 215356+01:00 $HCHDT,177.2,T*2A
20231006 215357+01:00 $IIMDA,30.1,I,1.019,B,20.8,C,,C,69.1,,,C,,T,,M,,N,,M*25
20231006 215357+01:00 $WIMWV,116.49,R,3.6,N,A*1D
20231006 215357+01:00 $GPRMC,205354,A,4918.7233,N,12306.4181,W,0,336,061023,,,D,V*13
20231006 215358+01:00 $HCHDT,177.1,T*29
20231006 215359+01:00 $IIMDA,30.1,I,1.019,B,20.8,C,,C,69.1,,,C,,T,,M,,N,,M*25
20231006 215359+01:00 $WIMWV,97.4,R,2.49,N,A*26
20231006 215359+01:00 $GPRMC,205356,A,4918.7233,N,12306.4181,W,0,336,061023,,,D,V*11
20231006 215400+01:00 $HCHDT,177.2,T*2A
20231006 215401+01:00 $IIMDA,30.1,I,1.019,B,20.8,C,,C,69.1,,,C,,T,,M,,N,,M*25
20231006 215401+01:00 $WIMWV,64.89,R,1.79,N,A*1F
20231006 215401+01:00 $GPRMC,205358,A,4918.7233,N,12306.4162,W,0,336,061023,,,D,V*12
20231006 215402+01:00 $HCHDT,177.2,T*2A
20231006 215403+01:00 $IIMDA,30.1,I,1.019,B,20.7,C,,C,69,,,C,,T,,M,,N,,M*35
20231006 215403+01:00 $WIMWV,80.2,R,1.09,N,A*21
20231006 215403+01:00 $GPRMC,205400,A,4918.7232,N,12306.4163,W,0,336,061023,,,D,V*18
20231006 215404+01:00 $HCHDT,177.2,T*2A
20231006 215405+01:00 $IIMDA,30.1,I,1.019,B,20.7,C,,C,69.1,,,C,,T,,M,,N,,M*2A
20231006 215405+01:00 $WIMWV,124.49,R,3.29,N,A*21
20231006 215405+01:00 $GPRMC,205402,A,4918.7234,N,12306.4162,W,0,336,061023,,,D,V*1D
20231006 215406+01:00 $HCHDT,177.2,T*2A
20231006 215407+01:00 $IIMDA,30.1,I,1.019,B,20.7,C,,C,69,,,C,,T,,M,,N,,M*35
20231006 215407+01:00 $WIMWV,57.9,R,2.49,N,A*27
20231006 215407+01:00 $GPRMC,205404,A,4918.7234,N,12306.4163,W,0,336,061023,,,D,V*1A
20231006 215408+01:00 $HCHDT,177.2,T*2A
20231006 215409+01:00 $IIMDA,30.1,I,1.019,B,20.7,C,,C,68.9,,,C,,T,,M,,N,,M*23
20231006 215409+01:00 $WIMWV,56.2,R,1.59,N,A*2F
20231006 215409+01:00 $GPRMC,205406,A,4918.7234,N,12306.4163,W,0,336,061023,,,D,V*18
20231006 215410+01:00 $HCHDT,177.2,T*2A
20231006 215411+01:00 $IIMDA,30.1,I,1.019,B,20.7,C,,C,68.9,,,C,,T,,M,,N,,M*23
20231006 215411+01:00 $WIMWV,113.8,R,0.49,N,A*15
20231006 215411+01:00 $GPRMC,205408,A,4918.7232,N,12306.4164,W,0,336,061023,,,D,V*17
20231006 215412+01:00 $HCHDT,177.2,T*2A
20231006 215413+01:00 $IIMDA,30.1,I,1.019,B,20.7,C,,C,68.8,,,C,,T,,M,,N,,M*22
20231006 215413+01:00 $WIMWV,113.8,R,1.79,N,A*17
20231006 215413+01:00 $GPRMC,205410,A,4918.7231,N,12306.4165,W,0,336,061023,,,D,V*1C
20231006 215414+01:00 $HCHDT,177.2,T*2A
20231006 215415+01:00 $IIMDA,30.1,I,1.019,B,20.7,C,,C,68.8,,,C,,T,,M,,N,,M*22
20231006 215415+01:00 $WIMWV,97.6,R,2.59,N,A*25
20231006 215415+01:00 $GPRMC,205412,A,4918.7231,N,12306.4165,W,0,336,061023,,,D,V*1E
20231006 215416+01:00 $HCHDT,177.2,T*2A
20231006 215417+01:00 $IIMDA,30.1,I,1.019,B,20.7,C,,C,68.8,,,C,,T,,M,,N,,M*22
20231006 215417+01:00 $WIMWV,117.3,R,3.19,N,A*1C
20231006 215417+01:00 $GPRMC,205414,A,4918.7230,N,12306.4165,W,0,336,061023,,,D,V*19
20231006 215418+01:00 $HCHDT,177.2,T*2A
20231006 215419+01:00 $IIMDA,30.1,I,1.019,B,20.7,C,,C,68.7,,,C,,T,,M,,N,,M*2D
20231006 215419+01:00 $WIMWV,135.1,R,1.89,N,A*15
20231006 215419+01:00 $GPRMC,205416,A,4918.7230,N,12306.4165,W,0,336,061023,,,D,V*1B
20231006 215420+01:00 $HCHDT,177.2,T*2A
20231006 215421+01:00 $IIMDA,30.1,I,1.019,B,20.7,C,,C,68.6,,,C,,T,,M,,N,,M*2C
20231006 215421+01:00 $WIMWV,161.89,R,1.98,N,A*24
20231006 215421+01:00 $GPRMC,205418,A,4918.7230,N,12306.4164,W,0,336,061023,,,D,V*14
20231006 215422+01:00 $HCHDT,177.2,T*2A
20231006 215423+01:00 $IIMDA,30.1,I,1.019,B,20.7,C,,C,68.4,,,C,,T,,M,,N,,M*2E
20231006 215423+01:00 $WIMWV,138.09,R,1.98,N,A*20
20231006 215423+01:00 $GPRMC,205420,A,4918.7230,N,12306.4164,W,0,336,061023,,,D,V*1F
20231006 215424+01:00 $HCHDT,177.3,T*2B
20231006 215425+01:00 $IIMDA,30.1,I,1.019,B,20.7,C,,C,68.4,,,C,,T,,M,,N,,M*2E
20231006 215425+01:00 $WIMWV,170.29,R,1.4,N,A*1B
20231006 215425+01:00 $GPRMC,205422,A,4918.7229,N,12306.4164,W,0,336,061023,,,D,V*15
20231006 215426+01:00 $HCHDT,177.3,T*2B
20231006 215427+01:00 $IIMDA,30.1,I,1.019,B,20.7,C,,C,68.4,,,C,,T,,M,,N,,M*2E
20231006 215427+01:00 $WIMWV,127.29,R,1.69,N,A*22
20231006 215427+01:00 $GPRMC,205424,A,4918.7228,N,12306.4164,W,0,336,061023,,,D,V*12
20231006 215428+01:00 $HCHDT,177.2,T*2A
20231006 215429+01:00 $IIMDA,30.1,I,1.019,B,20.7,C,,C,68.4,,,C,,T,,M,,N,,M*2E
20231006 215429+01:00 $WIMWV,156.19,R,1.4,N,A*1C
20231006 215429+01:00 $GPRMC,205426,A,4918.7225,N,12306.4166,W,0,336,061023,,,D,V*1F
20231006 215430+01:00 $HCHDT,177.2,T*2A
20231006 215431+01:00 $IIMDA,30.1,I,1.019,B,20.7,C,,C,68.4,,,C,,T,,M,,N,,M*2E
20231006 215431+01:00 $WIMWV,84.9,R,2.1,N,A*15
20231006 215431+01:00 $GPRMC,205428,A,4918.7226,N,12306.4167,W,0,336,061023,,,D,V*13
20231006 215432+01:00 $HCHDT,177.2,T*2A
20231006 215433+01:00 $IIMDA,30.1,I,1.019,B,20.7,C,,C,68.4,,,C,,T,,M,,N,,M*2E
20231006 215433+01:00 $WIMWV,91.7,R,1.69,N,A*22
20231006 215433+01:00 $GPRMC,205430,A,4918.7224,N,12306.4168,W,0,336,061023,,,D,V*17
20231006 215434+01:00 $HCHDT,177.2,T*2A
20231006 215435+01:00 $IIMDA,30.1,I,1.019,B,20.7,C,,C,68.4,,,C,,T,,M,,N,,M*2E
20231006 215435+01:00 $WIMWV,117.9,R,2.29,N,A*14
20231006 215435+01:00 $GPRMC,205432,A,4918.7227,N,12306.4166,W,0,336,061023,,,D,V*18
20231006 215436+01:00 $HCHDT,177.2,T*2A
20231006 215437+01:00 $IIMDA,30.1,I,1.019,B,20.7,C,,C,68.4,,,C,,T,,M,,N,,M*2E
20231006 215437+01:00 $WIMWV,95.09,R,3.09,N,A*1C
20231006 215437+01:00 $GPRMC,205434,A,4918.7226,N,12306.4167,W,0,336,061023,,,D,V*1E
20231006 215438+01:00 $HCHDT,177.2,T*2A
20231006 215439+01:00 $IIMDA,30.1,I,1.019,B,20.7,C,,C,68.4,,,C,,T,,M,,N,,M*2E
20231006 215439+01:00 $WIMWV,68.8,R,2.68,N,A*29
20231006 215439+01:00 $GPRMC,205436,A,4918.7225,N,12306.4167,W,0,336,061023,,,D,V*1F
20231006 215440+01:00 $HCHDT,177.2,T*2A
20231006 215441+01:00 $IIMDA,30.1,I,1.019,B,20.7,C,,C,68.3,,,C,,T,,M,,N,,M*29
20231006 215441+01:00 $WIMWV,110.09,R,3.79,N,A*27
20231006 215441+01:00 $GPRMC,205438,A,4918.7225,N,12306.4169,W,0,336,061023,,,D,V*1F
20231006 215442+01:00 $HCHDT,177.3,T*2B
20231006 215443+01:00 $IIMDA,30.1,I,1.019,B,20.7,C,,C,68.2,,,C,,T,,M,,N,,M*28
20231006 215443+01:00 $WIMWV,113.1,R,3.38,N,A*19
20231006 215443+01:00 $GPRMC,205440,A,4918.7226,N,12306.4168,W,0,336,061023,,,D,V*12
20231006 215444+01:00 $HCHDT,177.3,T*2B
20231006 215445+01:00 $IIMDA,30.1,I,1.019,B,20.7,C,,C,68.1,,,C,,T,,M,,N,,M*2B
20231006 215445+01:00 $WIMWV,121.79,R,1.09,N,A*27
20231006 215445+01:00 $GPRMC,205442,A,4918.7225,N,12306.4166,W,0,336,061023,,,D,V*1D
20231006 215446+01:00 $HCHDT,177.3,T*2B
20231006 215447+01:00 $IIMDA,30.1,I,1.019,B,20.7,C,,C,68,,,C,,T,,M,,N,,M*34
20231006 215447+01:00 $WIMWV,81.19,R,1.89,N,A*12
20231006 215447+01:00 $GPRMC,205444,A,4918.7221,N,12306.4168,W,0,336,061023,,,D,V*11
20231006 215448+01:00 $HCHDT,177.3,T*2B
20231006 215449+01:00 $IIMDA,30.1,I,1.019,B,20.7,C,,C,67.9,,,C,,T,,M,,N,,M*2C
20231006 215449+01:00 $WIMWV,78.09,R,2.59,N,A*1B
20231006 215449+01:00 $GPRMC,205446,A,4918.7220,N,12306.4169,W,0,336,061023,,,D,V*13
20231006 215450+01:00 $HCHDT,177.3,T*2B
20231006 215451+01:00 $IIMDA,30.1,I,1.019,B,20.7,C,,C,67.9,,,C,,T,,M,,N,,M*2C
20231006 215451+01:00 $WIMWV,78.09,R,1.59,N,A*18
20231006 215451+01:00 $GPRMC,205448,A,4918.7219,N,12306.4168,W,0,336,061023,,,D,V*16
20231006 215452+01:00 $HCHDT,177.3,T*2B
20231006 215453+01:00 $IIMDA,30.1,I,1.019,B,20.7,C,,C,67.8,,,C,,T,,M,,N,,M*2D
20231006 215453+01:00 $WIMWV,113.39,R,0.58,N,A*27
20231006 215453+01:00 $GPRMC,205450,A,4918.7218,N,12306.4166,W,0,336,061023,,,D,V*10
20231006 215454+01:00 $HCHDT,177.4,T*2C
20231006 215455+01:00 $IIMDA,30.1,I,1.019,B,20.7,C,,C,67.8,,,C,,T,,M,,N,,M*2D
20231006 215455+01:00 $WIMWV,80.29,R,1.89,N,A*10
20231006 215455+01:00 $GPRMC,205452,A,4918.7219,N,12306.4165,W,0,336,061023,,,D,V*10
20231006 215456+01:00 $HCHDT,177.4,T*2C
20231006 215457+01:00 $IIMDA,30.1,I,1.019,B,20.7,C,,C,67.9,,,C,,T,,M,,N,,M*2C
20231006 215457+01:00 $WIMWV,59.59,R,1.4,N,A*26
20231006 215457+01:00 $GPRMC,205454,A,4918.7214,N,12306.4162,W,0,336,061023,,,D,V*1C
20231006 215458+01:00 $HCHDT,177.4,T*2C
20231006 215459+01:00 $IIMDA,30.1,I,1.019,B,20.7,C,,C,67.9,,,C,,T,,M,,N,,M*2C
20231006 215459+01:00 $WIMWV,82,R,2.39,N,A*3F
20231006 215459+01:00 $GPRMC,205456,A,4918.7216,N,12306.4181,W,0,336,061023,,,D,V*11
20231006 215501+01:00 $HCHDT,177.4,T*2C
20231006 215501+01:00 $IIMDA,30.1,I,1.019,B,20.7,C,,C,67.9,,,C,,T,,M,,N,,M*2C
20231006 215501+01:00 $WIMWV,110.79,R,1.4,N,A*18
20231006 215501+01:00 $GPRMC,205458,A,4918.7217,N,12306.4162,W,0,336,061023,,,D,V*13
20231006 215502+01:00 $HCHDT,177.4,T*2C
20231006 215503+01:00 $IIMDA,30.1,I,1.019,B,20.7,C,,C,67.9,,,C,,T,,M,,N,,M*2C
20231006 215503+01:00 $WIMWV,80.49,R,1.98,N,A*16
20231006 215503+01:00 $GPRMC,205500,A,4918.7219,N,12306.4163,W,0,336,061023,,,D,V*10
20231006 215504+01:00 $HCHDT,177.4,T*2C
20231006 215505+01:00 $IIMDA,30.1,I,1.019,B,20.7,C,,C,67.9,,,C,,T,,M,,N,,M*2C
20231006 215505+01:00 $WIMWV,56.69,R,0.99,N,A*1F
20231006 215505+01:00 $GPRMC,205502,A,4918.7221,N,12306.4163,W,0,336,061023,,,D,V*19
20231006 215506+01:00 $HCHDT,177.4,T*2C
20231006 215507+01:00 $IIMDA,30.1,I,1.019,B,20.7,C,,C,67.8,,,C,,T,,M,,N,,M*2D
20231006 215507+01:00 $WIMWV,109.1,R,2.49,N,A*15
20231006 215507+01:00 $GPRMC,205504,A,4918.7228,N,12306.4166,W,0,336,061023,,,D,V*13
20231006 215508+01:00 $HCHDT,177.4,T*2C
20231006 215509+01:00 $IIMDA,30.1,I,1.019,B,20.7,C,,C,67.8,,,C,,T,,M,,N,,M*2D
20231006 215509+01:00 $WIMWV,75.3,R,1.09,N,A*2A
20231006 215509+01:00 $GPRMC,205506,A,4918.7228,N,12306.4167,W,0,336,061023,,,D,V*10
20231006 215510+01:00 $HCHDT,177.5,T*2D
20231006 215511+01:00 $IIMDA,30.1,I,1.019,B,20.7,C,,C,67.7,,,C,,T,,M,,N,,M*22
20231006 215511+01:00 $WIMWV,82.2,R,1.89,N,A*2B
20231006 215511+01:00 $GPRMC,205508,A,4918.7227,N,12306.4167,W,0,336,061023,,,D,V*11
20231006 215512+01:00 $HCHDT,177.5,T*2D
20231006 215513+01:00 $IIMDA,30.1,I,1.019,B,20.7,C,,C,67.7,,,C,,T,,M,,N,,M*22
20231006 215513+01:00 $WIMWV,113.59,R,0.89,N,A*2D
20231006 215513+01:00 $GPRMC,205510,A,4918.7226,N,12306.4167,W,0,336,061023,,,D,V*19
20231006 215514+01:00 $HCHDT,177.5,T*2D
20231006 215515+01:00 $IIMDA,30.1,I,1.019,B,20.7,C,,C,67.7,,,C,,T,,M,,N,,M*22
20231006 215515+01:00 $WIMWV,116.8,R,2.8,N,A*27
20231006 215515+01:00 $GPRMC,205512,A,4918.7226,N,12306.4167,W,0,336,061023,,,D,V*1B
20231006 215516+01:00 $HCHDT,177.5,T*2D
20231006 215517+01:00 $IIMDA,30.1,I,1.019,B,20.7,C,,C,67.7,,,C,,T,,M,,N,,M*22
20231006 215517+01:00 $WIMWV,117.9,R,3.6,N,A*28
20231006 215517+01:00 $GPRMC,205514,A,4918.7227,N,12306.4167,W,0,336,061023,,,D,V*1C
20231006 215518+01:00 $HCHDT,177.5,T*2D
20231006 215519+01:00 $IIMDA,30.1,I,1.019,B,20.7,C,,C,67.7,,,C,,T,,M,,N,,M*22
20231006 215519+01:00 $WIMWV,122.89,R,5.09,N,A*2F
20231006 215519+01:00 $GPRMC,205516,A,4918.7228,N,12306.4166,W,0,336,061023,,,D,V*10
20231006 215520+01:00 $HCHDT,177.5,T*2D
20231006 215521+01:00 $IIMDA,30.1,I,1.019,B,20.7,C,,C,67.6,,,C,,T,,M,,N,,M*23
20231006 215521+01:00 $WIMWV,118.89,R,4.59,N,A*22
20231006 215521+01:00 $GPRMC,205518,A,4918.7227,N,12306.4166,W,0,336,061023,,,D,V*11
20231006 215522+01:00 $HCHDT,177.5,T*2D
20231006 215523+01:00 $IIMDA,30.1,I,1.019,B,20.7,C,,C,67.5,,,C,,T,,M,,N,,M*20
20231006 215523+01:00 $WIMWV,119.1,R,5.09,N,A*17
20231006 215523+01:00 $GPRMC,205520,A,4918.7227,N,12306.4167,W,0,336,061023,,,D,V*1B
20231006 215524+01:00 $HCHDT,177.6,T*2E
20231006 215525+01:00 $IIMDA,30.1,I,1.019,B,20.7,C,,C,67.4,,,C,,T,,M,,N,,M*21
20231006 215525+01:00 $WIMWV,121.59,R,3.98,N,A*2F
20231006 215525+01:00 $GPRMC,205522,A,4918.7227,N,12306.4167,W,0,336,061023,,,D,V*19
20231006 215526+01:00 $HCHDT,177.6,T*2E
20231006 215527+01:00 $IIMDA,30.1,I,1.019,B,20.6,C,,C,67.4,,,C,,T,,M,,N,,M*20
20231006 215527+01:00 $WIMWV,119.3,R,3.98,N,A*1B
20231006 215527+01:00 $GPRMC,205524,A,4918.7227,N,12306.4167,W,0,336,061023,,,D,V*1F
20231006 215528+01:00 $HCHDT,177.6,T*2E
20231006 215529+01:00 $IIMDA,30.1,I,1.019,B,20.6,C,,C,67.4,,,C,,T,,M,,N,,M*20
20231006 215529+01:00 $WIMWV,96.19,R,2.2,N,A*24
20231006 215529+01:00 $GPRMC,205526,A,4918.7228,N,12306.4166,W,0,336,061023,,,D,V*13
20231006 215530+01:00 $HCHDT,177.7,T*2F
20231006 215531+01:00 $IIMDA,30.1,I,1.019,B,20.6,C,,C,67.4,,,C,,T,,M,,N,,M*20
20231006 215531+01:00 $WIMWV,65.99,R,1.5,N,A*24
20231006 215531+01:00 $GPRMC,205528,A,4918.7228,N,12306.4166,W,0,336,061023,,,D,V*1D
20231006 215532+01:00 $HCHDT,177.7,T*2F
20231006 215533+01:00 $IIMDA,30.1,I,1.019,B,20.6,C,,C,67.4,,,C,,T,,M,,N,,M*20
20231006 215533+01:00 $WIMWV,96.89,R,1.59,N,A*10
20231006 215533+01:00 $GPRMC,205530,A,4918.7228,N,12306.4167,W,0,336,061023,,,D,V*15
20231006 215534+01:00 $HCHDT,177.8,T*20
20231006 215535+01:00 $IIMDA,30.1,I,1.019,B,20.6,C,,C,67.6,,,C,,T,,M,,N,,M*22
20231006 215535+01:00 $WIMWV,97.9,R,1.4,N,A*11
20231006 215535+01:00 $GPRMC,205532,A,4918.7227,N,12306.4168,W,0,336,061023,,,D,V*17
20231006 215536+01:00 $HCHDT,177.9,T*21
20231006 215537+01:00 $IIMDA,30.1,I,1.019,B,20.6,C,,C,67.6,,,C,,T,,M,,N,,M*22
20231006 215537+01:00 $WIMWV,112.49,R,4.08,N,A*20
20231006 215537+01:00 $GPRMC,205534,A,4918.7227,N,12306.4168,W,0,336,061023,,,D,V*11
20231006 215538+01:00 $HCHDT,177.9,T*21
20231006 215539+01:00 $IIMDA,30.1,I,1.019,B,20.6,C,,C,67.7,,,C,,T,,M,,N,,M*23
20231006 215539+01:00 $WIMWV,111.89,R,3.98,N,A*21
20231006 215539+01:00 $GPRMC,205536,A,4918.7227,N,12306.4168,W,0,336,061023,,,D,V*13
20231006 215540+01:00 $HCHDT,178,T*39
20231006 215541+01:00 $IIMDA,30.1,I,1.019,B,20.6,C,,C,67.7,,,C,,T,,M,,N,,M*23
20231006 215541+01:00 $WIMWV,110.9,R,2.29,N,A*13
20231006 215541+01:00 $GPRMC,205538,A,4918.7229,N,12306.4167,W,0,336,061023,,,D,V*1C
20231006 215542+01:00 $HCHDT,178,T*39
20231006 215543+01:00 $IIMDA,30.1,I,1.019,B,20.6,C,,C,67.7,,,C,,T,,M,,N,,M*23
20231006 215543+01:00 $WIMWV,114.6,R,2.9,N,A*2A
20231006 215543+01:00 $GPRMC,205540,A,4918.7229,N,12306.4167,W,0,336,061023,,,D,V*13
20231006 215544+01:00 $HCHDT,178.1,T*26
20231006 215545+01:00 $IIMDA,30.1,I,1.019,B,20.6,C,,C,67.6,,,C,,T,,M,,N,,M*22
20231006 215545+01:00 $WIMWV,120.29,R,5.79,N,A*20
20231006 215545+01:00 $GPRMC,205542,A,4918.7230,N,12306.4166,W,0,336,061023,,,D,V*18
20231006 215546+01:00 $HCHDT,178.1,T*26
20231006 215547+01:00 $IIMDA,30.1,I,1.019,B,20.6,C,,C,67.6,,,C,,T,,M,,N,,M*22
20231006 215547+01:00 $WIMWV,119,R,3.09,N,A*0E
20231006 215547+01:00 $GPRMC,205544,A,4918.7229,N,12306.4168,W,0,336,061023,,,D,V*18
20231006 215548+01:00 $HCHDT,178.1,T*26
20231006 215549+01:00 $IIMDA,30.1,I,1.019,B,20.5,C,,C,67.5,,,C,,T,,M,,N,,M*22
20231006 215549+01:00 $WIMWV,95.9,R,1.59,N,A*2B
20231006 215549+01:00 $GPRMC,205546,A,4918.7229,N,12306.4168,W,0,336,061023,,,D,V*1A
20231006 215550+01:00 $HCHDT,178.1,T*26
20231006 215551+01:00 $IIMDA,30.1,I,1.019,B,20.5,C,,C,67.5,,,C,,T,,M,,N,,M*22
20231006 215551+01:00 $WIMWV,80.2,R,1.4,N,A*1C
20231006 215551+01:00 $GPRMC,205548,A,4918.7229,N,12306.4168,W,0,336,061023,,,D,V*14
20231006 215552+01:00 $HCHDT,178.2,T*25
20231006 215553+01:00 $IIMDA,30.1,I,1.019,B,20.5,C,,C,67.6,,,C,,T,,M,,N,,M*21
20231006 215553+01:00 $WIMWV,98.1,R,2.59,N,A*2D
20231006 215553+01:00 $GPRMC,205550,A,4918.7230,N,12306.4167,W,0,336,061023,,,D,V*1A
20231006 215554+01:00 $HCHDT,178.2,T*25
20231006 215555+01:00 $IIMDA,30.1,I,1.019,B,20.5,C,,C,67.6,,,C,,T,,M,,N,,M*21
20231006 215555+01:00 $WIMWV,81.3,R,2.59,N,A*27
20231006 215555+01:00 $GPRMC,205552,A,4918.7230,N,12306.4167,W,0,336,061023,,,D,V*18
20231006 215556+01:00 $HCHDT,178.2,T*25
20231006 215557+01:00 $IIMDA,30.1,I,1.019,B,20.5,C,,C,67.6,,,C,,T,,M,,N,,M*21
20231006 215557+01:00 $WIMWV,107.69,R,1.59,N,A*27
20231006 215557+01:00 $GPRMC,205554,A,4918.7230,N,12306.4167,W,0,336,061023,,,D,V*1E
20231006 215558+01:00 $HCHDT,178.2,T*25
20231006 215559+01:00 $IIMDA,30.1,I,1.019,B,20.5,C,,C,67.6,,,C,,T,,M,,N,,M*21
20231006 215559+01:00 $WIMWV,329.19,R,1.09,N,A*2B
20231006 215559+01:00 $GPRMC,205556,A,4918.7229,N,12306.4169,W,0,336,061023,,,D,V*1A
20231006 215600+01:00 $HCHDT,178.1,T*26
20231006 215601+01:00 $IIMDA,30.1,I,1.019,B,20.5,C,,C,67.7,,,C,,T,,M,,N,,M*20
20231006 215601+01:00 $WIMWV,57.3,R,0.89,N,A*23
20231006 215601+01:00 $GPRMC,205558,A,4918.7229,N,12306.4169,W,0,336,061023,,,D,V*14
20231006 215602+01:00 $HCHDT,178.1,T*26
20231006 215603+01:00 $IIMDA,30.1,I,1.019,B,20.5,C,,C,67.7,,,C,,T,,M,,N,,M*20
20231006 215603+01:00 $WIMWV,51,R,2.1,N,A*0A
20231006 215603+01:00 $GPRMC,205600,A,4918.7229,N,12306.4169,W,0,336,061023,,,D,V*1A
20231006 215604+01:00 $HCHDT,178.2,T*25
20231006 215605+01:00 $IIMDA,30.1,I,1.019,B,20.5,C,,C,67.9,,,C,,T,,M,,N,,M*2E
20231006 215605+01:00 $WIMWV,62.5,R,1.09,N,A*2A
20231006 215605+01:00 $GPRMC,205602,A,4918.7229,N,12306.4169,W,0,336,061023,,,D,V*18
20231006 215606+01:00 $HCHDT,178.1,T*26
20231006 215607+01:00 $IIMDA,30.1,I,1.019,B,20.6,C,,C,68,,,C,,T,,M,,N,,M*35
20231006 215607+01:00 $WIMWV,115.59,R,1.59,N,A*27
20231006 215607+01:00 $GPRMC,205604,A,4918.7229,N,12306.4169,W,0,336,061023,,,D,V*1E
20231006 215608+01:00 $HCHDT,178,T*39
20231006 215609+01:00 $IIMDA,30.1,I,1.019,B,20.6,C,,C,68,,,C,,T,,M,,N,,M*35
20231006 215609+01:00 $WIMWV,127.6,R,1.4,N,A*24
20231006 215609+01:00 $GPRMC,205606,A,4918.7229,N,12306.4169,W,0,336,061023,,,D,V*1C
20231006 215610+01:00 $HCHDT,177.9,T*21
20231006 215611+01:00 $IIMDA,30.1,I,1.019,B,20.6,C,,C,68,,,C,,T,,M,,N,,M*35
20231006 215611+01:00 $WIMWV,59.09,R,1.59,N,A*1B
20231006 215611+01:00 $GPRMC,205608,A,4918.7228,N,12306.4169,W,0,336,061023,,,D,V*13
20231006 215612+01:00 $HCHDT,177.8,T*20
20231006 215613+01:00 $IIMDA,30.1,I,1.019,B,20.6,C,,C,67.9,,,C,,T,,M,,N,,M*2D
20231006 215613+01:00 $WIMWV,74,R,1.79,N,A*31
20231006 215613+01:00 $GPRMC,205610,A,4918.7228,N,12306.4169,W,0,336,061023,,,D,V*1A
20231006 215614+01:00 $HCHDT,177.7,T*2F
20231006 215615+01:00 $IIMDA,30.1,I,1.019,B,20.6,C,,C,68,,,C,,T,,M,,N,,M*35
20231006 215615+01:00 $WIMWV,70.5,R,2.39,N,A*29
20231006 215615+01:00 $GPRMC,205612,A,4918.7228,N,12306.4169,W,0,336,061023,,,D,V*18
20231006 215616+01:00 $HCHDT,177.6,T*2E
20231006 215617+01:00 $IIMDA,30.1,I,1.019,B,20.6,C,,C,67.9,,,C,,T,,M,,N,,M*2D
20231006 215617+01:00 $WIMWV,66.59,R,0.58,N,A*12
20231006 215617+01:00 $GPRMC,205614,A,4918.7228,N,12306.4169,W,0,336,061023,,,D,V*1E
20231006 215618+01:00 $HCHDT,177.6,T*2E
20231006 215619+01:00 $IIMDA,30.1,I,1.019,B,20.6,C,,C,67.9,,,C,,T,,M,,N,,M*2D
20231006 215619+01:00 $WIMWV,104.79,R,1.19,N,A*21
20231006 215619+01:00 $GPRMC,205616,A,4918.7228,N,12306.4169,W,0,336,061023,,,D,V*1C
20231006 215620+01:00 $HCHDT,177.6,T*2E
20231006 215621+01:00 $IIMDA,30.1,I,1.019,B,20.6,C,,C,67.9,,,C,,T,,M,,N,,M*2D
20231006 215621+01:00 $WIMWV,120.1,R,2.2,N,A*21
20231006 215621+01:00 $GPRMC,205618,A,4918.7228,N,12306.4169,W,0,336,061023,,,D,V*12
20231006 215622+01:00 $HCHDT,177.5,T*2D
20231006 215623+01:00 $IIMDA,30.1,I,1.019,B,20.6,C,,C,68,,,C,,T,,M,,N,,M*35
20231006 215623+01:00 $WIMWV,122.49,R,2.1,N,A*1C
20231006 215623+01:00 $GPRMC,205620,A,4918.7228,N,12306.4170,W,0,336,061023,,,D,V*11
20231006 215624+01:00 $HCHDT,177.6,T*2E
20231006 215625+01:00 $IIMDA,30.1,I,1.019,B,20.6,C,,C,68,,,C,,T,,M,,N,,M*35
20231006 215625+01:00 $WIMWV,116.69,R,2.59,N,A*24
20231006 215625+01:00 $GPRMC,205622,A,4918.7228,N,12306.4170,W,0,336,061023,,,D,V*13
20231006 215626+01:00 $HCHDT,177.6,T*2E
20231006 215627+01:00 $IIMDA,30.1,I,1.019,B,20.6,C,,C,67.9,,,C,,T,,M,,N,,M*2D
20231006 215627+01:00 $WIMWV,113.3,R,2.8,N,A*29
20231006 215627+01:00 $GPRMC,205624,A,4918.7228,N,12306.4170,W,0,336,061023,,,D,V*15
20231006 215628+01:00 $HCHDT,177.6,T*2E
20231006 215629+01:00 $IIMDA,30.1,I,1.019,B,20.6,C,,C,68,,,C,,T,,M,,N,,M*35
20231006 215629+01:00 $WIMWV,97.09,R,1.89,N,A*14
20231006 215629+01:00 $GPRMC,205626,A,4918.7230,N,12306.4170,W,0,336,061023,,,D,V*1E
20231006 215630+01:00 $HCHDT,177.6,T*2E
20231006 215631+01:00 $IIMDA,30.1,I,1.019,B,20.6,C,,C,68,,,C,,T,,M,,N,,M*35
20231006 215631+01:00 $WIMWV,99,R,1.69,N,A*33
20231006 215631+01:00 $GPRMC,205628,A,4918.7230,N,12306.4169,W,0,336,061023,,,D,V*18
20231006 215632+01:00 $HCHDT,177.7,T*2F
20231006 215633+01:00 $IIMDA,30.1,I,1.019,B,20.6,C,,C,68.1,,,C,,T,,M,,N,,M*2A
20231006 215633+01:00 $WIMWV,71.49,R,1.59,N,A*15
20231006 215633+01:00 $GPRMC,205630,A,4918.7230,N,12306.4170,W,0,336,061023,,,D,V*19
20231006 215634+01:00 $HCHDT,177.7,T*2F
20231006 215635+01:00 $IIMDA,30.1,I,1.019,B,20.6,C,,C,68,,,C,,T,,M,,N,,M*35
20231006 215635+01:00 $WIMWV,85.19,R,1.5,N,A*22
20231006 215635+01:00 $GPRMC,205632,A,4918.7229,N,12306.4170,W,0,336,061023,,,D,V*13
20231006 215636+01:00 $HCHDT,177.7,T*2F
20231006 215637+01:00 $IIMDA,30.1,I,1.019,B,20.6,C,,C,68.1,,,C,,T,,M,,N,,M*2A
20231006 215637+01:00 $WIMWV,87,R,2.8,N,A*08
20231006 215637+01:00 $GPRMC,205634,A,4918.7229,N,12306.4170,W,0,336,061023,,,D,V*15
20231006 215638+01:00 $HCHDT,177.8,T*20
20231006 215639+01:00 $IIMDA,30.1,I,1.019,B,20.6,C,,C,68.1,,,C,,T,,M,,N,,M*2A
20231006 215639+01:00 $WIMWV,86.29,R,2.29,N,A*1F
20231006 215639+01:00 $GPRMC,205636,A,4918.7228,N,12306.4170,W,0,336,061023,,,D,V*16
20231006 215640+01:00 $HCHDT,177.8,T*20
20231006 215641+01:00 $IIMDA,30.1,I,1.019,B,20.6,C,,C,68.2,,,C,,T,,M,,N,,M*29
20231006 215641+01:00 $WIMWV,329.49,R,0.89,N,A*27
20231006 215641+01:00 $GPRMC,205638,A,4918.7229,N,12306.4169,W,0,336,061023,,,D,V*11
20231006 215642+01:00 $HCHDT,177.8,T*20
20231006 215643+01:00 $IIMDA,30.1,I,1.019,B,20.7,C,,C,68.2,,,C,,T,,M,,N,,M*28
20231006 215643+01:00 $WIMWV,142.9,R,1.28,N,A*16
20231006 215643+01:00 $GPRMC,205640,A,4918.7229,N,12306.4169,W,0,336,061023,,,D,V*1E
20231006 215644+01:00 $HCHDT,177.8,T*20
20231006 215645+01:00 $IIMDA,30.1,I,1.019,B,20.7,C,,C,68.2,,,C,,T,,M,,N,,M*28
20231006 215645+01:00 $WIMWV,103.6,R,2.49,N,A*18
20231006 215645+01:00 $GPRMC,205642,A,4918.7229,N,12306.4169,W,0,336,061023,,,D,V*1C
20231006 215646+01:00 $HCHDT,177.9,T*21
20231006 215647+01:00 $IIMDA,30.1,I,1.019,B,20.7,C,,C,68.2,,,C,,T,,M,,N,,M*28
20231006 215647+01:00 $WIMWV,85.79,R,2.49,N,A*1F
20231006 215647+01:00 $GPRMC,205644,A,4918.7228,N,12306.4170,W,0,336,061023,,,D,V*13
20231006 215648+01:00 $HCHDT,177.9,T*21
20231006 215649+01:00 $IIMDA,30.1,I,1.019,B,20.7,C,,C,68.2,,,C,,T,,M,,N,,M*28
20231006 215649+01:00 $WIMWV,97.09,R,1.5,N,A*20
20231006 215649+01:00 $GPRMC,205646,A,4918.7228,N,12306.4170,W,0,336,061023,,,D,V*11
20231006 215650+01:00 $HCHDT,177.9,T*21
20231006 215651+01:00 $IIMDA,30.1,I,1.019,B,20.7,C,,C,68.1,,,C,,T,,M,,N,,M*2B
20231006 215651+01:00 $WIMWV,115.1,R,2.2,N,A*27
20231006 215651+01:00 $GPRMC,205648,A,4918.7228,N,12306.4170,W,0,336,061023,,,D,V*1F
20231006 215652+01:00 $HCHDT,177.9,T*21
20231006 215653+01:00 $IIMDA,30.1,I,1.019,B,20.7,C,,C,68.1,,,C,,T,,M,,N,,M*2B
20231006 215653+01:00 $WIMWV,107.3,R,3.19,N,A*1D
20231006 215653+01:00 $GPRMC,205650,A,4918.7228,N,12306.4170,W,0,336,061023,,,D,V*16
20231006 215654+01:00 $HCHDT,177.8,T*20
20231006 215655+01:00 $IIMDA,30.1,I,1.019,B,20.7,C,,C,68,,,C,,T,,M,,N,,M*34
20231006 215655+01:00 $WIMWV,97.4,R,1.79,N,A*26
20231006 215655+01:00 $GPRMC,205652,A,4918.7228,N,12306.4170,W,0,336,061023,,,D,V*14
20231006 215656+01:00 $HCHDT,177.8,T*20
20231006 215657+01:00 $IIMDA,30.1,I,1.019,B,20.7,C,,C,67.8,,,C,,T,,M,,N,,M*2D
20231006 215657+01:00 $WIMWV,121.09,R,3.89,N,A*2A
20231006 215657+01:00 $GPRMC,205654,A,4918.7227,N,12306.4170,W,0,336,061023,,,D,V*1D
20231006 215658+01:00 $HCHDT,177.8,T*20
20231006 215659+01:00 $IIMDA,30.1,I,1.019,B,20.7,C,,C,67.8,,,C,,T,,M,,N,,M*2D
20231006 215659+01:00 $WIMWV,72.3,R,1.69,N,A*2B
20231006 215659+01:00 $GPRMC,205656,A,4918.7226,N,12306.4171,W,0,336,061023,,,D,V*1F
20231006 215700+01:00 $HCHDT,177.8,T*20
20231006 215701+01:00 $IIMDA,30.1,I,1.019,B,20.7,C,,C,67.7,,,C,,T,,M,,N,,M*22
20231006 215701+01:00 $WIMWV,112.09,R,2.49,N,A*27
20231006 215701+01:00 $GPRMC,205658,A,4918.7226,N,12306.4171,W,0,336,061023,,,D,V*11
20231006 215702+01:00 $HCHDT,177.8,T*20
20231006 215703+01:00 $IIMDA,30.1,I,1.019,B,20.6,C,,C,67.7,,,C,,T,,M,,N,,M*23
20231006 215703+01:00 $WIMWV,85.19,R,1.98,N,A*16
20231006 215703+01:00 $GPRMC,205700,A,4918.7223,N,12306.4155,W,0,336,061023,,,D,V*1E
20231006 215704+01:00 $HCHDT,177.8,T*20
20231006 215705+01:00 $IIMDA,30.1,I,1.019,B,20.6,C,,C,67.7,,,C,,T,,M,,N,,M*23
20231006 215705+01:00 $WIMWV,91.7,R,0.39,N,A*26
20231006 215705+01:00 $GPRMC,205702,A,4918.7226,N,12306.4159,W,0,336,061023,,,D,V*15
20231006 215706+01:00 $HCHDT,177.8,T*20
20231006 215707+01:00 $IIMDA,30.1,I,1.019,B,20.6,C,,C,67.8,,,C,,T,,M,,N,,M*2C
20231006 215707+01:00 $WIMWV,82.2,R,2.8,N,A*11
20231006 215707+01:00 $GPRMC,205704,A,4918.7225,N,12306.4158,W,0,336,061023,,,D,V*11
20231006 215708+01:00 $HCHDT,177.7,T*2F
20231006 215709+01:00 $IIMDA,30.1,I,1.019,B,20.6,C,,C,67.8,,,C,,T,,M,,N,,M*2C
20231006 215709+01:00 $WIMWV,122.6,R,4.08,N,A*18
20231006 215709+01:00 $GPRMC,205706,A,4918.7225,N,12306.4159,W,0,336,061023,,,D,V*12
20231006 215710+01:00 $HCHDT,177.7,T*2F
20231006 215711+01:00 $IIMDA,30.1,I,1.019,B,20.6,C,,C,67.8,,,C,,T,,M,,N,,M*2C
20231006 215711+01:00 $WIMWV,106.2,R,2.2,N,A*26
20231006 215711+01:00 $GPRMC,205708,A,4918.7224,N,12306.4159,W,0,336,061023,,,D,V*1D
20231006 215712+01:00 $HCHDT,177.7,T*2F
20231006 215713+01:00 $IIMDA,30.1,I,1.019,B,20.6,C,,C,67.7,,,C,,T,,M,,N,,M*23
20231006 215713+01:00 $WIMWV,88.89,R,3.89,N,A*10
20231006 215713+01:00 $GPRMC,205710,A,4918.7224,N,12306.4160,W,0,336,061023,,,D,V*1E
20231006 215714+01:00 $HCHDT,177.8,T*20
20231006 215715+01:00 $IIMDA,30.1,I,1.019,B,20.6,C,,C,67.7,,,C,,T,,M,,N,,M*23
20231006 215715+01:00 $WIMWV,115.79,R,4.39,N,A*26
20231006 215715+01:00 $GPRMC,205712,A,4918.7224,N,12306.4160,W,0,336,061023,,,D,V*1C
20231006 215716+01:00 $HCHDT,177.8,T*20
20231006 215717+01:00 $IIMDA,30.1,I,1.019,B,20.6,C,,C,67.6,,,C,,T,,M,,N,,M*22
20231006 215717+01:00 $WIMWV,117.5,R,4.3,N,A*26
20231006 215717+01:00 $GPRMC,205714,A,4918.7224,N,12306.4159,W,0,336,061023,,,D,V*10
20231006 215718+01:00 $HCHDT,177.8,T*20
20231006 215719+01:00 $IIMDA,30.1,I,1.019,B,20.6,C,,C,67.5,,,C,,T,,M,,N,,M*21
20231006 215719+01:00 $WIMWV,97,R,3.38,N,A*3B
20231006 215719+01:00 $GPRMC,205716,A,4918.7224,N,12306.4158,W,0,336,061023,,,D,V*13
20231006 215720+01:00 $HCHDT,177.8,T*20
20231006 215721+01:00 $IIMDA,30.1,I,1.019,B,20.6,C,,C,67.4,,,C,,T,,M,,N,,M*20
20231006 215721+01:00 $WIMWV,87.39,R,1.98,N,A*16
20231006 215721+01:00 $GPRMC,205718,A,4918.7224,N,12306.4159,W,0,336,061023,,,D,V*1C
20231006 215722+01:00 $HCHDT,177.8,T*20
20231006 215723+01:00 $IIMDA,30.1,I,1.019,B,20.5,C,,C,67.3,,,C,,T,,M,,N,,M*24
20231006 215723+01:00 $WIMWV,68,R,2.1,N,A*00
20231006 215723+01:00 $GPRMC,205720,A,4918.7222,N,12306.4160,W,0,336,061023,,,D,V*1B
20231006 215724+01:00 $HCHDT,177.7,T*2F
20231006 215725+01:00 $IIMDA,30.1,I,1.019,B,20.5,C,,C,67.3,,,C,,T,,M,,N,,M*24
20231006 215725+01:00 $WIMWV,71.2,R,0.99,N,A*27
20231006 215725+01:00 $GPRMC,205722,A,4918.7222,N,12306.4160,W,0,336,061023,,,D,V*19
20231006 215726+01:00 $HCHDT,177.7,T*2F
20231006 215727+01:00 $IIMDA,30.1,I,1.019,B,20.5,C,,C,67.3,,,C,,T,,M,,N,,M*24
20231006 215727+01:00 $WIMWV,65.8,R,1.98,N,A*28
20231006 215727+01:00 $GPRMC,205724,A,4918.7221,N,12306.4160,W,0,336,061023,,,D,V*1C
20231006 215728+01:00 $HCHDT,177.7,T*2F
20231006 215729+01:00 $IIMDA,30.1,I,1.019,B,20.5,C,,C,67.4,,,C,,T,,M,,N,,M*23
20231006 215729+01:00 $WIMWV,88.8,R,2.59,N,A*25
20231006 215729+01:00 $GPRMC,205726,A,4918.7223,N,12306.4159,W,0,336,061023,,,D,V*16
20231006 215730+01:00 $HCHDT,177.6,T*2E
20231006 215731+01:00 $IIMDA,30.1,I,1.019,B,20.5,C,,C,67.4,,,C,,T,,M,,N,,M*23
20231006 215731+01:00 $WIMWV,67.9,R,2.2,N,A*1B
20231006 215731+01:00 $GPRMC,205728,A,4918.7222,N,12306.4159,W,0,336,061023,,,D,V*19
20231006 215732+01:00 $HCHDT,177.6,T*2E
20231006 215733+01:00 $IIMDA,30.1,I,1.019,B,20.5,C,,C,67.4,,,C,,T,,M,,N,,M*23
20231006 215733+01:00 $WIMWV,57.59,R,3.29,N,A*15
20231006 215733+01:00 $GPRMC,205730,A,4918.7222,N,12306.4159,W,0,336,061023,,,D,V*10
20231006 215734+01:00 $HCHDT,177.6,T*2E
20231006 215735+01:00 $IIMDA,30.1,I,1.019,B,20.5,C,,C,67.4,,,C,,T,,M,,N,,M*23
20231006 215735+01:00 $WIMWV,85.19,R,2.49,N,A*19
20231006 215735+01:00 $GPRMC,205732,A,4918.7220,N,12306.4160,W,0,336,061023,,,D,V*1A
20231006 215736+01:00 $HCHDT,177.6,T*2E
20231006 215737+01:00 $IIMDA,30.1,I,1.019,B,20.5,C,,C,67.4,,,C,,T,,M,,N,,M*23
20231006 215737+01:00 $WIMWV,114.69,R,2.8,N,A*12
20231006 215737+01:00 $GPRMC,205734,A,4918.7220,N,12306.4160,W,0,336,061023,,,D,V*1C
20231006 215738+01:00 $HCHDT,177.6,T*2E
20231006 215739+01:00 $IIMDA,30.1,I,1.019,B,20.5,C,,C,67.4,,,C,,T,,M,,N,,M*23
20231006 215739+01:00 $WIMWV,118.4,R,3.29,N,A*17
20231006 215739+01:00 $GPRMC,205736,A,4918.7219,N,12306.4160,W,0,336,061023,,,D,V*14
20231006 215740+01:00 $HCHDT,177.7,T*2F
20231006 215741+01:00 $IIMDA,30.1,I,1.019,B,20.5,C,,C,67.4,,,C,,T,,M,,N,,M*23
20231006 215741+01:00 $WIMWV,120.1,R,5.09,N,A*1D
20231006 215741+01:00 $GPRMC,205738,A,4918.7220,N,12306.4160,W,0,336,061023,,,D,V*10
20231006 215742+01:00 $HCHDT,177.7,T*2F
20231006 215743+01:00 $IIMDA,30.1,I,1.019,B,20.5,C,,C,67.4,,,C,,T,,M,,N,,M*23
20231006 215743+01:00 $WIMWV,115.3,R,3.38,N,A*1D
20231006 215743+01:00 $GPRMC,205740,A,4918.7220,N,12306.4160,W,0,336,061023,,,D,V*1F
20231006 215744+01:00 $HCHDT,177.8,T*20
20231006 215745+01:00 $IIMDA,30.1,I,1.019,B,20.5,C,,C,67.4,,,C,,T,,M,,N,,M*23
20231006 215745+01:00 $WIMWV,114.2,R,3.79,N,A*18
20231006 215745+01:00 $GPRMC,205742,A,4918.7219,N,12306.4160,W,0,336,061023,,,D,V*17
20231006 215746+01:00 $HCHDT,177.8,T*20
20231006 215747+01:00 $IIMDA,30.1,I,1.019,B,20.5,C,,C,67.5,,,C,,T,,M,,N,,M*22
20231006 215747+01:00 $WIMWV,89.2,R,3.69,N,A*2C
20231006 215747+01:00 $GPRMC,205744,A,4918.7218,N,12306.4161,W,0,336,061023,,,D,V*11
20231006 215748+01:00 $HCHDT,177.9,T*21
20231006 215749+01:00 $IIMDA,30.1,I,1.019,B,20.5,C,,C,67.5,,,C,,T,,M,,N,,M*22
20231006 215749+01:00 $WIMWV,91.7,R,1.79,N,A*23
20231006 215749+01:00 $GPRMC,205746,A,4918.7217,N,12306.4161,W,0,336,061023,,,D,V*1C
20231006 215750+01:00 $HCHDT,178,T*39
20231006 215751+01:00 $IIMDA,30.1,I,1.019,B,20.5,C,,C,67.6,,,C,,T,,M,,N,,M*21
20231006 215751+01:00 $WIMWV,77.1,R,3.09,N,A*28
20231006 215751+01:00 $GPRMC,205748,A,4918.7217,N,12306.4161,W,0,336,061023,,,D,V*12
20231006 215752+01:00 $HCHDT,178.1,T*26
20231006 215753+01:00 $IIMDA,30.1,I,1.019,B,20.5,C,,C,67.6,,,C,,T,,M,,N,,M*21
20231006 215753+01:00 $WIMWV,76.99,R,1.4,N,A*27
20231006 215753+01:00 $GPRMC,205750,A,4918.7218,N,12306.4160,W,0,336,061023,,,D,V*15
20231006 215754+01:00 $HCHDT,178.1,T*26
20231006 215755+01:00 $IIMDA,30.1,I,1.019,B,20.5,C,,C,67.6,,,C,,T,,M,,N,,M*21
20231006 215755+01:00 $WIMWV,56.8,R,0.8,N,A*10
20231006 215755+01:00 $GPRMC,205752,A,4918.7217,N,12306.4161,W,0,336,061023,,,D,V*19
20231006 215756+01:00 $HCHDT,178.2,T*25
20231006 215757+01:00 $IIMDA,30.1,I,1.019,B,20.5,C,,C,67.7,,,C,,T,,M,,N,,M*20
20231006 215757+01:00 $WIMWV,106.79,R,1.5,N,A*1E
20231006 215757+01:00 $GPRMC,205754,A,4918.7217,N,12306.4161,W,0,336,061023,,,D,V*1F
20231006 215758+01:00 $HCHDT,178.2,T*25
20231006 215759+01:00 $IIMDA,30.1,I,1.019,B,20.5,C,,C,67.8,,,C,,T,,M,,N,,M*2F
20231006 215759+01:00 $WIMWV,115.39,R,1.5,N,A*18
20231006 215759+01:00 $GPRMC,205756,A,4918.7216,N,12306.4142,W,0,336,061023,,,D,V*1D
20231006 215801+01:00 $HCHDT,178.3,T*24
20231006 215801+01:00 $IIMDA,30.1,I,1.019,B,20.5,C,,C,67.8,,,C,,T,,M,,N,,M*2F
20231006 215801+01:00 $WIMWV,102.99,R,1.4,N,A*15
20231006 215801+01:00 $GPRMC,205758,A,4918.7215,N,12306.4142,W,0,336,061023,,,D,V*10
20231006 215802+01:00 $HCHDT,178.3,T*24
20231006 215803+01:00 $IIMDA,30.1,I,1.019,B,20.5,C,,C,67.7,,,C,,T,,M,,N,,M*20
20231006 215803+01:00 $WIMWV,101.6,R,2.29,N,A*1C
20231006 215803+01:00 $GPRMC,205800,A,4918.7215,N,12306.4143,W,0,336,061023,,,D,V*13
20231006 215804+01:00 $HCHDT,178.4,T*23
20231006 215805+01:00 $IIMDA,30.1,I,1.019,B,20.5,C,,C,67.7,,,C,,T,,M,,N,,M*20
20231006 215805+01:00 $WIMWV,70,R,2.1,N,A*09
20231006 215805+01:00 $GPRMC,205802,A,4918.7216,N,12306.4142,W,0,336,061023,,,D,V*13
20231006 215806+01:00 $HCHDT,178.3,T*24
20231006 215807+01:00 $IIMDA,30.1,I,1.019,B,20.5,C,,C,67.7,,,C,,T,,M,,N,,M*20
20231006 215807+01:00 $WIMWV,70.59,R,2.49,N,A*17
20231006 215807+01:00 $GPRMC,205804,A,4918.7216,N,12306.4142,W,0,336,061023,,,D,V*15
20231006 215808+01:00 $HCHDT,178.3,T*24
20231006 215809+01:00 $IIMDA,30.1,I,1.019,B,20.6,C,,C,67.7,,,C,,T,,M,,N,,M*23
20231006 215809+01:00 $WIMWV,124.6,R,1.5,N,A*26
20231006 215809+01:00 $GPRMC,205806,A,4918.7216,N,12306.4142,W,0,336,061023,,,D,V*17
20231006 215810+01:00 $HCHDT,178.3,T*24
20231006 215811+01:00 $IIMDA,30.1,I,1.019,B,20.6,C,,C,67.8,,,C,,T,,M,,N,,M*2C
20231006 215811+01:00 $WIMWV,91.7,R,1.98,N,A*2C
20231006 215811+01:00 $GPRMC,205808,A,4918.7215,N,12306.4142,W,0,336,061023,,,D,V*1A
20231006 215812+01:00 $HCHDT,178.3,T*24
20231006 215813+01:00 $IIMDA,30.1,I,1.019,B,20.6,C,,C,67.8,,,C,,T,,M,,N,,M*2C
20231006 215813+01:00 $WIMWV,55.9,R,1.28,N,A*21
20231006 215813+01:00 $GPRMC,205810,A,4918.7215,N,12306.4142,W,0,336,061023,,,D,V*13
20231006 215814+01:00 $HCHDT,178.3,T*24
20231006 215815+01:00 $IIMDA,30.1,I,1.019,B,20.6,C,,C,67.9,,,C,,T,,M,,N,,M*2D
20231006 215815+01:00 $WIMWV,41.4,R,0.39,N,A*28
20231006 215815+01:00 $GPRMC,205812,A,4918.7215,N,12306.4142,W,0,336,061023,,,D,V*11
20231006 215816+01:00 $HCHDT,178.3,T*24
20231006 215817+01:00 $IIMDA,30.1,I,1.019,B,20.6,C,,C,68,,,C,,T,,M,,N,,M*35
20231006 215817+01:00 $WIMWV,30.4,R,0.89,N,A*25
20231006 215817+01:00 $GPRMC,205814,A,4918.7216,N,12306.4142,W,0,336,061023,,,D,V*14
20231006 215818+01:00 $HCHDT,178.2,T*25
20231006 215819+01:00 $IIMDA,30.1,I,1.019,B,20.6,C,,C,68,,,C,,T,,M,,N,,M*35
20231006 215819+01:00 $WIMWV,204.99,R,0.49,N,A*28
20231006 215819+01:00 $GPRMC,205816,A,4918.7216,N,12306.4142,W,0,336,061023,,,D,V*16
20231006 215820+01:00 $HCHDT,178.2,T*25
20231006 215821+01:00 $IIMDA,30.1,I,1.019,B,20.6,C,,C,68.2,,,C,,T,,M,,N,,M*29
20231006 215821+01:00 $WIMWV,99.4,R,1.59,N,A*2A
20231006 215821+01:00 $GPRMC,205818,A,4918.7217,N,12306.4142,W,0,336,061023,,,D,V*19
20231006 215822+01:00 $HCHDT,178.2,T*25
20231006 215823+01:00 $IIMDA,30.1,I,1.019,B,20.6,C,,C,68.2,,,C,,T,,M,,N,,M*29
20231006 215823+01:00 $WIMWV,74.59,R,1.4,N,A*29
20231006 215823+01:00 $GPRMC,205820,A,4918.7215,N,12306.4143,W,0,336,061023,,,D,V*11
20231006 215824+01:00 $HCHDT,178.2,T*25
20231006 215825+01:00 $IIMDA,30.1,I,1.019,B,20.6,C,,C,68.2,,,C,,T,,M,,N,,M*29
20231006 215825+01:00 $WIMWV,106.9,R,2.2,N,A*2D
20231006 215825+01:00 $GPRMC,205822,A,4918.7216,N,12306.4142,W,0,336,061023,,,D,V*11
20231006 215826+01:00 $HCHDT,178.2,T*25
20231006 215827+01:00 $IIMDA,30.1,I,1.019,B,20.6,C,,C,68.2,,,C,,T,,M,,N,,M*29
20231006 215827+01:00 $WIMWV,22.8,R,0.58,N,A*26
20231006 215827+01:00 $GPRMC,205824,A,4918.7216,N,12306.4142,W,0,336,061023,,,D,V*17
20231006 215828+01:00 $HCHDT,178.2,T*25
20231006 215829+01:00 $IIMDA,30.1,I,1.019,B,20.6,C,,C,68.2,,,C,,T,,M,,N,,M*29
20231006 215829+01:00 $WIMWV,57.4,R,1.4,N,A*10
20231006 215829+01:00 $GPRMC,205826,A,4918.7217,N,12306.4161,W,0,336,061023,,,D,V*15
20231006 215830+01:00 $HCHDT,178.2,T*25
20231006 215831+01:00 $IIMDA,30.1,I,1.019,B,20.6,C,,C,68.3,,,C,,T,,M,,N,,M*28
20231006 215831+01:00 $WIMWV,63.7,R,0.7,N,A*16
20231006 215831+01:00 $GPRMC,205828,A,4918.7217,N,12306.4161,W,0,336,061023,,,D,V*1B
20231006 215832+01:00 $HCHDT,178.2,T*25
20231006 215833+01:00 $IIMDA,30.1,I,1.019,B,20.6,C,,C,68.3,,,C,,T,,M,,N,,M*28
20231006 215833+01:00 $WIMWV,80.2,R,0.89,N,A*28
20231006 215833+01:00 $GPRMC,205830,A,4918.7217,N,12306.4161,W,0,336,061023,,,D,V*12
20231006 215834+01:00 $HCHDT,178.2,T*25
20231006 215835+01:00 $IIMDA,30.1,I,1.019,B,20.7,C,,C,68.3,,,C,,T,,M,,N,,M*29
20231006 215835+01:00 $WIMWV,37.9,R,0.7,N,A*19
20231006 215835+01:00 $GPRMC,205832,A,4918.7216,N,12306.4161,W,0,336,061023,,,D,V*11
20231006 215836+01:00 $HCHDT,178.2,T*25
20231006 215837+01:00 $IIMDA,30.1,I,1.019,B,20.7,C,,C,68.4,,,C,,T,,M,,N,,M*2E
20231006 215837+01:00 $WIMWV,115.39,R,0.49,N,A*21
20231006 215837+01:00 $GPRMC,205834,A,4918.7217,N,12306.4161,W,0,336,061023,,,D,V*16
20231006 215838+01:00 $HCHDT,178.2,T*25
20231006 215839+01:00 $IIMDA,30.1,I,1.019,B,20.7,C,,C,68.4,,,C,,T,,M,,N,,M*2E
20231006 215839+01:00 $WIMWV,65.2,R,1.19,N,A*2B
20231006 215839+01:00 $GPRMC,205836,A,4918.7217,N,12306.4160,W,0,336,061023,,,D,V*15
20231006 215840+01:00 $HCHDT,178.1,T*26
20231006 215841+01:00 $IIMDA,30.1,I,1.019,B,20.7,C,,C,68.4,,,C,,T,,M,,N,,M*2E
20231006 215841+01:00 $WIMWV,42.1,R,2.1,N,A*17
20231006 215841+01:00 $GPRMC,205838,A,4918.7218,N,12306.4160,W,0,336,061023,,,D,V*14
20231006 215842+01:00 $HCHDT,178.1,T*26
20231006 215843+01:00 $IIMDA,30.1,I,1.019,B,20.7,C,,C,68.5,,,C,,T,,M,,N,,M*2F
20231006 215843+01:00 $WIMWV,9.4,R,1.4,N,A*2B
20231006 215843+01:00 $GPRMC,205840,A,4918.7217,N,12306.4160,W,0,336,061023,,,D,V*14
20231006 215844+01:00 $HCHDT,178.1,T*26
20231006 215845+01:00 $IIMDA,30.1,I,1.019,B,20.7,C,,C,68.5,,,C,,T,,M,,N,,M*2F
20231006 215845+01:00 $WIMWV,144.4,R,0.89,N,A*17
20231006 215845+01:00 $GPRMC,205842,A,4918.7218,N,12306.4160,W,0,336,061023,,,D,V*19
20231006 215846+01:00 $HCHDT,178.1,T*26
20231006 215847+01:00 $IIMDA,30.1,I,1.019,B,20.7,C,,C,68.5,,,C,,T,,M,,N,,M*2F
20231006 215847+01:00 $WIMWV,118.4,R,2.49,N,A*10
20231006 215847+01:00 $GPRMC,205844,A,4918.7217,N,12306.4160,W,0,336,061023,,,D,V*10
20231006 215848+01:00 $HCHDT,178.1,T*26
20231006 215849+01:00 $IIMDA,30.1,I,1.019,B,20.7,C,,C,68.4,,,C,,T,,M,,N,,M*2E
20231006 215849+01:00 $WIMWV,122.6,R,2.59,N,A*1A
20231006 215849+01:00 $GPRMC,205846,A,4918.7217,N,12306.4160,W,0,336,061023,,,D,V*12
20231006 215850+01:00 $HCHDT,178.1,T*26
20231006 215851+01:00 $IIMDA,30.1,I,1.019,B,20.7,C,,C,68.4,,,C,,T,,M,,N,,M*2E
20231006 215851+01:00 $WIMWV,145.39,R,2.29,N,A*20
20231006 215851+01:00 $GPRMC,205848,A,4918.7217,N,12306.4160,W,0,336,061023,,,D,V*1C
20231006 215852+01:00 $HCHDT,178,T*39
20231006 215853+01:00 $IIMDA,30.1,I,1.019,B,20.7,C,,C,68.4,,,C,,T,,M,,N,,M*2E
20231006 215853+01:00 $WIMWV,158.5,R,1.59,N,A*17
20231006 215853+01:00 $GPRMC,205850,A,4918.7218,N,12306.4160,W,0,336,061023,,,D,V*1A
20231006 215854+01:00 $HCHDT,178,T*39
20231006 215855+01:00 $IIMDA,30.1,I,1.019,B,20.7,C,,C,68.3,,,C,,T,,M,,N,,M*29
20231006 215855+01:00 $WIMWV,117.3,R,2.29,N,A*1E
20231006 215855+01:00 $GPRMC,205852,A,4918.7219,N,12306.4160,W,0,336,061023,,,D,V*19
20231006 215856+01:00 $HCHDT,178,T*39
20231006 215857+01:00 $IIMDA,30.1,I,1.019,B,20.7,C,,C,68.3,,,C,,T,,M,,N,,M*29
20231006 215857+01:00 $WIMWV,121.09,R,2.99,N,A*2A
20231006 215857+01:00 $GPRMC,205854,A,4918.7219,N,12306.4160,W,0,336,061023,,,D,V*1F
20231006 215858+01:00 $HCHDT,178.1,T*26
20231006 215859+01:00 $IIMDA,30.1,I,1.019,B,20.7,C,,C,68.2,,,C,,T,,M,,N,,M*28
20231006 215859+01:00 $WIMWV,109.69,R,3.19,N,A*2F
20231006 215859+01:00 $GPRMC,205856,A,4918.7217,N,12306.4160,W,0,336,061023,,,D,V*13
20231006 215900+01:00 $HCHDT,178.1,T*26
20231006 215901+01:00 $IIMDA,30.1,I,1.019,B,20.7,C,,C,68.2,,,C,,T,,M,,N,,M*28
20231006 215901+01:00 $WIMWV,129.99,R,1.89,N,A*29
20231006 215901+01:00 $GPRMC,205858,A,4918.7217,N,12306.4159,W,0,336,061023,,,D,V*17
20231006 215902+01:00 $HCHDT,178.2,T*25
20231006 215903+01:00 $IIMDA,30.1,I,1.019,B,20.7,C,,C,68.2,,,C,,T,,M,,N,,M*28
20231006 215903+01:00 $WIMWV,106.9,R,3.29,N,A*15
20231006 215903+01:00 $GPRMC,205900,A,4918.7217,N,12306.4159,W,0,336,061023,,,D,V*1B
20231006 215904+01:00 $HCHDT,178.2,T*25
20231006 215905+01:00 $IIMDA,30.1,I,1.019,B,20.7,C,,C,68.2,,,C,,T,,M,,N,,M*28
20231006 215905+01:00 $WIMWV,139.1,R,1.59,N,A*14
20231006 215905+01:00 $GPRMC,205902,A,4918.7219,N,12306.4158,W,0,336,061023,,,D,V*16
20231006 215906+01:00 $HCHDT,178.3,T*24
20231006 215907+01:00 $IIMDA,30.1,I,1.019,B,20.7,C,,C,68.1,,,C,,T,,M,,N,,M*2B
20231006 215907+01:00 $WIMWV,54.4,R,0.8,N,A*1E
20231006 215907+01:00 $GPRMC,205904,A,4918.7219,N,12306.4159,W,0,336,061023,,,D,V*11
20231006 215908+01:00 $HCHDT,178.4,T*23
20231006 215909+01:00 $IIMDA,30.1,I,1.019,B,20.7,C,,C,68.1,,,C,,T,,M,,N,,M*2B
20231006 215909+01:00 $WIMWV,237.59,R,0.39,N,A*23
