20220704 180000+00:00 $IIMDA,29.9,I,1.013,B,10.6,C,,C,96.4,,,C,,T,,M,,N,,M*27
20220704 180000+00:00 $HCHDT,109.6,T*27
20220704 180000+00:00 $GPRMC,175956,A,4832.1900,N,12444.3100,W,8.11,112,040722,12,E,A,V*70
20220704 180000+00:00 $WIMWV,339.79,R,6.69,N,A*2D
20220704 180002+00:00 $IIMDA,29.9,I,1.013,B,10.6,C,,C,96.4,,,C,,T,,M,,N,,M*27
20220704 180002+00:00 $HCHDT,109.8,T*29
20220704 180002+00:00 $GPRMC,175958,A,4832.1798,N,12444.3100,W,8.11,112,040722,12,E,A,V*71
20220704 180002+00:00 $WIMWV,357.69,R,7.7,N,A*1D
20220704 180004+00:00 $IIMDA,29.9,I,1.013,B,10.6,C,,C,96.4,,,C,,T,,M,,N,,M*27
20220704 180004+00:00 $HCHDT,110.9,T*20
20220704 180004+00:00 $GPRMC,180000,A,4832.1798,N,12444.2998,W,8.11,112,040722,12,E,A,V*77
20220704 180004+00:00 $WIMWV,345.79,R,6.08,N,A*21
20220704 180006+00:00 $IIMDA,29.9,I,1.013,B,10.6,C,,C,96.4,,,C,,T,,M,,N,,M*27
20220704 180006+00:00 $HCHDT,111.9,T*21
20220704 180006+00:00 $GPRMC,180002,A,4832.1798,N,12444.2998,W,8.11,113,040722,12,E,A,V*74
20220704 180006+00:00 $WIMWV,348.49,R,8.79,N,A*27
20220704 180008+00:00 $IIMDA,29.9,I,1.013,B,10.6,C,,C,96.4,,,C,,T,,M,,N,,M*27
20220704 180008+00:00 $HCHDT,112.2,T*29
20220704 180008+00:00 $GPRMC,180004,A,4832.1798,N,12444.2896,W,8.11,113,040722,12,E,A,V*7D
20220704 180008+00:00 $WIMWV,349.39,R,7.58,N,A*2D
20220704 180010+00:00 $IIMDA,29.9,I,1.013,B,10.6,C,,C,96.4,,,C,,T,,M,,N,,M*27
20220704 180010+00:00 $HCHDT,112,T*35
20220704 180010+00:00 $GPRMC,180006,A,4832.1798,N,12444.2800,W,8.01,114,040722,12,E,A,V*76
20220704 180010+00:00 $WIMWV,355.89,R,7.29,N,A*2D
20220704 180012+00:00 $IIMDA,29.9,I,1.013,B,10.6,C,,C,96.4,,,C,,T,,M,,N,,M*27
20220704 180012+00:00 $HCHDT,112,T*35
20220704 180012+00:00 $GPRMC,180008,A,4832.1696,N,12444.2800,W,8.01,114,040722,12,E,A,V*77
20220704 180012+00:00 $WIMWV,353.59,R,7.48,N,A*21
20220704 180014+00:00 $IIMDA,29.9,I,1.013,B,10.6,C,,C,96.4,,,C,,T,,M,,N,,M*27
20220704 180014+00:00 $HCHDT,112.3,T*28
20220704 180014+00:00 $GPRMC,180010,A,4832.1696,N,12444.2698,W,8.11,115,040722,12,E,A,V*71
20220704 180014+00:00 $WIMWV,352.39,R,8.88,N,A*25
20220704 180016+00:00 $IIMDA,29.9,I,1.013,B,10.6,C,,C,96.4,,,C,,T,,M,,N,,M*27
20220704 180016+00:00 $HCHDT,112.9,T*22
20220704 180016+00:00 $GPRMC,180012,A,4832.1696,N,12444.2596,W,8.11,115,040722,12,E,A,V*7E
20220704 180016+00:00 $WIMWV,346.69,R,4.2,N,A*1B
20220704 180018+00:00 $IIMDA,29.9,I,1.013,B,10.6,C,,C,96.4,,,C,,T,,M,,N,,M*27
20220704 180018+00:00 $HCHDT,112.8,T*23
20220704 180018+00:00 $GPRMC,180014,A,4832.1696,N,12444.2596,W,8.11,115,040722,12,E,A,V*78
20220704 180018+00:00 $WIMWV,351.29,R,8.88,N,A*27
20220704 180020+00:00 $IIMDA,29.9,I,1.013,B,10.6,C,,C,96.3,,,C,,T,,M,,N,,M*20
20220704 180020+00:00 $HCHDT,112.1,T*2A
20220704 180020+00:00 $GPRMC,180016,A,4832.1696,N,12444.2500,W,8.11,115,040722,12,E,A,V*75
20220704 180020+00:00 $WIMWV,347.99,R,5.79,N,A*28
20220704 180022+00:00 $IIMDA,29.9,I,1.013,B,10.6,C,,C,96.3,,,C,,T,,M,,N,,M*20
20220704 180022+00:00 $HCHDT,111.4,T*2C
20220704 180022+00:00 $GPRMC,180018,A,4832.1696,N,12444.2500,W,8.11,115,040722,12,E,A,V*7B
20220704 180022+00:00 $WIMWV,356.09,R,5.79,N,A*21
20220704 180024+00:00 $IIMDA,29.9,I,1.013,B,10.6,C,,C,96.3,,,C,,T,,M,,N,,M*20
20220704 180024+00:00 $HCHDT,111.3,T*2B
20220704 180024+00:00 $GPRMC,180020,A,4832.1600,N,12444.2398,W,8.01,115,040722,12,E,A,V*79
20220704 180024+00:00 $WIMWV,345.29,R,3.89,N,A*28
20220704 180026+00:00 $IIMDA,29.9,I,1.013,B,10.6,C,,C,96.3,,,C,,T,,M,,N,,M*20
20220704 180026+00:00 $HCHDT,111.6,T*2E
20220704 180026+00:00 $GPRMC,180022,A,4832.1600,N,12444.2296,W,8.01,115,040722,12,E,A,V*74
20220704 180026+00:00 $WIMWV,346.69,R,8.49,N,A*28
20220704 180028+00:00 $IIMDA,29.9,I,1.013,B,10.6,C,,C,96.3,,,C,,T,,M,,N,,M*20
20220704 180028+00:00 $HCHDT,111.8,T*20
20220704 180028+00:00 $GPRMC,180024,A,4832.1600,N,12444.2296,W,8.11,115,040722,12,E,A,V*73
20220704 180028+00:00 $WIMWV,337.79,R,6.59,N,A*20
20220704 180030+00:00 $IIMDA,29.9,I,1.013,B,10.6,C,,C,96.3,,,C,,T,,M,,N,,M*20
20220704 180030+00:00 $HCHDT,112.2,T*29
20220704 180030+00:00 $GPRMC,180026,A,4832.1600,N,12444.2200,W,8.11,115,040722,12,E,A,V*7E
20220704 180030+00:00 $WIMWV,358.09,R,4.3,N,A*13
20220704 180032+00:00 $IIMDA,29.9,I,1.013,B,10.6,C,,C,96.3,,,C,,T,,M,,N,,M*20
20220704 180032+00:00 $HCHDT,112.2,T*29
20220704 180032+00:00 $GPRMC,180028,A,4832.1600,N,12444.2200,W,8.11,115,040722,12,E,A,V*70
20220704 180032+00:00 $WIMWV,342.79,R,4.39,N,A*26
20220704 180034+00:00 $IIMDA,29.9,I,1.013,B,10.6,C,,C,96.3,,,C,,T,,M,,N,,M*20
20220704 180034+00:00 $HCHDT,111.6,T*2E
20220704 180034+00:00 $GPRMC,180030,A,4832.1498,N,12444.2098,W,8.11,114,040722,12,E,A,V*78
20220704 180034+00:00 $WIMWV,333.59,R,3.79,N,A*21
20220704 180036+00:00 $IIMDA,29.9,I,1.013,B,10.6,C,,C,96.3,,,C,,T,,M,,N,,M*20
20220704 180036+00:00 $HCHDT,111.6,T*2E
20220704 180036+00:00 $GPRMC,180032,A,4832.1498,N,12444.1996,W,8.11,114,040722,12,E,A,V*7E
20220704 180036+00:00 $WIMWV,348.79,R,8.98,N,A*2B
20220704 180038+00:00 $IIMDA,29.9,I,1.013,B,10.6,C,,C,96.3,,,C,,T,,M,,N,,M*20
20220704 180038+00:00 $HCHDT,112,T*35
20220704 180038+00:00 $GPRMC,180034,A,4832.1498,N,12444.1996,W,8.11,115,040722,12,E,A,V*79
20220704 180038+00:00 $WIMWV,352.59,R,8.88,N,A*23
20220704 180040+00:00 $IIMDA,29.9,I,1.013,B,10.6,C,,C,96.3,,,C,,T,,M,,N,,M*20
20220704 180040+00:00 $HCHDT,112,T*35
20220704 180040+00:00 $GPRMC,180036,A,4832.1498,N,12444.1900,W,8.11,115,040722,12,E,A,V*74
20220704 180040+00:00 $WIMWV,352.19,R,6.08,N,A*21
20220704 180042+00:00 $IIMDA,29.9,I,1.013,B,10.6,C,,C,96.3,,,C,,T,,M,,N,,M*20
20220704 180042+00:00 $HCHDT,111.8,T*20
20220704 180042+00:00 $GPRMC,180038,A,4832.1498,N,12444.1900,W,8.11,115,040722,12,E,A,V*7A
20220704 180042+00:00 $WIMWV,356.29,R,5.79,N,A*23
20220704 180044+00:00 $IIMDA,29.9,I,1.013,B,10.6,C,,C,96.3,,,C,,T,,M,,N,,M*20
20220704 180044+00:00 $HCHDT,111.7,T*2F
20220704 180044+00:00 $GPRMC,180040,A,4832.1396,N,12444.1798,W,8.11,115,040722,12,E,A,V*73
20220704 180044+00:00 $WIMWV,342.39,R,6.08,N,A*22
20220704 180046+00:00 $IIMDA,29.9,I,1.013,B,10.6,C,,C,96.3,,,C,,T,,M,,N,,M*20
20220704 180046+00:00 $HCHDT,111.6,T*2E
20220704 180046+00:00 $GPRMC,180042,A,4832.1396,N,12444.1696,W,8.11,115,040722,12,E,A,V*7E
20220704 180046+00:00 $WIMWV,338.39,R,6.08,N,A*2F
20220704 180048+00:00 $IIMDA,29.9,I,1.013,B,10.6,C,,C,96.3,,,C,,T,,M,,N,,M*20
20220704 180048+00:00 $HCHDT,111.5,T*2D
20220704 180048+00:00 $GPRMC,180044,A,4832.1396,N,12444.1696,W,8.11,115,040722,12,E,A,V*78
20220704 180048+00:00 $WIMWV,340.79,R,6.08,N,A*24
20220704 180050+00:00 $IIMDA,29.9,I,1.013,B,10.6,C,,C,96.3,,,C,,T,,M,,N,,M*20
20220704 180050+00:00 $HCHDT,111.7,T*2F
20220704 180050+00:00 $GPRMC,180046,A,4832.1396,N,12444.1600,W,8.11,114,040722,12,E,A,V*74
20220704 180050+00:00 $WIMWV,333.79,R,5.89,N,A*2A
20220704 180052+00:00 $IIMDA,29.9,I,1.013,B,10.6,C,,C,96.3,,,C,,T,,M,,N,,M*20
20220704 180052+00:00 $HCHDT,111.5,T*2D
20220704 180052+00:00 $GPRMC,180048,A,4832.1396,N,12444.1498,W,8.11,114,040722,12,E,A,V*79
20220704 180052+00:00 $WIMWV,345.69,R,7.79,N,A*27
20220704 180054+00:00 $IIMDA,29.9,I,1.013,B,10.6,C,,C,96.3,,,C,,T,,M,,N,,M*20
20220704 180054+00:00 $HCHDT,111.3,T*2B
20220704 180054+00:00 $GPRMC,180050,A,4832.1396,N,12444.1498,W,8.11,114,040722,12,E,A,V*70
20220704 180054+00:00 $WIMWV,342.09,R,3.19,N,A*24
20220704 180056+00:00 $IIMDA,29.9,I,1.013,B,10.6,C,,C,96.3,,,C,,T,,M,,N,,M*20
20220704 180056+00:00 $HCHDT,111.6,T*2E
20220704 180056+00:00 $GPRMC,180052,A,4832.1300,N,12444.1396,W,8.11,114,040722,12,E,A,V*74
20220704 180056+00:00 $WIMWV,352.59,R,7.99,N,A*2C
20220704 180058+00:00 $IIMDA,29.9,I,1.013,B,10.6,C,,C,96.2,,,C,,T,,M,,N,,M*21
20220704 180058+00:00 $HCHDT,112,T*35
20220704 180058+00:00 $GPRMC,180054,A,4832.1300,N,12444.1396,W,8.11,114,040722,12,E,A,V*72
20220704 180058+00:00 $WIMWV,334.99,R,4.59,N,A*2F
20220704 180100+00:00 $IIMDA,29.9,I,1.013,B,10.6,C,,C,96.3,,,C,,T,,M,,N,,M*20
20220704 180100+00:00 $HCHDT,111.7,T*2F
20220704 180100+00:00 $GPRMC,180056,A,4832.1300,N,12444.1300,W,8.11,114,040722,12,E,A,V*7F
20220704 180100+00:00 $WIMWV,335.69,R,8.09,N,A*28
20220704 180102+00:00 $IIMDA,29.9,I,1.013,B,10.6,C,,C,96.3,,,C,,T,,M,,N,,M*20
20220704 180102+00:00 $HCHDT,111.8,T*20
20220704 180102+00:00 $GPRMC,180058,A,4832.1300,N,12444.1198,W,8.11,115,040722,12,E,A,V*73
20220704 180102+00:00 $WIMWV,351.49,R,6.08,N,A*27
20220704 180104+00:00 $IIMDA,29.9,I,1.013,B,10.6,C,,C,96.3,,,C,,T,,M,,N,,M*20
20220704 180104+00:00 $HCHDT,112,T*35
20220704 180104+00:00 $GPRMC,180100,A,4832.1300,N,12444.1198,W,8.11,115,040722,12,E,A,V*7F
20220704 180104+00:00 $WIMWV,348.09,R,4.2,N,A*13
20220704 180106+00:00 $IIMDA,29.9,I,1.013,B,10.6,C,,C,96.3,,,C,,T,,M,,N,,M*20
20220704 180106+00:00 $HCHDT,111.7,T*2F
20220704 180106+00:00 $GPRMC,180102,A,4832.1198,N,12444.1096,W,8.01,114,040722,12,E,A,V*71
20220704 180106+00:00 $WIMWV,345.29,R,7.48,N,A*21
20220704 180108+00:00 $IIMDA,29.9,I,1.013,B,10.6,C,,C,96.3,,,C,,T,,M,,N,,M*20
20220704 180108+00:00 $HCHDT,111.3,T*2B
20220704 180108+00:00 $GPRMC,180104,A,4832.1198,N,12444.1096,W,8.01,114,040722,12,E,A,V*77
20220704 180108+00:00 $WIMWV,351.39,R,8.28,N,A*2C
20220704 180110+00:00 $IIMDA,29.9,I,1.013,B,10.6,C,,C,96.3,,,C,,T,,M,,N,,M*20
20220704 180110+00:00 $HCHDT,111.7,T*2F
20220704 180110+00:00 $GPRMC,180106,A,4832.1198,N,12444.1000,W,8.01,114,040722,12,E,A,V*7A
20220704 180110+00:00 $WIMWV,351.89,R,7.79,N,A*2C
20220704 180112+00:00 $IIMDA,29.9,I,1.013,B,10.6,C,,C,96.3,,,C,,T,,M,,N,,M*20
20220704 180112+00:00 $HCHDT,112,T*35
20220704 180112+00:00 $GPRMC,180108,A,4832.1198,N,12444.0898,W,8.11,114,040722,12,E,A,V*7D
20220704 180112+00:00 $WIMWV,357.19,R,7.48,N,A*21
20220704 180114+00:00 $IIMDA,29.9,I,1.013,B,10.6,C,,C,96.3,,,C,,T,,M,,N,,M*20
20220704 180114+00:00 $HCHDT,112.2,T*29
20220704 180114+00:00 $GPRMC,180110,A,4832.1198,N,12444.0898,W,8.11,114,040722,12,E,A,V*74
20220704 180114+00:00 $WIMWV,342.49,R,5.38,N,A*25
20220704 180116+00:00 $IIMDA,29.9,I,1.013,B,10.6,C,,C,96.3,,,C,,T,,M,,N,,M*20
20220704 180116+00:00 $HCHDT,111.7,T*2F
20220704 180116+00:00 $GPRMC,180112,A,4832.1198,N,12444.0796,W,8.11,114,040722,12,E,A,V*77
20220704 180116+00:00 $WIMWV,331.79,R,4.39,N,A*22
20220704 180118+00:00 $IIMDA,29.9,I,1.013,B,10.6,C,,C,96.3,,,C,,T,,M,,N,,M*20
20220704 180118+00:00 $HCHDT,111.2,T*2A
20220704 180118+00:00 $GPRMC,180114,A,4832.1096,N,12444.0700,W,8.01,115,040722,12,E,A,V*71
20220704 180118+00:00 $WIMWV,335.89,R,8.4,N,A*1B
20220704 180120+00:00 $IIMDA,29.9,I,1.013,B,10.6,C,,C,96.3,,,C,,T,,M,,N,,M*20
20220704 180120+00:00 $HCHDT,111.1,T*29
20220704 180120+00:00 $GPRMC,180116,A,4832.1096,N,12444.0700,W,8.01,115,040722,12,E,A,V*73
20220704 180120+00:00 $WIMWV,344.89,R,6.49,N,A*2A
20220704 180122+00:00 $IIMDA,29.9,I,1.013,B,10.6,C,,C,96.3,,,C,,T,,M,,N,,M*20
20220704 180122+00:00 $HCHDT,111.4,T*2C
20220704 180122+00:00 $GPRMC,180118,A,4832.1096,N,12444.0598,W,8.01,114,040722,12,E,A,V*7F
20220704 180122+00:00 $WIMWV,342.79,R,4.9,N,A*15
20220704 180124+00:00 $IIMDA,29.9,I,1.013,B,10.6,C,,C,96.2,,,C,,T,,M,,N,,M*21
20220704 180124+00:00 $HCHDT,111.6,T*2E
20220704 180124+00:00 $GPRMC,180120,A,4832.1096,N,12444.0598,W,8.01,114,040722,12,E,A,V*74
20220704 180124+00:00 $WIMWV,342.49,R,7.58,N,A*21
20220704 180126+00:00 $IIMDA,29.9,I,1.013,B,10.6,C,,C,96.3,,,C,,T,,M,,N,,M*20
20220704 180126+00:00 $HCHDT,111.4,T*2C
20220704 180126+00:00 $GPRMC,180122,A,4832.1096,N,12444.0496,W,8.11,114,040722,12,E,A,V*78
20220704 180126+00:00 $WIMWV,349.29,R,4.49,N,A*2F
20220704 180128+00:00 $IIMDA,29.9,I,1.013,B,10.6,C,,C,96.2,,,C,,T,,M,,N,,M*21
20220704 180128+00:00 $HCHDT,111,T*36
20220704 180128+00:00 $GPRMC,180122,A,4832.1000,N,12444.0400,W,8.11,114,040722,12,E,A,V*78
20220704 180128+00:00 $WIMWV,311.89,R,2.9,N,A*1A
20220704 180130+00:00 $IIMDA,29.9,I,1.013,B,10.6,C,,C,96.3,,,C,,T,,M,,N,,M*20
20220704 180130+00:00 $HCHDT,110.7,T*2E
20220704 180130+00:00 $GPRMC,180124,A,4832.1000,N,12444.0400,W,8.01,114,040722,12,E,A,V*7F
20220704 180130+00:00 $WIMWV,352.19,R,8.59,N,A*2B
20220704 180132+00:00 $IIMDA,29.9,I,1.013,B,10.6,C,,C,96.2,,,C,,T,,M,,N,,M*21
20220704 180132+00:00 $HCHDT,111,T*36
20220704 180132+00:00 $GPRMC,180126,A,4832.1000,N,12444.0298,W,8.01,114,040722,12,E,A,V*7A
20220704 180132+00:00 $WIMWV,346.29,R,9.19,N,A*28
20220704 180134+00:00 $IIMDA,29.9,I,1.013,B,10.6,C,,C,96.2,,,C,,T,,M,,N,,M*21
20220704 180134+00:00 $HCHDT,111.5,T*2D
20220704 180134+00:00 $GPRMC,180128,A,4832.1000,N,12444.0298,W,8.01,114,040722,12,E,A,V*74
20220704 180134+00:00 $WIMWV,347.29,R,9.1,N,A*10
20220704 180136+00:00 $IIMDA,29.9,I,1.013,B,10.6,C,,C,96.3,,,C,,T,,M,,N,,M*20
20220704 180136+00:00 $HCHDT,111.5,T*2D
20220704 180136+00:00 $GPRMC,180130,A,4832.1000,N,12444.0196,W,8.01,114,040722,12,E,A,V*70
20220704 180136+00:00 $WIMWV,336.09,R,8.28,N,A*2E
20220704 180138+00:00 $IIMDA,29.9,I,1.013,B,10.6,C,,C,96.2,,,C,,T,,M,,N,,M*21
20220704 180138+00:00 $HCHDT,111.4,T*2C
20220704 180138+00:00 $GPRMC,180132,A,4832.1000,N,12444.0100,W,8.01,114,040722,12,E,A,V*7D
20220704 180138+00:00 $WIMWV,328.59,R,4.2,N,A*10
20220704 180140+00:00 $IIMDA,29.9,I,1.013,B,10.6,C,,C,96.3,,,C,,T,,M,,N,,M*20
20220704 180140+00:00 $HCHDT,111.2,T*2A
20220704 180140+00:00 $GPRMC,180134,A,4832.0898,N,12444.0100,W,8.11,114,040722,12,E,A,V*72
20220704 180140+00:00 $WIMWV,345.39,R,5.6,N,A*18
20220704 180142+00:00 $IIMDA,29.9,I,1.013,B,10.6,C,,C,96.2,,,C,,T,,M,,N,,M*21
20220704 180142+00:00 $HCHDT,111.2,T*2A
20220704 180142+00:00 $GPRMC,180136,A,4832.0898,N,12443.9998,W,8.11,114,040722,12,E,A,V*77
20220704 180142+00:00 $WIMWV,349.59,R,8.09,N,A*20
20220704 180144+00:00 $IIMDA,29.9,I,1.013,B,10.6,C,,C,96.3,,,C,,T,,M,,N,,M*20
20220704 180144+00:00 $HCHDT,110.9,T*20
20220704 180144+00:00 $GPRMC,180138,A,4832.0898,N,12443.9896,W,8.01,114,040722,12,E,A,V*77
20220704 180144+00:00 $WIMWV,334.79,R,5.79,N,A*22
20220704 180146+00:00 $IIMDA,29.9,I,1.013,B,10.6,C,,C,96.2,,,C,,T,,M,,N,,M*21
20220704 180146+00:00 $HCHDT,111.3,T*2B
20220704 180146+00:00 $GPRMC,180140,A,4832.0898,N,12443.9896,W,8.01,114,040722,12,E,A,V*78
20220704 180146+00:00 $WIMWV,341.19,R,5.7,N,A*1F
20220704 180148+00:00 $IIMDA,29.9,I,1.013,B,10.6,C,,C,96.3,,,C,,T,,M,,N,,M*20
20220704 180148+00:00 $HCHDT,111.6,T*2E
20220704 180148+00:00 $GPRMC,180142,A,4832.0898,N,12443.9800,W,8.01,114,040722,12,E,A,V*75
20220704 180148+00:00 $WIMWV,337.59,R,4.49,N,A*21
20220704 180150+00:00 $IIMDA,29.9,I,1.013,B,10.6,C,,C,96.3,,,C,,T,,M,,N,,M*20
20220704 180150+00:00 $HCHDT,111.2,T*2A
20220704 180150+00:00 $GPRMC,180144,A,4832.0796,N,12443.9800,W,8.01,114,040722,12,E,A,V*72
20220704 180150+00:00 $WIMWV,357.79,R,5.6,N,A*1F
20220704 180152+00:00 $IIMDA,29.9,I,1.013,B,10.6,C,,C,96.2,,,C,,T,,M,,N,,M*21
20220704 180152+00:00 $HCHDT,111,T*36
20220704 180152+00:00 $GPRMC,180146,A,4832.0796,N,12443.9698,W,8.01,114,040722,12,E,A,V*7F
20220704 180152+00:00 $WIMWV,348.59,R,7.58,N,A*2A
20220704 180154+00:00 $IIMDA,29.9,I,1.013,B,10.6,C,,C,96.2,,,C,,T,,M,,N,,M*21
20220704 180154+00:00 $HCHDT,111.2,T*2A
20220704 180154+00:00 $GPRMC,180148,A,4832.0796,N,12443.9596,W,8.11,114,040722,12,E,A,V*7D
20220704 180154+00:00 $WIMWV,339.29,R,9.49,N,A*25
20220704 180156+00:00 $IIMDA,29.9,I,1.013,B,10.6,C,,C,96.2,,,C,,T,,M,,N,,M*21
20220704 180156+00:00 $HCHDT,111.3,T*2B
20220704 180156+00:00 $GPRMC,180150,A,4832.0796,N,12443.9596,W,8.11,114,040722,12,E,A,V*74
20220704 180156+00:00 $WIMWV,354.89,R,7.39,N,A*2D
20220704 180158+00:00 $IIMDA,29.9,I,1.013,B,10.6,C,,C,96.2,,,C,,T,,M,,N,,M*21
20220704 180158+00:00 $HCHDT,110.8,T*21
20220704 180158+00:00 $GPRMC,180152,A,4832.0796,N,12443.9500,W,8.11,114,040722,12,E,A,V*79
20220704 180158+00:00 $WIMWV,327.29,R,5.79,N,A*25
20220704 180200+00:00 $IIMDA,29.9,I,1.013,B,10.6,C,,C,96.2,,,C,,T,,M,,N,,M*21
20220704 180200+00:00 $HCHDT,110.6,T*2F
20220704 180200+00:00 $GPRMC,180154,A,4832.0796,N,12443.9500,W,8.01,114,040722,12,E,A,V*7E
20220704 180200+00:00 $WIMWV,344.09,R,7.48,N,A*22
20220704 180202+00:00 $IIMDA,29.9,I,1.013,B,10.6,C,,C,96.2,,,C,,T,,M,,N,,M*21
20220704 180202+00:00 $HCHDT,111,T*36
20220704 180202+00:00 $GPRMC,180156,A,4832.0700,N,12443.9398,W,8.01,114,040722,12,E,A,V*74
20220704 180202+00:00 $WIMWV,332.29,R,5.48,N,A*23
20220704 180204+00:00 $IIMDA,29.9,I,1.013,B,10.6,C,,C,96.3,,,C,,T,,M,,N,,M*20
20220704 180204+00:00 $HCHDT,111.3,T*2B
20220704 180204+00:00 $GPRMC,180158,A,4832.0700,N,12443.9296,W,8.01,114,040722,12,E,A,V*75
20220704 180204+00:00 $WIMWV,349.59,R,8.18,N,A*20
20220704 180206+00:00 $IIMDA,29.9,I,1.013,B,10.6,C,,C,96.2,,,C,,T,,M,,N,,M*21
20220704 180206+00:00 $HCHDT,110.7,T*2E
20220704 180206+00:00 $GPRMC,180200,A,4832.0700,N,12443.9296,W,8.01,113,040722,12,E,A,V*7C
20220704 180206+00:00 $WIMWV,327.49,R,3.69,N,A*24
20220704 180208+00:00 $IIMDA,29.9,I,1.013,B,10.6,C,,C,96.2,,,C,,T,,M,,N,,M*21
20220704 180208+00:00 $HCHDT,110.5,T*2C
20220704 180208+00:00 $GPRMC,180202,A,4832.0700,N,12443.9200,W,8.11,113,040722,12,E,A,V*70
20220704 180208+00:00 $WIMWV,317.49,R,5.38,N,A*25
20220704 180210+00:00 $IIMDA,29.9,I,1.013,B,10.6,C,,C,96.2,,,C,,T,,M,,N,,M*21
20220704 180210+00:00 $HCHDT,110.4,T*2D
20220704 180210+00:00 $GPRMC,180204,A,4832.0700,N,12443.9098,W,8.11,113,040722,12,E,A,V*75
20220704 180210+00:00 $WIMWV,350.79,R,5,N,A*00
20220704 180212+00:00 $IIMDA,29.9,I,1.013,B,10.6,C,,C,96.2,,,C,,T,,M,,N,,M*21
20220704 180212+00:00 $HCHDT,110.5,T*2C
20220704 180212+00:00 $GPRMC,180206,A,4832.0700,N,12443.9098,W,8.01,113,040722,12,E,A,V*76
20220704 180212+00:00 $WIMWV,345.79,R,6.3,N,A*1A
20220704 180214+00:00 $IIMDA,29.9,I,1.013,B,10.6,C,,C,96.2,,,C,,T,,M,,N,,M*21
20220704 180214+00:00 $HCHDT,111.3,T*2B
20220704 180214+00:00 $GPRMC,180208,A,4832.0598,N,12443.8996,W,8.01,113,040722,12,E,A,V*7D
20220704 180214+00:00 $WIMWV,353.59,R,8.4,N,A*16
20220704 180216+00:00 $IIMDA,29.9,I,1.013,B,10.6,C,,C,96.2,,,C,,T,,M,,N,,M*21
20220704 180216+00:00 $HCHDT,111,T*36
20220704 180216+00:00 $GPRMC,180210,A,4832.0598,N,12443.8996,W,8.01,113,040722,12,E,A,V*74
20220704 180216+00:00 $WIMWV,287.79,R,2.59,N,A*2E
20220704 180218+00:00 $IIMDA,29.9,I,1.013,B,10.6,C,,C,96.2,,,C,,T,,M,,N,,M*21
20220704 180218+00:00 $HCHDT,110.6,T*2F
20220704 180218+00:00 $GPRMC,180212,A,4832.0598,N,12443.8900,W,8.01,113,040722,12,E,A,V*79
20220704 180218+00:00 $WIMWV,318.19,R,6.08,N,A*2F
20220704 180220+00:00 $IIMDA,29.9,I,1.013,B,10.6,C,,C,96.2,,,C,,T,,M,,N,,M*21
20220704 180220+00:00 $HCHDT,110.9,T*20
20220704 180220+00:00 $GPRMC,180214,A,4832.0598,N,12443.8798,W,8.11,112,040722,12,E,A,V*70
20220704 180220+00:00 $WIMWV,337.39,R,4.49,N,A*27
20220704 180222+00:00 $IIMDA,29.9,I,1.013,B,10.6,C,,C,96.2,,,C,,T,,M,,N,,M*21
20220704 180222+00:00 $HCHDT,111.6,T*2E
20220704 180222+00:00 $GPRMC,180216,A,4832.0598,N,12443.8798,W,8.11,112,040722,12,E,A,V*72
20220704 180222+00:00 $WIMWV,357.69,R,7.99,N,A*2A
20220704 180224+00:00 $IIMDA,29.9,I,1.013,B,10.6,C,,C,96.2,,,C,,T,,M,,N,,M*21
20220704 180224+00:00 $HCHDT,112,T*35
20220704 180224+00:00 $GPRMC,180218,A,4832.0598,N,12443.8696,W,8.01,112,040722,12,E,A,V*72
20220704 180224+00:00 $WIMWV,350.49,R,7.19,N,A*27
20220704 180226+00:00 $IIMDA,29.9,I,1.013,B,10.6,C,,C,96.2,,,C,,T,,M,,N,,M*21
20220704 180226+00:00 $HCHDT,111.8,T*20
20220704 180226+00:00 $GPRMC,180220,A,4832.0496,N,12443.8696,W,8.01,113,040722,12,E,A,V*77
20220704 180226+00:00 $WIMWV,342.49,R,8.69,N,A*2C
20220704 180228+00:00 $IIMDA,29.9,I,1.013,B,10.6,C,,C,96.3,,,C,,T,,M,,N,,M*20
20220704 180228+00:00 $HCHDT,111.2,T*2A
20220704 180228+00:00 $GPRMC,180222,A,4832.0496,N,12443.8600,W,8.01,113,040722,12,E,A,V*7A
20220704 180228+00:00 $WIMWV,343.99,R,7.89,N,A*21
20220704 180230+00:00 $IIMDA,29.9,I,1.013,B,10.6,C,,C,96.2,,,C,,T,,M,,N,,M*21
20220704 180230+00:00 $HCHDT,111.3,T*2B
20220704 180230+00:00 $GPRMC,180224,A,4832.0496,N,12443.8498,W,8.01,113,040722,12,E,A,V*7F
20220704 180230+00:00 $WIMWV,349.39,R,5.99,N,A*22
20220704 180232+00:00 $IIMDA,29.9,I,1.013,B,10.6,C,,C,96.2,,,C,,T,,M,,N,,M*21
20220704 180232+00:00 $HCHDT,111.9,T*21
20220704 180232+00:00 $GPRMC,180226,A,4832.0496,N,12443.8498,W,8.11,113,040722,12,E,A,V*7C
20220704 180232+00:00 $WIMWV,340.09,R,6.4,N,A*1F
20220704 180234+00:00 $IIMDA,29.9,I,1.013,B,10.6,C,,C,96.2,,,C,,T,,M,,N,,M*21
20220704 180234+00:00 $HCHDT,111.9,T*21
20220704 180234+00:00 $GPRMC,180228,A,4832.0496,N,12443.8396,W,8.11,113,040722,12,E,A,V*7B
20220704 180234+00:00 $WIMWV,297.79,R,3.89,N,A*23
20220704 180236+00:00 $IIMDA,29.9,I,1.013,B,10.6,C,,C,96.3,,,C,,T,,M,,N,,M*20
20220704 180236+00:00 $HCHDT,111.3,T*2B
20220704 180236+00:00 $GPRMC,180230,A,4832.0400,N,12443.8300,W,8.11,113,040722,12,E,A,V*72
20220704 180236+00:00 $WIMWV,313.59,R,3.09,N,A*24
20220704 180238+00:00 $IIMDA,29.9,I,1.013,B,10.6,C,,C,96.2,,,C,,T,,M,,N,,M*21
20220704 180238+00:00 $HCHDT,111,T*36
20220704 180238+00:00 $GPRMC,180232,A,4832.0400,N,12443.8300,W,8.11,113,040722,12,E,A,V*70
20220704 180238+00:00 $WIMWV,337.79,R,6.4,N,A*18
20220704 180240+00:00 $IIMDA,29.9,I,1.013,B,10.6,C,,C,96.2,,,C,,T,,M,,N,,M*21
20220704 180240+00:00 $HCHDT,110.9,T*20
20220704 180240+00:00 $GPRMC,180234,A,4832.0400,N,12443.8198,W,8.11,112,040722,12,E,A,V*74
20220704 180240+00:00 $WIMWV,344.49,R,6.4,N,A*1F
20220704 180242+00:00 $IIMDA,29.9,I,1.013,B,10.6,C,,C,96.2,,,C,,T,,M,,N,,M*21
20220704 180242+00:00 $HCHDT,111,T*36
20220704 180242+00:00 $GPRMC,180236,A,4832.0400,N,12443.8198,W,8.01,112,040722,12,E,A,V*77
20220704 180242+00:00 $WIMWV,337.19,R,8.28,N,A*2E
20220704 180244+00:00 $IIMDA,29.9,I,1.013,B,10.6,C,,C,96.2,,,C,,T,,M,,N,,M*21
20220704 180244+00:00 $HCHDT,111.1,T*29
20220704 180244+00:00 $GPRMC,180238,A,4832.0400,N,12443.8096,W,8.01,112,040722,12,E,A,V*76
20220704 180244+00:00 $WIMWV,346.69,R,4.9,N,A*10
20220704 180246+00:00 $IIMDA,29.9,I,1.013,B,10.6,C,,C,96.3,,,C,,T,,M,,N,,M*20
20220704 180246+00:00 $HCHDT,111.1,T*29
20220704 180246+00:00 $GPRMC,180240,A,4832.0400,N,12443.8000,W,8.01,113,040722,12,E,A,V*77
20220704 180246+00:00 $WIMWV,357.69,R,8.69,N,A*2A
20220704 180248+00:00 $IIMDA,29.9,I,1.013,B,10.6,C,,C,96.2,,,C,,T,,M,,N,,M*21
20220704 180248+00:00 $HCHDT,110.6,T*2F
20220704 180248+00:00 $GPRMC,180242,A,4832.0298,N,12443.8000,W,8.01,112,040722,12,E,A,V*73
20220704 180248+00:00 $WIMWV,340.19,R,5.89,N,A*28
20220704 180250+00:00 $IIMDA,29.9,I,1.013,B,10.6,C,,C,96.2,,,C,,T,,M,,N,,M*21
20220704 180250+00:00 $HCHDT,110.4,T*2D
20220704 180250+00:00 $GPRMC,180244,A,4832.0298,N,12443.7898,W,8.11,112,040722,12,E,A,V*72
20220704 180250+00:00 $WIMWV,347.09,R,8.49,N,A*2F
20220704 180252+00:00 $IIMDA,29.9,I,1.013,B,10.6,C,,C,96.2,,,C,,T,,M,,N,,M*21
20220704 180252+00:00 $HCHDT,110.7,T*2E
20220704 180252+00:00 $GPRMC,180246,A,4832.0298,N,12443.7796,W,8.11,112,040722,12,E,A,V*71
20220704 180252+00:00 $WIMWV,346.19,R,4.68,N,A*20
20220704 180254+00:00 $IIMDA,29.9,I,1.013,B,10.6,C,,C,96.2,,,C,,T,,M,,N,,M*21
20220704 180254+00:00 $HCHDT,111.5,T*2D
20220704 180254+00:00 $GPRMC,180248,A,4832.0298,N,12443.7796,W,8.11,112,040722,12,E,A,V*7F
20220704 180254+00:00 $WIMWV,330.09,R,6.69,N,A*23
20220704 180256+00:00 $IIMDA,29.9,I,1.013,B,10.6,C,,C,96.3,,,C,,T,,M,,N,,M*20
20220704 180256+00:00 $HCHDT,111.9,T*21
20220704 180256+00:00 $GPRMC,180250,A,4832.0298,N,12443.7700,W,8.11,112,040722,12,E,A,V*79
20220704 180256+00:00 $WIMWV,337.39,R,7.7,N,A*1E
20220704 180258+00:00 $IIMDA,29.9,I,1.013,B,10.6,C,,C,96.2,,,C,,T,,M,,N,,M*21
20220704 180258+00:00 $HCHDT,111.8,T*20
20220704 180258+00:00 $GPRMC,180252,A,4832.0298,N,12443.7700,W,8.01,112,040722,12,E,A,V*7A
20220704 180258+00:00 $WIMWV,346.69,R,7.39,N,A*20
20220704 180300+00:00 $IIMDA,29.9,I,1.013,B,10.6,C,,C,96.2,,,C,,T,,M,,N,,M*21
20220704 180300+00:00 $HCHDT,111.9,T*21
20220704 180300+00:00 $GPRMC,180254,A,4832.0196,N,12443.7598,W,8.01,112,040722,12,E,A,V*72
20220704 180300+00:00 $WIMWV,351.49,R,4.68,N,A*23
20220704 180302+00:00 $IIMDA,29.9,I,1.013,B,10.6,C,,C,96.2,,,C,,T,,M,,N,,M*21
20220704 180302+00:00 $HCHDT,112.2,T*29
20220704 180302+00:00 $GPRMC,180256,A,4832.0196,N,12443.7496,W,8.01,113,040722,12,E,A,V*7E
20220704 180302+00:00 $WIMWV,309.09,R,3.09,N,A*2A
20220704 180304+00:00 $IIMDA,29.9,I,1.013,B,10.6,C,,C,96.2,,,C,,T,,M,,N,,M*21
20220704 180304+00:00 $HCHDT,112.1,T*2A
20220704 180304+00:00 $GPRMC,180258,A,4832.0196,N,12443.7496,W,8.11,113,040722,12,E,A,V*71
20220704 180304+00:00 $WIMWV,349.49,R,7.39,N,A*2D
20220704 180306+00:00 $IIMDA,29.9,I,1.013,B,10.6,C,,C,96.2,,,C,,T,,M,,N,,M*21
20220704 180306+00:00 $HCHDT,112.1,T*2A
20220704 180306+00:00 $GPRMC,180300,A,4832.0196,N,12443.7400,W,8.11,113,040722,12,E,A,V*72
20220704 180306+00:00 $WIMWV,337.19,R,6.49,N,A*27
20220704 180308+00:00 $IIMDA,29.9,I,1.013,B,10.6,C,,C,96.3,,,C,,T,,M,,N,,M*20
20220704 180308+00:00 $HCHDT,112,T*35
20220704 180308+00:00 $GPRMC,180302,A,4832.0196,N,12443.7298,W,8.11,113,040722,12,E,A,V*77
20220704 180308+00:00 $WIMWV,349.49,R,5.6,N,A*13
20220704 180310+00:00 $IIMDA,29.9,I,1.013,B,10.6,C,,C,96.3,,,C,,T,,M,,N,,M*20
20220704 180310+00:00 $HCHDT,111.4,T*2C
20220704 180310+00:00 $GPRMC,180304,A,4832.0196,N,12443.7298,W,8.11,113,040722,12,E,A,V*71
20220704 180310+00:00 $WIMWV,353.29,R,6.78,N,A*24
20220704 180312+00:00 $IIMDA,29.9,I,1.013,B,10.6,C,,C,96.2,,,C,,T,,M,,N,,M*21
20220704 180312+00:00 $HCHDT,110.9,T*20
20220704 180312+00:00 $GPRMC,180306,A,4832.0100,N,12443.7196,W,8.11,113,040722,12,E,A,V*71
20220704 180312+00:00 $WIMWV,337.79,R,5.89,N,A*2E
20220704 180314+00:00 $IIMDA,29.9,I,1.013,B,10.6,C,,C,96.2,,,C,,T,,M,,N,,M*21
20220704 180314+00:00 $HCHDT,110.7,T*2E
20220704 180314+00:00 $GPRMC,180308,A,4832.0100,N,12443.7196,W,8.11,112,040722,12,E,A,V*7E
20220704 180314+00:00 $WIMWV,341.59,R,7.89,N,A*2F
20220704 180316+00:00 $IIMDA,29.9,I,1.013,B,10.6,C,,C,96.2,,,C,,T,,M,,N,,M*21
20220704 180316+00:00 $HCHDT,110.5,T*2C
20220704 180316+00:00 $GPRMC,180310,A,4832.0100,N,12443.7100,W,8.11,112,040722,12,E,A,V*78
20220704 180316+00:00 $WIMWV,342.49,R,8.4,N,A*17
20220704 180318+00:00 $IIMDA,29.9,I,1.013,B,10.6,C,,C,96.3,,,C,,T,,M,,N,,M*20
20220704 180318+00:00 $HCHDT,110.6,T*2F
20220704 180318+00:00 $GPRMC,180312,A,4832.0100,N,12443.6998,W,8.11,112,040722,12,E,A,V*72
20220704 180318+00:00 $WIMWV,347.19,R,3.69,N,A*27
20220704 180320+00:00 $IIMDA,29.9,I,1.013,B,10.6,C,,C,96.2,,,C,,T,,M,,N,,M*21
20220704 180320+00:00 $HCHDT,110.5,T*2C
20220704 180320+00:00 $GPRMC,180314,A,4832.0100,N,12443.6998,W,8.11,112,040722,12,E,A,V*74
20220704 180320+00:00 $WIMWV,337.59,R,7,N,A*01
20220704 180322+00:00 $IIMDA,29.9,I,1.013,B,10.6,C,,C,96.3,,,C,,T,,M,,N,,M*20
20220704 180322+00:00 $HCHDT,110.7,T*2E
20220704 180322+00:00 $GPRMC,180316,A,4832.0100,N,12443.6896,W,8.11,112,040722,12,E,A,V*79
20220704 180322+00:00 $WIMWV,343.29,R,7.1,N,A*1A
20220704 180324+00:00 $IIMDA,29.9,I,1.013,B,10.6,C,,C,96.2,,,C,,T,,M,,N,,M*21
20220704 180324+00:00 $HCHDT,111.1,T*29
20220704 180324+00:00 $GPRMC,180318,A,4831.9998,N,12443.6800,W,8.11,111,040722,12,E,A,V*78
20220704 180324+00:00 $WIMWV,349.29,R,8.4,N,A*1A
20220704 180326+00:00 $IIMDA,29.9,I,1.013,B,10.6,C,,C,96.3,,,C,,T,,M,,N,,M*20
20220704 180326+00:00 $HCHDT,111.3,T*2B
20220704 180326+00:00 $GPRMC,180320,A,4831.9998,N,12443.6800,W,8.11,111,040722,12,E,A,V*73
20220704 180326+00:00 $WIMWV,336.69,R,4.39,N,A*24
20220704 180328+00:00 $IIMDA,29.9,I,1.013,B,10.6,C,,C,96.3,,,C,,T,,M,,N,,M*20
20220704 180328+00:00 $HCHDT,111.2,T*2A
20220704 180328+00:00 $GPRMC,180322,A,4831.9998,N,12443.6698,W,8.11,111,040722,12,E,A,V*7E
20220704 180328+00:00 $WIMWV,345.79,R,6.78,N,A*26
20220704 180330+00:00 $IIMDA,29.9,I,1.013,B,10.6,C,,C,96.2,,,C,,T,,M,,N,,M*21
20220704 180330+00:00 $HCHDT,110.8,T*21
20220704 180330+00:00 $GPRMC,180324,A,4831.9998,N,12443.6596,W,8.11,111,040722,12,E,A,V*75
20220704 180330+00:00 $WIMWV,344.89,R,5.89,N,A*25
20220704 180332+00:00 $IIMDA,29.9,I,1.013,B,10.6,C,,C,96.3,,,C,,T,,M,,N,,M*20
20220704 180332+00:00 $HCHDT,111.1,T*29
20220704 180332+00:00 $GPRMC,180326,A,4831.9998,N,12443.6596,W,8.11,111,040722,12,E,A,V*77
20220704 180332+00:00 $WIMWV,345.89,R,8.69,N,A*27
20220704 180334+00:00 $IIMDA,29.9,I,1.013,B,10.6,C,,C,96.2,,,C,,T,,M,,N,,M*21
20220704 180334+00:00 $HCHDT,111.9,T*21
20220704 180334+00:00 $GPRMC,180328,A,4831.9998,N,12443.6500,W,8.11,111,040722,12,E,A,V*76
20220704 180334+00:00 $WIMWV,348.49,R,5.99,N,A*24
20220704 180336+00:00 $IIMDA,29.9,I,1.013,B,10.6,C,,C,96.3,,,C,,T,,M,,N,,M*20
20220704 180336+00:00 $HCHDT,112.3,T*28
20220704 180336+00:00 $GPRMC,180330,A,4831.9896,N,12443.6500,W,8.11,112,040722,12,E,A,V*73
20220704 180336+00:00 $WIMWV,338.99,R,7.39,N,A*26
20220704 180338+00:00 $IIMDA,29.9,I,1.013,B,10.6,C,,C,96.3,,,C,,T,,M,,N,,M*20
20220704 180338+00:00 $HCHDT,111.7,T*2F
20220704 180338+00:00 $GPRMC,180332,A,4831.9896,N,12443.6398,W,8.11,112,040722,12,E,A,V*76
20220704 180338+00:00 $WIMWV,345.09,R,5.99,N,A*2D
20220704 180340+00:00 $IIMDA,29.9,I,1.013,B,10.6,C,,C,96.2,,,C,,T,,M,,N,,M*21
20220704 180340+00:00 $HCHDT,111.3,T*2B
20220704 180340+00:00 $GPRMC,180334,A,4831.9896,N,12443.6296,W,8.11,112,040722,12,E,A,V*7F
20220704 180340+00:00 $WIMWV,316.89,R,3.09,N,A*2C
20220704 180342+00:00 $IIMDA,29.9,I,1.013,B,10.6,C,,C,96.3,,,C,,T,,M,,N,,M*20
20220704 180342+00:00 $HCHDT,111.5,T*2D
20220704 180342+00:00 $GPRMC,180336,A,4831.9896,N,12443.6296,W,8.11,112,040722,12,E,A,V*7D
20220704 180342+00:00 $WIMWV,358.39,R,5.7,N,A*15
20220704 180344+00:00 $IIMDA,29.9,I,1.013,B,10.6,C,,C,96.3,,,C,,T,,M,,N,,M*20
20220704 180344+00:00 $HCHDT,111.9,T*21
20220704 180344+00:00 $GPRMC,180338,A,4831.9896,N,12443.6200,W,8.11,112,040722,12,E,A,V*7C
20220704 180344+00:00 $WIMWV,346.69,R,6.69,N,A*24
20220704 180346+00:00 $IIMDA,29.9,I,1.013,B,10.6,C,,C,96.3,,,C,,T,,M,,N,,M*20
20220704 180346+00:00 $HCHDT,112.1,T*2A
20220704 180346+00:00 $GPRMC,180340,A,4831.9896,N,12443.6098,W,8.11,112,040722,12,E,A,V*70
20220704 180346+00:00 $WIMWV,333.79,R,5.19,N,A*23
20220704 180348+00:00 $IIMDA,29.9,I,1.013,B,10.6,C,,C,96.2,,,C,,T,,M,,N,,M*21
20220704 180348+00:00 $HCHDT,111.8,T*20
20220704 180348+00:00 $GPRMC,180342,A,4831.9800,N,12443.6098,W,8.11,112,040722,12,E,A,V*7D
20220704 180348+00:00 $WIMWV,337.39,R,7.39,N,A*23
20220704 180350+00:00 $IIMDA,29.9,I,1.013,B,10.6,C,,C,96.2,,,C,,T,,M,,N,,M*21
20220704 180350+00:00 $HCHDT,111.7,T*2F
20220704 180350+00:00 $GPRMC,180344,A,4831.9800,N,12443.5996,W,8.11,112,040722,12,E,A,V*7F
20220704 180350+00:00 $WIMWV,350.89,R,8.69,N,A*23
20220704 180352+00:00 $IIMDA,29.9,I,1.013,B,10.6,C,,C,96.2,,,C,,T,,M,,N,,M*21
20220704 180352+00:00 $HCHDT,111.6,T*2E
20220704 180352+00:00 $GPRMC,180346,A,4831.9800,N,12443.5996,W,8.11,112,040722,12,E,A,V*7D
20220704 180352+00:00 $WIMWV,353.19,R,7.99,N,A*29
20220704 180354+00:00 $IIMDA,29.9,I,1.013,B,10.6,C,,C,96.2,,,C,,T,,M,,N,,M*21
20220704 180354+00:00 $HCHDT,111.6,T*2E
20220704 180354+00:00 $GPRMC,180348,A,4831.9800,N,12443.5900,W,8.11,112,040722,12,E,A,V*7C
20220704 180354+00:00 $WIMWV,336.99,R,6.88,N,A*23
20220704 180356+00:00 $IIMDA,29.9,I,1.013,B,10.6,C,,C,96.3,,,C,,T,,M,,N,,M*20
20220704 180356+00:00 $HCHDT,111.8,T*20
20220704 180356+00:00 $GPRMC,180350,A,4831.9800,N,12443.5798,W,8.11,112,040722,12,E,A,V*7A
20220704 180356+00:00 $WIMWV,336.69,R,8.4,N,A*16
20220704 180358+00:00 $IIMDA,29.9,I,1.013,B,10.6,C,,C,96.2,,,C,,T,,M,,N,,M*21
20220704 180358+00:00 $HCHDT,111.6,T*2E
20220704 180358+00:00 $GPRMC,180352,A,4831.9800,N,12443.5798,W,8.11,112,040722,12,E,A,V*78
20220704 180358+00:00 $WIMWV,345.09,R,7,N,A*01
20220704 180400+00:00 $IIMDA,29.9,I,1.013,B,10.6,C,,C,96.2,,,C,,T,,M,,N,,M*21
20220704 180400+00:00 $HCHDT,111.2,T*2A
20220704 180400+00:00 $GPRMC,180354,A,4831.9698,N,12443.5696,W,8.11,112,040722,12,E,A,V*7E
20220704 180400+00:00 $WIMWV,352.09,R,8.4,N,A*12
20220704 180402+00:00 $IIMDA,29.9,I,1.013,B,10.6,C,,C,96.2,,,C,,T,,M,,N,,M*21
20220704 180402+00:00 $HCHDT,111.4,T*2C
20220704 180402+00:00 $GPRMC,180356,A,4831.9698,N,12443.5600,W,8.11,112,040722,12,E,A,V*73
20220704 180402+00:00 $WIMWV,337.29,R,7.48,N,A*24
20220704 180404+00:00 $IIMDA,29.9,I,1.013,B,10.6,C,,C,96.2,,,C,,T,,M,,N,,M*21
20220704 180404+00:00 $HCHDT,111.6,T*2E
20220704 180404+00:00 $GPRMC,180358,A,4831.9698,N,12443.5600,W,8.11,112,040722,12,E,A,V*7D
20220704 180404+00:00 $WIMWV,349.19,R,6.88,N,A*23
20220704 180406+00:00 $IIMDA,29.9,I,1.013,B,10.6,C,,C,96.3,,,C,,T,,M,,N,,M*20
20220704 180406+00:00 $HCHDT,111.6,T*2E
20220704 180406+00:00 $GPRMC,180400,A,4831.9698,N,12443.5498,W,8.11,112,040722,12,E,A,V*74
20220704 180406+00:00 $WIMWV,336.99,R,3.19,N,A*2E
20220704 180408+00:00 $IIMDA,29.9,I,1.013,B,10.6,C,,C,96.2,,,C,,T,,M,,N,,M*21
20220704 180408+00:00 $HCHDT,111.6,T*2E
20220704 180408+00:00 $GPRMC,180402,A,4831.9698,N,12443.5498,W,8.11,112,040722,12,E,A,V*76
20220704 180408+00:00 $WIMWV,343.59,R,7.7,N,A*1B
20220704 180410+00:00 $IIMDA,29.9,I,1.013,B,10.6,C,,C,96.2,,,C,,T,,M,,N,,M*21
20220704 180410+00:00 $HCHDT,111.8,T*20
20220704 180410+00:00 $GPRMC,180404,A,4831.9698,N,12443.5396,W,8.11,112,040722,12,E,A,V*79
20220704 180410+00:00 $WIMWV,327.29,R,1.69,N,A*20
20220704 180412+00:00 $IIMDA,29.9,I,1.013,B,10.6,C,,C,96.3,,,C,,T,,M,,N,,M*20
20220704 180412+00:00 $HCHDT,111.7,T*2F
20220704 180412+00:00 $GPRMC,180406,A,4831.9596,N,12443.5300,W,8.11,112,040722,12,E,A,V*79
20220704 180412+00:00 $WIMWV,339.69,R,7.7,N,A*15
20220704 180414+00:00 $IIMDA,29.9,I,1.013,B,10.6,C,,C,96.2,,,C,,T,,M,,N,,M*21
20220704 180414+00:00 $HCHDT,111.8,T*20
20220704 180414+00:00 $GPRMC,180408,A,4831.9596,N,12443.5300,W,8.11,112,040722,12,E,A,V*77
20220704 180414+00:00 $WIMWV,350.79,R,5.99,N,A*2E
20220704 180416+00:00 $IIMDA,29.9,I,1.013,B,10.6,C,,C,96.3,,,C,,T,,M,,N,,M*20
20220704 180416+00:00 $HCHDT,111.8,T*20
20220704 180416+00:00 $GPRMC,180410,A,4831.9596,N,12443.5198,W,8.11,113,040722,12,E,A,V*7C
20220704 180416+00:00 $WIMWV,334.89,R,7.7,N,A*16
20220704 180418+00:00 $IIMDA,29.9,I,1.013,B,10.6,C,,C,96.2,,,C,,T,,M,,N,,M*21
20220704 180418+00:00 $HCHDT,111.4,T*2C
20220704 180418+00:00 $GPRMC,180412,A,4831.9596,N,12443.5096,W,8.11,113,040722,12,E,A,V*71
20220704 180418+00:00 $WIMWV,354.19,R,6.78,N,A*20
20220704 180420+00:00 $IIMDA,29.9,I,1.013,B,10.6,C,,C,96.2,,,C,,T,,M,,N,,M*21
20220704 180420+00:00 $HCHDT,111.5,T*2D
20220704 180420+00:00 $GPRMC,180414,A,4831.9596,N,12443.5096,W,8.11,112,040722,12,E,A,V*76
20220704 180420+00:00 $WIMWV,342.09,R,5.38,N,A*21
20220704 180422+00:00 $IIMDA,29.9,I,1.013,B,10.6,C,,C,96.2,,,C,,T,,M,,N,,M*21
20220704 180422+00:00 $HCHDT,111.5,T*2D
20220704 180422+00:00 $GPRMC,180416,A,4831.9596,N,12443.5000,W,8.11,113,040722,12,E,A,V*7A
20220704 180422+00:00 $WIMWV,334.39,R,8.09,N,A*2C
20220704 180424+00:00 $IIMDA,29.9,I,1.013,B,10.6,C,,C,96.3,,,C,,T,,M,,N,,M*20
20220704 180424+00:00 $HCHDT,111.6,T*2E
20220704 180424+00:00 $GPRMC,180418,A,4831.9500,N,12443.5000,W,8.11,113,040722,12,E,A,V*7B
20220704 180424+00:00 $WIMWV,354.39,R,8.18,N,A*2A
20220704 180426+00:00 $IIMDA,29.9,I,1.013,B,10.6,C,,C,96.2,,,C,,T,,M,,N,,M*21
20220704 180426+00:00 $HCHDT,111.5,T*2D
20220704 180426+00:00 $GPRMC,180420,A,4831.9500,N,12443.4898,W,8.11,113,040722,12,E,A,V*78
20220704 180426+00:00 $WIMWV,336.89,R,3.89,N,A*26
20220704 180428+00:00 $IIMDA,29.9,I,1.013,B,10.6,C,,C,96.2,,,C,,T,,M,,N,,M*21
20220704 180428+00:00 $HCHDT,110.9,T*20
20220704 180428+00:00 $GPRMC,180422,A,4831.9500,N,12443.4796,W,8.11,112,040722,12,E,A,V*7A
20220704 180428+00:00 $WIMWV,350.69,R,6.69,N,A*23
20220704 180430+00:00 $IIMDA,29.9,I,1.013,B,10.6,C,,C,96.2,,,C,,T,,M,,N,,M*21
20220704 180430+00:00 $HCHDT,110.6,T*2F
20220704 180430+00:00 $GPRMC,180424,A,4831.9500,N,12443.4796,W,8.11,112,040722,12,E,A,V*7C
20220704 180430+00:00 $WIMWV,340.99,R,6.49,N,A*2F
20220704 180432+00:00 $IIMDA,29.9,I,1.013,B,10.6,C,,C,96.3,,,C,,T,,M,,N,,M*20
20220704 180432+00:00 $HCHDT,110.7,T*2E
20220704 180432+00:00 $GPRMC,180426,A,4831.9500,N,12443.4700,W,8.11,112,040722,12,E,A,V*71
20220704 180432+00:00 $WIMWV,323.29,R,4.39,N,A*24
20220704 180434+00:00 $IIMDA,29.9,I,1.013,B,10.6,C,,C,96.2,,,C,,T,,M,,N,,M*21
20220704 180434+00:00 $HCHDT,111,T*36
20220704 180434+00:00 $GPRMC,180428,A,4831.9500,N,12443.4598,W,8.11,112,040722,12,E,A,V*7C
20220704 180434+00:00 $WIMWV,342.79,R,7.29,N,A*24
20220704 180436+00:00 $IIMDA,29.9,I,1.013,B,10.6,C,,C,96.2,,,C,,T,,M,,N,,M*21
20220704 180436+00:00 $HCHDT,111.4,T*2C
20220704 180436+00:00 $GPRMC,180430,A,4831.9398,N,12443.4598,W,8.11,112,040722,12,E,A,V*72
20220704 180436+00:00 $WIMWV,346.59,R,8.28,N,A*2C
20220704 180438+00:00 $IIMDA,29.9,I,1.013,B,10.6,C,,C,96.2,,,C,,T,,M,,N,,M*21
20220704 180438+00:00 $HCHDT,111.4,T*2C
20220704 180438+00:00 $GPRMC,180432,A,4831.9398,N,12443.4496,W,8.2,112,040722,12,E,A,V*4D
20220704 180438+00:00 $WIMWV,340.19,R,7,N,A*05
20220704 180440+00:00 $IIMDA,29.9,I,1.013,B,10.6,C,,C,96.2,,,C,,T,,M,,N,,M*21
20220704 180440+00:00 $HCHDT,111.1,T*29
20220704 180440+00:00 $GPRMC,180434,A,4831.9398,N,12443.4496,W,8.11,112,040722,12,E,A,V*79
20220704 180440+00:00 $WIMWV,353.99,R,8.4,N,A*1A
20220704 180442+00:00 $IIMDA,29.9,I,1.013,B,10.6,C,,C,96.2,,,C,,T,,M,,N,,M*21
20220704 180442+00:00 $HCHDT,110.9,T*20
20220704 180442+00:00 $GPRMC,180436,A,4831.9398,N,12443.4400,W,8.11,112,040722,12,E,A,V*74
20220704 180442+00:00 $WIMWV,335.69,R,5,N,A*02
20220704 180444+00:00 $IIMDA,29.9,I,1.013,B,10.6,C,,C,96.2,,,C,,T,,M,,N,,M*21
20220704 180444+00:00 $HCHDT,111.3,T*2B
20220704 180444+00:00 $GPRMC,180438,A,4831.9398,N,12443.4298,W,8.11,112,040722,12,E,A,V*7D
20220704 180444+00:00 $WIMWV,338.09,R,5.19,N,A*2F
20220704 180446+00:00 $IIMDA,29.9,I,1.013,B,10.6,C,,C,96.2,,,C,,T,,M,,N,,M*21
20220704 180446+00:00 $HCHDT,111.4,T*2C
20220704 180446+00:00 $GPRMC,180440,A,4831.9398,N,12443.4298,W,8.11,112,040722,12,E,A,V*72
20220704 180446+00:00 $WIMWV,333.49,R,5.09,N,A*21
20220704 180448+00:00 $IIMDA,29.9,I,1.013,B,10.6,C,,C,96.2,,,C,,T,,M,,N,,M*21
20220704 180448+00:00 $HCHDT,111.4,T*2C
20220704 180448+00:00 $GPRMC,180442,A,4831.9296,N,12443.4196,W,8.11,112,040722,12,E,A,V*72
20220704 180448+00:00 $WIMWV,334.89,R,4.9,N,A*1B
20220704 180450+00:00 $IIMDA,29.9,I,1.013,B,10.6,C,,C,96.3,,,C,,T,,M,,N,,M*20
20220704 180450+00:00 $HCHDT,111.2,T*2A
20220704 180450+00:00 $GPRMC,180444,A,4831.9296,N,12443.4100,W,8.11,112,040722,12,E,A,V*7B
20220704 180450+00:00 $WIMWV,347.69,R,5.29,N,A*22
20220704 180452+00:00 $IIMDA,29.9,I,1.013,B,10.6,C,,C,96.2,,,C,,T,,M,,N,,M*21
20220704 180452+00:00 $HCHDT,111,T*36
20220704 180452+00:00 $GPRMC,180446,A,4831.9296,N,12443.4100,W,8.2,112,040722,12,E,A,V*4B
20220704 180452+00:00 $WIMWV,352.69,R,5.09,N,A*24
20220704 180454+00:00 $IIMDA,29.9,I,1.013,B,10.6,C,,C,96.2,,,C,,T,,M,,N,,M*21
20220704 180454+00:00 $HCHDT,111,T*36
20220704 180454+00:00 $GPRMC,180448,A,4831.9296,N,12443.3998,W,8.11,112,040722,12,E,A,V*79
20220704 180454+00:00 $WIMWV,336.29,R,8.09,N,A*2F
20220704 180456+00:00 $IIMDA,29.9,I,1.013,B,10.6,C,,C,96.2,,,C,,T,,M,,N,,M*21
20220704 180456+00:00 $HCHDT,111.3,T*2B
20220704 180456+00:00 $GPRMC,180450,A,4831.9296,N,12443.3896,W,8.11,112,040722,12,E,A,V*7F
20220704 180456+00:00 $WIMWV,356.19,R,8.09,N,A*2A
20220704 180458+00:00 $IIMDA,29.9,I,1.013,B,10.6,C,,C,96.3,,,C,,T,,M,,N,,M*20
20220704 180458+00:00 $HCHDT,111.7,T*2F
20220704 180458+00:00 $GPRMC,180452,A,4831.9296,N,12443.3896,W,8.11,112,040722,12,E,A,V*7D
20220704 180458+00:00 $WIMWV,359.79,R,8.69,N,A*25
20220704 180500+00:00 $IIMDA,29.9,I,1.013,B,10.6,C,,C,96.2,,,C,,T,,M,,N,,M*21
20220704 180500+00:00 $HCHDT,111.3,T*2B
20220704 180500+00:00 $GPRMC,180454,A,4831.9200,N,12443.3800,W,8.11,112,040722,12,E,A,V*7B
20220704 180500+00:00 $WIMWV,337.29,R,6.69,N,A*26
20220704 180502+00:00 $IIMDA,29.9,I,1.013,B,10.6,C,,C,96.3,,,C,,T,,M,,N,,M*20
20220704 180502+00:00 $HCHDT,110.5,T*2C
20220704 180502+00:00 $GPRMC,180456,A,4831.9200,N,12443.3800,W,8.11,112,040722,12,E,A,V*79
20220704 180502+00:00 $WIMWV,333.19,R,4.59,N,A*20
20220704 180504+00:00 $IIMDA,29.9,I,1.013,B,10.6,C,,C,96.2,,,C,,T,,M,,N,,M*21
20220704 180504+00:00 $HCHDT,110.3,T*2A
20220704 180504+00:00 $GPRMC,180458,A,4831.9200,N,12443.3698,W,8.11,112,040722,12,E,A,V*78
20220704 180504+00:00 $WIMWV,337.39,R,6.3,N,A*1B
20220704 180506+00:00 $IIMDA,29.9,I,1.013,B,10.6,C,,C,96.2,,,C,,T,,M,,N,,M*21
20220704 180506+00:00 $HCHDT,110.8,T*21
20220704 180506+00:00 $GPRMC,180500,A,4831.9200,N,12443.3596,W,8.11,111,040722,12,E,A,V*7A
20220704 180506+00:00 $WIMWV,338.19,R,5.29,N,A*2D
20220704 180508+00:00 $IIMDA,29.9,I,1.013,B,10.6,C,,C,96.2,,,C,,T,,M,,N,,M*21
20220704 180508+00:00 $HCHDT,111.3,T*2B
20220704 180508+00:00 $GPRMC,180502,A,4831.9200,N,12443.3596,W,8.11,111,040722,12,E,A,V*78
20220704 180508+00:00 $WIMWV,355.99,R,6.4,N,A*12
20220704 180510+00:00 $IIMDA,29.9,I,1.013,B,10.6,C,,C,96.3,,,C,,T,,M,,N,,M*20
20220704 180510+00:00 $HCHDT,111.6,T*2E
20220704 180510+00:00 $GPRMC,180504,A,4831.9200,N,12443.3500,W,8.11,112,040722,12,E,A,V*72
20220704 180510+00:00 $WIMWV,336.79,R,5.19,N,A*26
20220704 180512+00:00 $IIMDA,29.9,I,1.013,B,10.6,C,,C,96.2,,,C,,T,,M,,N,,M*21
20220704 180512+00:00 $HCHDT,111.9,T*21
20220704 180512+00:00 $GPRMC,180506,A,4831.9098,N,12443.3398,W,8.11,112,040722,12,E,A,V*74
20220704 180512+00:00 $WIMWV,350.99,R,4.9,N,A*18
20220704 180514+00:00 $IIMDA,29.9,I,1.013,B,10.6,C,,C,96.2,,,C,,T,,M,,N,,M*21
20220704 180514+00:00 $HCHDT,111.7,T*2F
20220704 180514+00:00 $GPRMC,180508,A,4831.9098,N,12443.3398,W,8.11,112,040722,12,E,A,V*7A
20220704 180514+00:00 $WIMWV,333.99,R,3.19,N,A*2B
20220704 180516+00:00 $IIMDA,29.9,I,1.013,B,10.6,C,,C,96.3,,,C,,T,,M,,N,,M*20
20220704 180516+00:00 $HCHDT,111.4,T*2C
20220704 180516+00:00 $GPRMC,180510,A,4831.9098,N,12443.3296,W,8.11,112,040722,12,E,A,V*7C
20220704 180516+00:00 $WIMWV,338.79,R,5.29,N,A*2B
20220704 180518+00:00 $IIMDA,29.9,I,1.013,B,10.6,C,,C,96.2,,,C,,T,,M,,N,,M*21
20220704 180518+00:00 $HCHDT,111.8,T*20
20220704 180518+00:00 $GPRMC,180512,A,4831.9098,N,12443.3296,W,8.11,112,040722,12,E,A,V*7E
20220704 180518+00:00 $WIMWV,346.79,R,4.78,N,A*27
20220704 180520+00:00 $IIMDA,29.9,I,1.013,B,10.6,C,,C,96.2,,,C,,T,,M,,N,,M*21
20220704 180520+00:00 $HCHDT,112.2,T*29
20220704 180520+00:00 $GPRMC,180514,A,4831.9098,N,12443.3200,W,8.2,112,040722,12,E,A,V*45
20220704 180520+00:00 $WIMWV,329.29,R,8.98,N,A*29
20220704 180522+00:00 $IIMDA,29.9,I,1.013,B,10.6,C,,C,96.2,,,C,,T,,M,,N,,M*21
20220704 180522+00:00 $HCHDT,112,T*35
20220704 180522+00:00 $GPRMC,180516,A,4831.8996,N,12443.3098,W,8.2,112,040722,12,E,A,V*42
20220704 180522+00:00 $WIMWV,336.29,R,7.29,N,A*22
20220704 180524+00:00 $IIMDA,29.9,I,1.013,B,10.6,C,,C,96.2,,,C,,T,,M,,N,,M*21
20220704 180524+00:00 $HCHDT,111.2,T*2A
20220704 180524+00:00 $GPRMC,180518,A,4831.8996,N,12443.3098,W,8.2,113,040722,12,E,A,V*4D
20220704 180524+00:00 $WIMWV,351.79,R,3.19,N,A*21
20220704 180526+00:00 $IIMDA,29.9,I,1.013,B,10.6,C,,C,96.2,,,C,,T,,M,,N,,M*21
20220704 180526+00:00 $HCHDT,111.3,T*2B
20220704 180526+00:00 $GPRMC,180520,A,4831.8996,N,12443.2996,W,8.11,112,040722,12,E,A,V*73
20220704 180526+00:00 $WIMWV,342.49,R,7.79,N,A*22
20220704 180528+00:00 $IIMDA,29.9,I,1.013,B,10.6,C,,C,96.2,,,C,,T,,M,,N,,M*21
20220704 180528+00:00 $HCHDT,111.6,T*2E
20220704 180528+00:00 $GPRMC,180522,A,4831.8996,N,12443.2900,W,8.11,112,040722,12,E,A,V*7E
20220704 180528+00:00 $WIMWV,357.59,R,7.48,N,A*25
20220704 180530+00:00 $IIMDA,29.9,I,1.013,B,10.6,C,,C,96.2,,,C,,T,,M,,N,,M*21
20220704 180530+00:00 $HCHDT,111.5,T*2D
20220704 180530+00:00 $GPRMC,180524,A,4831.8996,N,12443.2900,W,8.11,112,040722,12,E,A,V*78
20220704 180530+00:00 $WIMWV,354.79,R,6.59,N,A*25
20220704 180532+00:00 $IIMDA,29.9,I,1.013,B,10.6,C,,C,96.2,,,C,,T,,M,,N,,M*21
20220704 180532+00:00 $HCHDT,111.2,T*2A
20220704 180532+00:00 $GPRMC,180526,A,4831.8996,N,12443.2798,W,8.11,112,040722,12,E,A,V*75
20220704 180532+00:00 $WIMWV,350.49,R,6.08,N,A*26
20220704 180534+00:00 $IIMDA,29.9,I,1.013,B,10.6,C,,C,96.2,,,C,,T,,M,,N,,M*21
20220704 180534+00:00 $HCHDT,110.8,T*21
20220704 180534+00:00 $GPRMC,180528,A,4831.8900,N,12443.2696,W,8.2,112,040722,12,E,A,V*49
20220704 180534+00:00 $WIMWV,337.19,R,4.78,N,A*27
20220704 180536+00:00 $IIMDA,29.9,I,1.013,B,10.6,C,,C,96.2,,,C,,T,,M,,N,,M*21
20220704 180536+00:00 $HCHDT,110.4,T*2D
20220704 180536+00:00 $GPRMC,180530,A,4831.8900,N,12443.2696,W,8.11,112,040722,12,E,A,V*72
20220704 180536+00:00 $WIMWV,318.19,R,2.59,N,A*2F
20220704 180538+00:00 $IIMDA,29.9,I,1.013,B,10.6,C,,C,96.2,,,C,,T,,M,,N,,M*21
20220704 180538+00:00 $HCHDT,110.9,T*20
20220704 180538+00:00 $GPRMC,180532,A,4831.8900,N,12443.2600,W,8.11,111,040722,12,E,A,V*7C
20220704 180538+00:00 $WIMWV,352.59,R,5.89,N,A*2F
20220704 180540+00:00 $IIMDA,29.9,I,1.013,B,10.6,C,,C,96.2,,,C,,T,,M,,N,,M*21
20220704 180540+00:00 $HCHDT,111.6,T*2E
20220704 180540+00:00 $GPRMC,180534,A,4831.8900,N,12443.2600,W,8.11,111,040722,12,E,A,V*7A
20220704 180540+00:00 $WIMWV,347.89,R,7.48,N,A*29
20220704 180542+00:00 $IIMDA,29.9,I,1.013,B,10.6,C,,C,96.2,,,C,,T,,M,,N,,M*21
20220704 180542+00:00 $HCHDT,111.5,T*2D
20220704 180542+00:00 $GPRMC,180536,A,4831.8900,N,12443.2498,W,8.11,111,040722,12,E,A,V*7B
20220704 180542+00:00 $WIMWV,300.49,R,1.89,N,A*2D
20220704 180544+00:00 $IIMDA,29.9,I,1.013,B,10.6,C,,C,96.2,,,C,,T,,M,,N,,M*21
20220704 180544+00:00 $HCHDT,111.1,T*29
20220704 180544+00:00 $GPRMC,180538,A,4831.8900,N,12443.2396,W,8.11,111,040722,12,E,A,V*7C
20220704 180544+00:00 $WIMWV,345.69,R,6.88,N,A*28
20220704 180546+00:00 $IIMDA,29.9,I,1.013,B,10.6,C,,C,96.2,,,C,,T,,M,,N,,M*21
20220704 180546+00:00 $HCHDT,111.2,T*2A
20220704 180546+00:00 $GPRMC,180540,A,4831.8798,N,12443.2396,W,8.11,111,040722,12,E,A,V*7C
20220704 180546+00:00 $WIMWV,352.79,R,5,N,A*02
20220704 180548+00:00 $IIMDA,29.9,I,1.013,B,10.6,C,,C,96.2,,,C,,T,,M,,N,,M*21
20220704 180548+00:00 $HCHDT,111.7,T*2F
20220704 180548+00:00 $GPRMC,180542,A,4831.8798,N,12443.2300,W,8.11,111,040722,12,E,A,V*71
20220704 180548+00:00 $WIMWV,358.09,R,6.3,N,A*11
20220704 180550+00:00 $IIMDA,29.9,I,1.013,B,10.6,C,,C,96.2,,,C,,T,,M,,N,,M*21
20220704 180550+00:00 $HCHDT,112.1,T*2A
20220704 180550+00:00 $GPRMC,180544,A,4831.8798,N,12443.2198,W,8.11,111,040722,12,E,A,V*74
20220704 180550+00:00 $WIMWV,335.09,R,1.59,N,A*22
20220704 180552+00:00 $IIMDA,29.9,I,1.013,B,10.6,C,,C,96.2,,,C,,T,,M,,N,,M*21
20220704 180552+00:00 $HCHDT,112.3,T*28
20220704 180552+00:00 $GPRMC,180546,A,4831.8798,N,12443.2198,W,8.2,111,040722,12,E,A,V*44
20220704 180552+00:00 $WIMWV,346.99,R,7.39,N,A*2F
20220704 180554+00:00 $IIMDA,29.9,I,1.013,B,10.6,C,,C,96.2,,,C,,T,,M,,N,,M*21
20220704 180554+00:00 $HCHDT,112,T*35
20220704 180554+00:00 $GPRMC,180548,A,4831.8798,N,12443.2096,W,8.2,112,040722,12,E,A,V*46
20220704 180554+00:00 $WIMWV,350.59,R,7.29,N,A*25
20220704 180556+00:00 $IIMDA,29.9,I,1.013,B,10.6,C,,C,96.2,,,C,,T,,M,,N,,M*21
20220704 180556+00:00 $HCHDT,111.9,T*21
20220704 180556+00:00 $GPRMC,180550,A,4831.8798,N,12443.2000,W,8.2,112,040722,12,E,A,V*40
20220704 180556+00:00 $WIMWV,325.59,R,6.49,N,A*20
20220704 180558+00:00 $IIMDA,29.9,I,1.013,B,10.6,C,,C,96.3,,,C,,T,,M,,N,,M*20
20220704 180558+00:00 $HCHDT,111.7,T*2F
20220704 180558+00:00 $GPRMC,180552,A,4831.8798,N,12443.2000,W,8.2,112,040722,12,E,A,V*42
20220704 180558+00:00 $WIMWV,346.39,R,4.39,N,A*26
20220704 180600+00:00 $IIMDA,29.9,I,1.013,B,10.6,C,,C,96.2,,,C,,T,,M,,N,,M*21
20220704 180600+00:00 $HCHDT,111.7,T*2F
20220704 180600+00:00 $GPRMC,180554,A,4831.8696,N,12443.1898,W,8.2,111,040722,12,E,A,V*42
20220704 180600+00:00 $WIMWV,324.49,R,2.68,N,A*27
20220704 180602+00:00 $IIMDA,29.9,I,1.013,B,10.6,C,,C,96.2,,,C,,T,,M,,N,,M*21
20220704 180602+00:00 $HCHDT,112,T*35
20220704 180602+00:00 $GPRMC,180556,A,4831.8696,N,12443.1898,W,8.2,111,040722,12,E,A,V*40
20220704 180602+00:00 $WIMWV,350.09,R,3.98,N,A*2E
20220704 180604+00:00 $IIMDA,29.9,I,1.013,B,10.6,C,,C,96.2,,,C,,T,,M,,N,,M*21
20220704 180604+00:00 $HCHDT,112.6,T*2D
20220704 180604+00:00 $GPRMC,180558,A,4831.8696,N,12443.1796,W,8.11,112,040722,12,E,A,V*7E
20220704 180604+00:00 $WIMWV,345.89,R,3.69,N,A*2C
20220704 180606+00:00 $IIMDA,29.9,I,1.013,B,10.6,C,,C,96.2,,,C,,T,,M,,N,,M*21
20220704 180606+00:00 $HCHDT,112.4,T*2F
20220704 180606+00:00 $GPRMC,180600,A,4831.8696,N,12443.1700,W,8.11,112,040722,12,E,A,V*7F
20220704 180606+00:00 $WIMWV,336.59,R,8.49,N,A*2C
20220704 180608+00:00 $IIMDA,29.9,I,1.013,B,10.6,C,,C,96.2,,,C,,T,,M,,N,,M*21
20220704 180608+00:00 $HCHDT,111.6,T*2E
20220704 180608+00:00 $GPRMC,180602,A,4831.8696,N,12443.1700,W,8.11,112,040722,12,E,A,V*7D
20220704 180608+00:00 $WIMWV,328.09,R,5,N,A*08
20220704 180610+00:00 $IIMDA,29.9,I,1.013,B,10.6,C,,C,96.2,,,C,,T,,M,,N,,M*21
20220704 180610+00:00 $HCHDT,111.2,T*2A
20220704 180610+00:00 $GPRMC,180604,A,4831.8696,N,12443.1598,W,8.11,111,040722,12,E,A,V*7B
20220704 180610+00:00 $WIMWV,340.39,R,5.38,N,A*20
20220704 180612+00:00 $IIMDA,29.9,I,1.013,B,10.6,C,,C,96.2,,,C,,T,,M,,N,,M*21
20220704 180612+00:00 $HCHDT,111.6,T*2E
20220704 180612+00:00 $GPRMC,180606,A,4831.8600,N,12443.1496,W,8.11,111,040722,12,E,A,V*79
20220704 180612+00:00 $WIMWV,352.79,R,3.89,N,A*2B
20220704 180614+00:00 $IIMDA,29.9,I,1.013,B,10.6,C,,C,96.2,,,C,,T,,M,,N,,M*21
20220704 180614+00:00 $HCHDT,112.2,T*29
20220704 180614+00:00 $GPRMC,180608,A,4831.8600,N,12443.1496,W,8.2,111,040722,12,E,A,V*45
20220704 180614+00:00 $WIMWV,344.39,R,9.49,N,A*2E
20220704 180616+00:00 $IIMDA,29.9,I,1.013,B,10.6,C,,C,96.2,,,C,,T,,M,,N,,M*21
20220704 180616+00:00 $HCHDT,112.5,T*2E
20220704 180616+00:00 $GPRMC,180610,A,4831.8600,N,12443.1400,W,8.2,111,040722,12,E,A,V*43
20220704 180616+00:00 $WIMWV,341.19,R,5.38,N,A*23
20220704 180618+00:00 $IIMDA,29.9,I,1.013,B,10.6,C,,C,96.2,,,C,,T,,M,,N,,M*21
20220704 180618+00:00 $HCHDT,112.4,T*2F
20220704 180618+00:00 $GPRMC,180612,A,4831.8600,N,12443.1400,W,8.11,112,040722,12,E,A,V*70
20220704 180618+00:00 $WIMWV,342.39,R,7.1,N,A*1A
20220704 180620+00:00 $IIMDA,29.9,I,1.013,B,10.6,C,,C,96.2,,,C,,T,,M,,N,,M*21
20220704 180620+00:00 $HCHDT,111.9,T*21
20220704 180620+00:00 $GPRMC,180614,A,4831.8600,N,12443.1298,W,8.11,112,040722,12,E,A,V*71
20220704 180620+00:00 $WIMWV,337.59,R,6.69,N,A*21
20220704 180622+00:00 $IIMDA,29.9,I,1.013,B,10.6,C,,C,96.2,,,C,,T,,M,,N,,M*21
20220704 180622+00:00 $HCHDT,111.7,T*2F
20220704 180622+00:00 $GPRMC,180616,A,4831.8600,N,12443.1196,W,8.11,112,040722,12,E,A,V*7E
20220704 180622+00:00 $WIMWV,316.09,R,2.39,N,A*26
20220704 180624+00:00 $IIMDA,29.9,I,1.013,B,10.6,C,,C,96.2,,,C,,T,,M,,N,,M*21
20220704 180624+00:00 $HCHDT,112,T*35
20220704 180624+00:00 $GPRMC,180618,A,4831.8498,N,12443.1196,W,8.11,112,040722,12,E,A,V*73
20220704 180624+00:00 $WIMWV,335.69,R,6.4,N,A*1B
20220704 180626+00:00 $IIMDA,29.9,I,1.013,B,10.6,C,,C,96.2,,,C,,T,,M,,N,,M*21
20220704 180626+00:00 $HCHDT,112.4,T*2F
20220704 180626+00:00 $GPRMC,180620,A,4831.8498,N,12443.1100,W,8.11,112,040722,12,E,A,V*77
20220704 180626+00:00 $WIMWV,335.49,R,5.7,N,A*19
20220704 180628+00:00 $IIMDA,29.9,I,1.013,B,10.6,C,,C,96.2,,,C,,T,,M,,N,,M*21
20220704 180628+00:00 $HCHDT,112.6,T*2D
20220704 180628+00:00 $GPRMC,180622,A,4831.8498,N,12443.0998,W,8.2,112,040722,12,E,A,V*4F
20220704 180628+00:00 $WIMWV,354.09,R,8.4,N,A*14
20220704 180630+00:00 $IIMDA,29.9,I,1.013,B,10.6,C,,C,96.2,,,C,,T,,M,,N,,M*21
20220704 180630+00:00 $HCHDT,112.3,T*28
20220704 180630+00:00 $GPRMC,180624,A,4831.8498,N,12443.0998,W,8.2,112,040722,12,E,A,V*49
20220704 180630+00:00 $WIMWV,349.19,R,5.38,N,A*2B
20220704 180632+00:00 $IIMDA,29.9,I,1.013,B,10.6,C,,C,96.2,,,C,,T,,M,,N,,M*21
20220704 180632+00:00 $HCHDT,112.3,T*28
20220704 180632+00:00 $GPRMC,180626,A,4831.8498,N,12443.0896,W,8.11,112,040722,12,E,A,V*76
20220704 180632+00:00 $WIMWV,335.19,R,7.89,N,A*28
20220704 180634+00:00 $IIMDA,29.9,I,1.013,B,10.6,C,,C,96.2,,,C,,T,,M,,N,,M*21
20220704 180634+00:00 $HCHDT,112.3,T*28
20220704 180634+00:00 $GPRMC,180628,A,4831.8396,N,12443.0800,W,8.11,112,040722,12,E,A,V*7E
20220704 180634+00:00 $WIMWV,348.79,R,7,N,A*0B
20220704 180636+00:00 $IIMDA,29.9,I,1.013,B,10.6,C,,C,96.2,,,C,,T,,M,,N,,M*21
20220704 180636+00:00 $HCHDT,111.9,T*21
20220704 180636+00:00 $GPRMC,180630,A,4831.8396,N,12443.0800,W,8.11,112,040722,12,E,A,V*77
20220704 180636+00:00 $WIMWV,338.89,R,6.49,N,A*21
20220704 180638+00:00 $IIMDA,29.9,I,1.013,B,10.6,C,,C,96.2,,,C,,T,,M,,N,,M*21
20220704 180638+00:00 $HCHDT,111.7,T*2F
20220704 180638+00:00 $GPRMC,180632,A,4831.8396,N,12443.0698,W,8.11,112,040722,12,E,A,V*7A
20220704 180638+00:00 $WIMWV,328.79,R,4.9,N,A*19
20220704 180640+00:00 $IIMDA,29.9,I,1.013,B,10.6,C,,C,96.2,,,C,,T,,M,,N,,M*21
20220704 180640+00:00 $HCHDT,111.9,T*21
20220704 180640+00:00 $GPRMC,180634,A,4831.8396,N,12443.0698,W,8.11,112,040722,12,E,A,V*7C
20220704 180640+00:00 $WIMWV,352.59,R,7.89,N,A*2D
20220704 180642+00:00 $IIMDA,29.9,I,1.013,B,10.6,C,,C,96.2,,,C,,T,,M,,N,,M*21
20220704 180642+00:00 $HCHDT,112.2,T*29
20220704 180642+00:00 $GPRMC,180636,A,4831.8396,N,12443.0596,W,8.11,112,040722,12,E,A,V*73
20220704 180642+00:00 $WIMWV,351.39,R,4.08,N,A*22
20220704 180644+00:00 $IIMDA,29.9,I,1.013,B,10.6,C,,C,96.2,,,C,,T,,M,,N,,M*21
20220704 180644+00:00 $HCHDT,112.4,T*2F
20220704 180644+00:00 $GPRMC,180638,A,4831.8396,N,12443.0500,W,8.11,112,040722,12,E,A,V*72
20220704 180644+00:00 $WIMWV,340.59,R,7.29,N,A*24
20220704 180646+00:00 $IIMDA,29.9,I,1.013,B,10.6,C,,C,96.2,,,C,,T,,M,,N,,M*21
20220704 180646+00:00 $HCHDT,112.3,T*28
20220704 180646+00:00 $GPRMC,180640,A,4831.8300,N,12443.0500,W,8.2,112,040722,12,E,A,V*40
20220704 180646+00:00 $WIMWV,354.79,R,7.89,N,A*29
20220704 180648+00:00 $IIMDA,29.9,I,1.013,B,10.6,C,,C,96.2,,,C,,T,,M,,N,,M*21
20220704 180648+00:00 $HCHDT,111.7,T*2F
20220704 180648+00:00 $GPRMC,180642,A,4831.8300,N,12443.0398,W,8.11,112,040722,12,E,A,V*77
20220704 180648+00:00 $WIMWV,354.29,R,8.49,N,A*2F
20220704 180650+00:00 $IIMDA,29.9,I,1.013,B,10.6,C,,C,96.2,,,C,,T,,M,,N,,M*21
20220704 180650+00:00 $HCHDT,111.4,T*2C
20220704 180650+00:00 $GPRMC,180644,A,4831.8300,N,12443.0296,W,8.11,112,040722,12,E,A,V*7E
20220704 180650+00:00 $WIMWV,351.19,R,4.3,N,A*1B
20220704 180652+00:00 $IIMDA,29.9,I,1.013,B,10.6,C,,C,96.2,,,C,,T,,M,,N,,M*21
20220704 180652+00:00 $HCHDT,111.5,T*2D
20220704 180652+00:00 $GPRMC,180646,A,4831.8300,N,12443.0296,W,8.11,112,040722,12,E,A,V*7C
20220704 180652+00:00 $WIMWV,4,R,6.69,N,A*00
20220704 180654+00:00 $IIMDA,29.9,I,1.013,B,10.6,C,,C,96.2,,,C,,T,,M,,N,,M*21
20220704 180654+00:00 $HCHDT,111.9,T*21
20220704 180654+00:00 $GPRMC,180648,A,4831.8300,N,12443.0200,W,8.11,112,040722,12,E,A,V*7D
20220704 180654+00:00 $WIMWV,347.29,R,7.48,N,A*23
20220704 180656+00:00 $IIMDA,29.9,I,1.013,B,10.6,C,,C,96.2,,,C,,T,,M,,N,,M*21
20220704 180656+00:00 $HCHDT,111.9,T*21
20220704 180656+00:00 $GPRMC,180650,A,4831.8300,N,12443.0200,W,8.11,112,040722,12,E,A,V*74
20220704 180656+00:00 $WIMWV,337.99,R,6.78,N,A*2D
20220704 180658+00:00 $IIMDA,29.9,I,1.013,B,10.6,C,,C,96.2,,,C,,T,,M,,N,,M*21
20220704 180658+00:00 $HCHDT,111.7,T*2F
20220704 180658+00:00 $GPRMC,180652,A,4831.8198,N,12443.0098,W,8.11,112,040722,12,E,A,V*76
20220704 180658+00:00 $WIMWV,346.59,R,5.38,N,A*20
20220704 180700+00:00 $IIMDA,29.9,I,1.013,B,10.6,C,,C,96.2,,,C,,T,,M,,N,,M*21
20220704 180700+00:00 $HCHDT,111.5,T*2D
20220704 180700+00:00 $GPRMC,180654,A,4831.8198,N,12442.9996,W,8.11,112,040722,12,E,A,V*7F
20220704 180700+00:00 $WIMWV,338.09,R,3.89,N,A*20
20220704 180702+00:00 $IIMDA,29.9,I,1.013,B,10.6,C,,C,96.2,,,C,,T,,M,,N,,M*21
20220704 180702+00:00 $HCHDT,111.4,T*2C
20220704 180702+00:00 $GPRMC,180656,A,4831.8198,N,12442.9996,W,8.11,111,040722,12,E,A,V*7E
20220704 180702+00:00 $WIMWV,346.79,R,8.4,N,A*10
20220704 180704+00:00 $IIMDA,29.9,I,1.013,B,10.6,C,,C,96.2,,,C,,T,,M,,N,,M*21
20220704 180704+00:00 $HCHDT,111.6,T*2E
20220704 180704+00:00 $GPRMC,180658,A,4831.8198,N,12442.9900,W,8.11,111,040722,12,E,A,V*7F
20220704 180704+00:00 $WIMWV,337.89,R,3.09,N,A*2F
20220704 180706+00:00 $IIMDA,29.9,I,1.013,B,10.6,C,,C,96.2,,,C,,T,,M,,N,,M*21
20220704 180706+00:00 $HCHDT,112.1,T*2A
20220704 180706+00:00 $GPRMC,180700,A,4831.8198,N,12442.9798,W,8.11,111,040722,12,E,A,V*7C
20220704 180706+00:00 $WIMWV,352.29,R,8.69,N,A*2B
20220704 180708+00:00 $IIMDA,29.9,I,1.013,B,10.6,C,,C,96.2,,,C,,T,,M,,N,,M*21
20220704 180708+00:00 $HCHDT,112,T*35
20220704 180708+00:00 $GPRMC,180702,A,4831.8198,N,12442.9798,W,8.11,112,040722,12,E,A,V*7D
20220704 180708+00:00 $WIMWV,344.59,R,5.48,N,A*25
20220704 180710+00:00 $IIMDA,29.9,I,1.013,B,10.6,C,,C,96.2,,,C,,T,,M,,N,,M*21
20220704 180710+00:00 $HCHDT,112.1,T*2A
20220704 180710+00:00 $GPRMC,180704,A,4831.8198,N,12442.9696,W,8.11,112,040722,12,E,A,V*74
20220704 180710+00:00 $WIMWV,358.29,R,6.3,N,A*13
20220704 180712+00:00 $IIMDA,29.9,I,1.013,B,10.6,C,,C,96.2,,,C,,T,,M,,N,,M*21
20220704 180712+00:00 $HCHDT,112.2,T*29
20220704 180712+00:00 $GPRMC,180706,A,4831.8096,N,12442.9696,W,8.11,112,040722,12,E,A,V*79
20220704 180712+00:00 $WIMWV,332.39,R,8.49,N,A*2E
20220704 180714+00:00 $IIMDA,29.9,I,1.013,B,10.6,C,,C,96.2,,,C,,T,,M,,N,,M*21
20220704 180714+00:00 $HCHDT,112.5,T*2E
20220704 180714+00:00 $GPRMC,180708,A,4831.8096,N,12442.9600,W,8.11,112,040722,12,E,A,V*78
20220704 180714+00:00 $WIMWV,345.49,R,3.69,N,A*20
20220704 180716+00:00 $IIMDA,29.9,I,1.013,B,10.6,C,,C,96.2,,,C,,T,,M,,N,,M*21
20220704 180716+00:00 $HCHDT,113.3,T*29
20220704 180716+00:00 $GPRMC,180710,A,4831.8096,N,12442.9498,W,8.11,112,040722,12,E,A,V*72
20220704 180716+00:00 $WIMWV,344.49,R,7.39,N,A*20
20220704 180718+00:00 $IIMDA,29.9,I,1.013,B,10.6,C,,C,96.2,,,C,,T,,M,,N,,M*21
20220704 180718+00:00 $HCHDT,114.1,T*2C
20220704 180718+00:00 $GPRMC,180712,A,4831.8096,N,12442.9498,W,8.11,112,040722,12,E,A,V*70
20220704 180718+00:00 $WIMWV,340.99,R,3.69,N,A*28
20220704 180720+00:00 $IIMDA,29.9,I,1.013,B,10.6,C,,C,96.2,,,C,,T,,M,,N,,M*21
20220704 180720+00:00 $HCHDT,114.5,T*28
20220704 180720+00:00 $GPRMC,180714,A,4831.8096,N,12442.9396,W,8.11,112,040722,12,E,A,V*7F
20220704 180720+00:00 $WIMWV,339.69,R,5.48,N,A*2C
20220704 180722+00:00 $IIMDA,29.9,I,1.013,B,10.6,C,,C,96.2,,,C,,T,,M,,N,,M*21
20220704 180722+00:00 $HCHDT,114.7,T*2A
20220704 180722+00:00 $GPRMC,180716,A,4831.8000,N,12442.9300,W,8.11,113,040722,12,E,A,V*7C
20220704 180722+00:00 $WIMWV,350.69,R,7.99,N,A*2D
20220704 180724+00:00 $IIMDA,29.9,I,1.013,B,10.6,C,,C,96.2,,,C,,T,,M,,N,,M*21
20220704 180724+00:00 $HCHDT,114.9,T*24
20220704 180724+00:00 $GPRMC,180718,A,4831.8000,N,12442.9300,W,8.01,113,040722,12,E,A,V*73
20220704 180724+00:00 $WIMWV,348.39,R,7.48,N,A*2D
20220704 180726+00:00 $IIMDA,29.9,I,1.013,B,10.6,C,,C,96.2,,,C,,T,,M,,N,,M*21
20220704 180726+00:00 $HCHDT,115.5,T*29
20220704 180726+00:00 $GPRMC,180720,A,4831.8000,N,12442.9198,W,8.11,114,040722,12,E,A,V*7D
20220704 180726+00:00 $WIMWV,354.49,R,5.89,N,A*28
20220704 180728+00:00 $IIMDA,29.9,I,1.013,B,10.6,C,,C,96.2,,,C,,T,,M,,N,,M*21
20220704 180728+00:00 $HCHDT,115.5,T*29
20220704 180728+00:00 $GPRMC,180722,A,4831.8000,N,12442.9198,W,8.11,115,040722,12,E,A,V*7E
20220704 180728+00:00 $WIMWV,336.19,R,4.9,N,A*10
20220704 180730+00:00 $IIMDA,29.9,I,1.013,B,10.6,C,,C,96.2,,,C,,T,,M,,N,,M*21
20220704 180730+00:00 $HCHDT,114.8,T*25
20220704 180730+00:00 $GPRMC,180724,A,4831.8000,N,12442.9096,W,8.11,115,040722,12,E,A,V*77
20220704 180730+00:00 $WIMWV,356.99,R,5.09,N,A*2F
20220704 180732+00:00 $IIMDA,29.9,I,1.013,B,10.6,C,,C,96.2,,,C,,T,,M,,N,,M*21
20220704 180732+00:00 $HCHDT,114.1,T*2C
20220704 180732+00:00 $GPRMC,180726,A,4831.7898,N,12442.9000,W,8.11,115,040722,12,E,A,V*7C
20220704 180732+00:00 $WIMWV,351.89,R,6.3,N,A*10
20220704 180734+00:00 $IIMDA,29.9,I,1.013,B,10.6,C,,C,96.2,,,C,,T,,M,,N,,M*21
20220704 180734+00:00 $HCHDT,113.8,T*22
20220704 180734+00:00 $GPRMC,180728,A,4831.7898,N,12442.9000,W,8.11,115,040722,12,E,A,V*72
20220704 180734+00:00 $WIMWV,355.89,R,5.99,N,A*24
20220704 180736+00:00 $IIMDA,29.9,I,1.013,B,10.6,C,,C,96.2,,,C,,T,,M,,N,,M*21
20220704 180736+00:00 $HCHDT,113.6,T*2C
20220704 180736+00:00 $GPRMC,180730,A,4831.7898,N,12442.8898,W,8.11,115,040722,12,E,A,V*73
20220704 180736+00:00 $WIMWV,338.49,R,5.7,N,A*14
20220704 180738+00:00 $IIMDA,29.9,I,1.013,B,10.6,C,,C,96.2,,,C,,T,,M,,N,,M*21
20220704 180738+00:00 $HCHDT,113,T*34
20220704 180738+00:00 $GPRMC,180732,A,4831.7898,N,12442.8898,W,8.11,115,040722,12,E,A,V*71
20220704 180738+00:00 $WIMWV,317.29,R,2.1,N,A*1E
20220704 180740+00:00 $IIMDA,29.9,I,1.013,B,10.6,C,,C,96.2,,,C,,T,,M,,N,,M*21
20220704 180740+00:00 $HCHDT,112.8,T*23
20220704 180740+00:00 $GPRMC,180734,A,4831.7898,N,12442.8796,W,8.11,115,040722,12,E,A,V*76
20220704 180740+00:00 $WIMWV,355.89,R,7.39,N,A*2C
20220704 180742+00:00 $IIMDA,29.9,I,1.013,B,10.6,C,,C,96.2,,,C,,T,,M,,N,,M*21
20220704 180742+00:00 $HCHDT,112.9,T*22
20220704 180742+00:00 $GPRMC,180736,A,4831.7898,N,12442.8700,W,8.11,115,040722,12,E,A,V*7B
20220704 180742+00:00 $WIMWV,346.29,R,5.09,N,A*25
