20220704 040001+00:00 $IIMDA,29.8,I,1.01,B,12.3,C,,C,94,,,C,,T,,M,,N,,M*0A
20220704 040001+00:00 $HCHDT,257.2,T*2B
20220704 040001+00:00 $GPRMC,035956,A,4938.7996,N,12616.5696,W,9.29,260,040722,12.3,E,A,V*6D
20220704 040001+00:00 $WIMWV,345.69,R,21.6,N,A*2B
20220704 040003+00:00 $IIMDA,29.8,I,1.01,B,12.3,C,,C,94,,,C,,T,,M,,N,,M*0A
20220704 040003+00:00 $HCHDT,257.3,T*2A
20220704 040003+00:00 $GPRMC,035958,A,4938.7996,N,12616.5798,W,9.29,260,040722,12.3,E,A,V*6C
20220704 040003+00:00 $WIMWV,346.79,R,20.9,N,A*27
20220704 040005+00:00 $IIMDA,29.8,I,1.01,B,12.3,C,,C,94,,,C,,T,,M,,N,,M*0A
20220704 040005+00:00 $HCHDT,257.4,T*2D
20220704 040005+00:00 $GPRMC,040000,A,4938.7996,N,12616.5900,W,9.29,260,040722,12.3,E,A,V*65
20220704 040005+00:00 $WIMWV,346.59,R,20.68,N,A*12
20220704 040007+00:00 $IIMDA,29.8,I,1.01,B,12.3,C,,C,94,,,C,,T,,M,,N,,M*0A
20220704 040007+00:00 $HCHDT,257.4,T*2D
20220704 040007+00:00 $GPRMC,040002,A,4938.7996,N,12616.5996,W,9.29,260,040722,12.3,E,A,V*68
20220704 040007+00:00 $WIMWV,348.59,R,20.29,N,A*19
20220704 040009+00:00 $IIMDA,29.8,I,1.01,B,12.3,C,,C,94,,,C,,T,,M,,N,,M*0A
20220704 040009+00:00 $HCHDT,257.4,T*2D
20220704 040009+00:00 $GPRMC,040004,A,4938.7996,N,12616.6098,W,9.29,260,040722,12.3,E,A,V*6A
20220704 040009+00:00 $WIMWV,346.69,R,19.89,N,A*14
20220704 040011+00:00 $IIMDA,29.8,I,1.01,B,12.3,C,,C,94,,,C,,T,,M,,N,,M*0A
20220704 040011+00:00 $HCHDT,257.4,T*2D
20220704 040011+00:00 $GPRMC,040006,A,4938.7996,N,12616.6098,W,9.29,260,040722,12.3,E,A,V*68
20220704 040011+00:00 $WIMWV,349.69,R,20.68,N,A*1E
20220704 040013+00:00 $IIMDA,29.8,I,1.01,B,12.3,C,,C,94,,,C,,T,,M,,N,,M*0A
20220704 040013+00:00 $HCHDT,257.3,T*2A
20220704 040013+00:00 $GPRMC,040008,A,4938.7996,N,12616.6200,W,9.29,260,040722,12.3,E,A,V*65
20220704 040013+00:00 $WIMWV,350.59,R,20.08,N,A*13
20220704 040015+00:00 $IIMDA,29.8,I,1.01,B,12.3,C,,C,94,,,C,,T,,M,,N,,M*0A
20220704 040015+00:00 $HCHDT,257.1,T*28
20220704 040015+00:00 $GPRMC,040010,A,4938.7996,N,12616.6296,W,9.29,260,040722,12.3,E,A,V*63
20220704 040015+00:00 $WIMWV,347.49,R,19.98,N,A*17
20220704 040017+00:00 $IIMDA,29.8,I,1.01,B,12.3,C,,C,94,,,C,,T,,M,,N,,M*0A
20220704 040017+00:00 $HCHDT,256.9,T*21
20220704 040017+00:00 $GPRMC,040012,A,4938.7996,N,12616.6398,W,9.29,260,040722,12.3,E,A,V*6E
20220704 040017+00:00 $WIMWV,349.99,R,20.49,N,A*12
20220704 040019+00:00 $IIMDA,29.8,I,1.01,B,12.3,C,,C,94,,,C,,T,,M,,N,,M*0A
20220704 040019+00:00 $HCHDT,256.6,T*2E
20220704 040019+00:00 $GPRMC,040014,A,4938.7996,N,12616.6398,W,9.41,260,040722,12.3,E,A,V*66
20220704 040019+00:00 $WIMWV,350.19,R,21.29,N,A*15
20220704 040021+00:00 $IIMDA,29.8,I,1.01,B,12.3,C,,C,94.1,,,C,,T,,M,,N,,M*15
20220704 040021+00:00 $HCHDT,256.5,T*2D
20220704 040021+00:00 $GPRMC,040016,A,4938.7996,N,12616.6500,W,9.41,260,040722,12.3,E,A,V*63
20220704 040021+00:00 $WIMWV,349.69,R,20.2,N,A*22
20220704 040023+00:00 $IIMDA,29.8,I,1.01,B,12.3,C,,C,94.1,,,C,,T,,M,,N,,M*15
20220704 040023+00:00 $HCHDT,256.6,T*2E
20220704 040023+00:00 $GPRMC,040018,A,4938.7900,N,12616.6596,W,9.29,260,040722,12.3,E,A,V*63
20220704 040023+00:00 $WIMWV,351.59,R,19.19,N,A*18
20220704 040025+00:00 $IIMDA,29.8,I,1.01,B,12.3,C,,C,94.1,,,C,,T,,M,,N,,M*15
20220704 040025+00:00 $HCHDT,256.6,T*2E
20220704 040025+00:00 $GPRMC,040020,A,4938.7900,N,12616.6698,W,9.29,260,040722,12.3,E,A,V*65
20220704 040025+00:00 $WIMWV,351.19,R,18.19,N,A*1D
20220704 040027+00:00 $IIMDA,29.8,I,1.01,B,12.3,C,,C,94.1,,,C,,T,,M,,N,,M*15
20220704 040027+00:00 $HCHDT,256.7,T*2F
20220704 040027+00:00 $GPRMC,040022,A,4938.7900,N,12616.6800,W,9.29,260,040722,12.3,E,A,V*68
20220704 040027+00:00 $WIMWV,356.99,R,17.18,N,A*1C
20220704 040029+00:00 $IIMDA,29.8,I,1.01,B,12.3,C,,C,94.1,,,C,,T,,M,,N,,M*15
20220704 040029+00:00 $HCHDT,256.7,T*2F
20220704 040029+00:00 $GPRMC,040024,A,4938.7900,N,12616.6800,W,9.29,260,040722,12.3,E,A,V*6E
20220704 040029+00:00 $WIMWV,356.79,R,15.08,N,A*11
20220704 040031+00:00 $IIMDA,29.8,I,1.01,B,12.3,C,,C,94.1,,,C,,T,,M,,N,,M*15
20220704 040031+00:00 $HCHDT,256.6,T*2E
20220704 040031+00:00 $GPRMC,040026,A,4938.7900,N,12616.6896,W,9.29,260,040722,12.3,E,A,V*63
20220704 040031+00:00 $WIMWV,352.79,R,16.89,N,A*1F
20220704 040033+00:00 $IIMDA,29.8,I,1.01,B,12.3,C,,C,94.2,,,C,,T,,M,,N,,M*16
20220704 040033+00:00 $HCHDT,256.7,T*2F
20220704 040033+00:00 $GPRMC,040028,A,4938.7900,N,12616.6998,W,9.29,259,040722,12.3,E,A,V*68
20220704 040033+00:00 $WIMWV,353.79,R,14.79,N,A*13
20220704 040035+00:00 $IIMDA,29.8,I,1.01,B,12.3,C,,C,94.2,,,C,,T,,M,,N,,M*16
20220704 040035+00:00 $HCHDT,256.7,T*2F
20220704 040035+00:00 $GPRMC,040030,A,4938.7900,N,12616.7100,W,9.29,259,040722,12.3,E,A,V*69
20220704 040035+00:00 $WIMWV,350.79,R,18.68,N,A*1C
20220704 040037+00:00 $IIMDA,29.8,I,1.01,B,12.3,C,,C,94.2,,,C,,T,,M,,N,,M*16
20220704 040037+00:00 $HCHDT,256.8,T*20
20220704 040037+00:00 $GPRMC,040032,A,4938.7900,N,12616.7196,W,9.29,259,040722,12.3,E,A,V*64
20220704 040037+00:00 $WIMWV,349.99,R,18.39,N,A*1E
20220704 040039+00:00 $IIMDA,29.8,I,1.01,B,12.3,C,,C,94.2,,,C,,T,,M,,N,,M*16
20220704 040039+00:00 $HCHDT,257,T*37
20220704 040039+00:00 $GPRMC,040034,A,4938.7900,N,12616.7196,W,9.29,259,040722,12.3,E,A,V*62
20220704 040039+00:00 $WIMWV,347.19,R,17.69,N,A*12
20220704 040041+00:00 $IIMDA,29.8,I,1.01,B,12.3,C,,C,94.2,,,C,,T,,M,,N,,M*16
20220704 040041+00:00 $HCHDT,257.1,T*28
20220704 040041+00:00 $GPRMC,040036,A,4938.7900,N,12616.7298,W,9.29,260,040722,12.3,E,A,V*67
20220704 040041+00:00 $WIMWV,0.3,R,17.49,N,A*2B
20220704 040043+00:00 $IIMDA,29.8,I,1.01,B,12.3,C,,C,94.2,,,C,,T,,M,,N,,M*16
20220704 040043+00:00 $HCHDT,257.1,T*28
20220704 040043+00:00 $GPRMC,040038,A,4938.7798,N,12616.7400,W,9.29,260,040722,12.3,E,A,V*61
20220704 040043+00:00 $WIMWV,353.49,R,17.88,N,A*1D
20220704 040045+00:00 $IIMDA,29.8,I,1.01,B,12.3,C,,C,94.2,,,C,,T,,M,,N,,M*16
20220704 040045+00:00 $HCHDT,257.2,T*2B
20220704 040045+00:00 $GPRMC,040040,A,4938.7798,N,12616.7496,W,9.29,260,040722,12.3,E,A,V*61
20220704 040045+00:00 $WIMWV,351.39,R,18.29,N,A*1C
20220704 040047+00:00 $IIMDA,29.8,I,1.01,B,12.3,C,,C,94.2,,,C,,T,,M,,N,,M*16
20220704 040047+00:00 $HCHDT,257.4,T*2D
20220704 040047+00:00 $GPRMC,040042,A,4938.7798,N,12616.7496,W,9.29,260,040722,12.3,E,A,V*63
20220704 040047+00:00 $WIMWV,352.29,R,15.59,N,A*14
20220704 040049+00:00 $IIMDA,29.8,I,1.01,B,12.3,C,,C,94.3,,,C,,T,,M,,N,,M*17
20220704 040049+00:00 $HCHDT,257.5,T*2C
20220704 040049+00:00 $GPRMC,040044,A,4938.7798,N,12616.7598,W,9.29,260,040722,12.3,E,A,V*6A
20220704 040049+00:00 $WIMWV,353.59,R,17.69,N,A*13
20220704 040051+00:00 $IIMDA,29.8,I,1.01,B,12.3,C,,C,94.3,,,C,,T,,M,,N,,M*17
20220704 040051+00:00 $HCHDT,257.6,T*2F
20220704 040051+00:00 $GPRMC,040046,A,4938.7798,N,12616.7700,W,9.29,260,040722,12.3,E,A,V*6B
20220704 040051+00:00 $WIMWV,353.79,R,16.89,N,A*1E
20220704 040053+00:00 $IIMDA,29.8,I,1.01,B,12.3,C,,C,94.3,,,C,,T,,M,,N,,M*17
20220704 040053+00:00 $HCHDT,257.7,T*2E
20220704 040053+00:00 $GPRMC,040048,A,4938.7798,N,12616.7796,W,9.29,260,040722,12.3,E,A,V*6A
20220704 040053+00:00 $WIMWV,351.19,R,17.59,N,A*16
20220704 040055+00:00 $IIMDA,29.8,I,1.01,B,12.3,C,,C,94.3,,,C,,T,,M,,N,,M*17
20220704 040055+00:00 $HCHDT,257.8,T*21
20220704 040055+00:00 $GPRMC,040050,A,4938.7798,N,12616.7898,W,9.29,260,040722,12.3,E,A,V*62
20220704 040055+00:00 $WIMWV,349.59,R,20.29,N,A*18
20220704 040057+00:00 $IIMDA,29.8,I,1.01,B,12.3,C,,C,94.3,,,C,,T,,M,,N,,M*17
20220704 040057+00:00 $HCHDT,257.9,T*20
20220704 040057+00:00 $GPRMC,040052,A,4938.7798,N,12616.7898,W,9.29,260,040722,12.3,E,A,V*60
20220704 040057+00:00 $WIMWV,352.59,R,19.59,N,A*1F
20220704 040059+00:00 $IIMDA,29.8,I,1.01,B,12.3,C,,C,94.3,,,C,,T,,M,,N,,M*17
20220704 040059+00:00 $HCHDT,258,T*38
20220704 040059+00:00 $GPRMC,040054,A,4938.7798,N,12616.8000,W,9.29,260,040722,12.3,E,A,V*60
20220704 040059+00:00 $WIMWV,349.79,R,18.8,N,A*22
20220704 040101+00:00 $IIMDA,29.8,I,1.01,B,12.3,C,,C,94.3,,,C,,T,,M,,N,,M*17
20220704 040101+00:00 $HCHDT,258.1,T*27
20220704 040101+00:00 $GPRMC,040056,A,4938.7798,N,12616.8096,W,9.29,260,040722,12.3,E,A,V*6D
20220704 040101+00:00 $WIMWV,353.49,R,17.09,N,A*14
20220704 040103+00:00 $IIMDA,29.8,I,1.01,B,12.3,C,,C,94.2,,,C,,T,,M,,N,,M*16
20220704 040103+00:00 $HCHDT,258.2,T*24
20220704 040103+00:00 $GPRMC,040058,A,4938.7798,N,12616.8198,W,9.19,260,040722,12.3,E,A,V*6F
20220704 040103+00:00 $WIMWV,347.99,R,17.28,N,A*1F
20220704 040105+00:00 $IIMDA,29.8,I,1.01,B,12.3,C,,C,94.2,,,C,,T,,M,,N,,M*16
20220704 040105+00:00 $HCHDT,258.4,T*22
20220704 040105+00:00 $GPRMC,040100,A,4938.7798,N,12616.8198,W,9.19,260,040722,12.3,E,A,V*63
20220704 040105+00:00 $WIMWV,347.59,R,19.59,N,A*1B
20220704 040107+00:00 $IIMDA,29.8,I,1.01,B,12.3,C,,C,94.2,,,C,,T,,M,,N,,M*16
20220704 040107+00:00 $HCHDT,258.7,T*21
20220704 040107+00:00 $GPRMC,040102,A,4938.7696,N,12616.8300,W,9.19,260,040722,12.3,E,A,V*6D
20220704 040107+00:00 $WIMWV,346.59,R,19.89,N,A*17
20220704 040109+00:00 $IIMDA,29.8,I,1.01,B,12.3,C,,C,94.2,,,C,,T,,M,,N,,M*16
20220704 040109+00:00 $HCHDT,259.2,T*25
20220704 040109+00:00 $GPRMC,040104,A,4938.7696,N,12616.8396,W,9.19,260,040722,12.3,E,A,V*64
20220704 040109+00:00 $WIMWV,351.49,R,18.99,N,A*10
20220704 040111+00:00 $IIMDA,29.8,I,1.01,B,12.3,C,,C,94.2,,,C,,T,,M,,N,,M*16
20220704 040111+00:00 $HCHDT,260.3,T*2E
20220704 040111+00:00 $GPRMC,040106,A,4938.7696,N,12616.8498,W,9.19,261,040722,12.3,E,A,V*6E
20220704 040111+00:00 $WIMWV,342.89,R,19.09,N,A*16
20220704 040113+00:00 $IIMDA,29.8,I,1.01,B,12.3,C,,C,94.1,,,C,,T,,M,,N,,M*15
20220704 040113+00:00 $HCHDT,261,T*32
20220704 040113+00:00 $GPRMC,040108,A,4938.7696,N,12616.8600,W,9.19,261,040722,12.3,E,A,V*63
20220704 040113+00:00 $WIMWV,341.39,R,19.09,N,A*1E
20220704 040115+00:00 $IIMDA,29.8,I,1.01,B,12.3,C,,C,94.2,,,C,,T,,M,,N,,M*16
20220704 040115+00:00 $HCHDT,261.7,T*2B
20220704 040115+00:00 $GPRMC,040110,A,4938.7696,N,12616.8600,W,9.19,261,040722,12.3,E,A,V*6A
20220704 040115+00:00 $WIMWV,341.99,R,19.19,N,A*15
20220704 040117+00:00 $IIMDA,29.8,I,1.01,B,12.3,C,,C,94.1,,,C,,T,,M,,N,,M*15
20220704 040117+00:00 $HCHDT,262.1,T*2E
20220704 040117+00:00 $GPRMC,040112,A,4938.7696,N,12616.8696,W,9.19,262,040722,12.3,E,A,V*64
20220704 040117+00:00 $WIMWV,339.19,R,19.28,N,A*10
20220704 040119+00:00 $IIMDA,29.8,I,1.01,B,12.3,C,,C,94.2,,,C,,T,,M,,N,,M*16
20220704 040119+00:00 $HCHDT,262.3,T*2C
20220704 040119+00:00 $GPRMC,040114,A,4938.7696,N,12616.8798,W,9.19,262,040722,12.3,E,A,V*6D
20220704 040119+00:00 $WIMWV,340.59,R,20.2,N,A*28
20220704 040121+00:00 $IIMDA,29.8,I,1.01,B,12.3,C,,C,94.2,,,C,,T,,M,,N,,M*16
20220704 040121+00:00 $HCHDT,262.3,T*2C
20220704 040121+00:00 $GPRMC,040116,A,4938.7696,N,12616.8900,W,9.19,263,040722,12.3,E,A,V*61
20220704 040121+00:00 $WIMWV,341.59,R,17.88,N,A*1F
20220704 040123+00:00 $IIMDA,29.8,I,1.01,B,12.3,C,,C,94.2,,,C,,T,,M,,N,,M*16
20220704 040123+00:00 $HCHDT,262.2,T*2D
20220704 040123+00:00 $GPRMC,040118,A,4938.7696,N,12616.8900,W,9.19,263,040722,12.3,E,A,V*6F
20220704 040123+00:00 $WIMWV,339.49,R,19.89,N,A*1E
20220704 040125+00:00 $IIMDA,29.8,I,1.01,B,12.3,C,,C,94.3,,,C,,T,,M,,N,,M*17
20220704 040125+00:00 $HCHDT,262,T*31
20220704 040125+00:00 $GPRMC,040120,A,4938.7696,N,12616.8996,W,9.1,264,040722,12.3,E,A,V*55
20220704 040125+00:00 $WIMWV,341.99,R,18.89,N,A*1D
20220704 040127+00:00 $IIMDA,29.8,I,1.01,B,12.3,C,,C,94.3,,,C,,T,,M,,N,,M*17
20220704 040127+00:00 $HCHDT,262,T*31
20220704 040127+00:00 $GPRMC,040122,A,4938.7696,N,12616.9098,W,9.1,264,040722,12.3,E,A,V*51
20220704 040127+00:00 $WIMWV,340.39,R,18.58,N,A*1A
20220704 040129+00:00 $IIMDA,29.8,I,1.01,B,12.3,C,,C,94.4,,,C,,T,,M,,N,,M*10
20220704 040129+00:00 $HCHDT,261.9,T*25
20220704 040129+00:00 $GPRMC,040124,A,4938.7696,N,12616.9200,W,9.1,264,040722,12.3,E,A,V*54
20220704 040129+00:00 $WIMWV,338.19,R,20.78,N,A*1E
20220704 040131+00:00 $IIMDA,29.8,I,1.01,B,12.3,C,,C,94.4,,,C,,T,,M,,N,,M*10
20220704 040131+00:00 $HCHDT,261.9,T*25
20220704 040131+00:00 $GPRMC,040126,A,4938.7696,N,12616.9296,W,9.1,264,040722,12.3,E,A,V*59
20220704 040131+00:00 $WIMWV,337.69,R,21.79,N,A*16
20220704 040133+00:00 $IIMDA,29.8,I,1.01,B,12.4,C,,C,94.4,,,C,,T,,M,,N,,M*17
20220704 040133+00:00 $HCHDT,261.9,T*25
20220704 040133+00:00 $GPRMC,040128,A,4938.7696,N,12616.9296,W,9.1,264,040722,12.3,E,A,V*57
20220704 040133+00:00 $WIMWV,336.99,R,23,N,A*3A
20220704 040135+00:00 $IIMDA,29.8,I,1.01,B,12.4,C,,C,94.4,,,C,,T,,M,,N,,M*17
20220704 040135+00:00 $HCHDT,261.9,T*25
20220704 040135+00:00 $GPRMC,040130,A,4938.7696,N,12616.9398,W,9.1,264,040722,12.3,E,A,V*51
20220704 040135+00:00 $WIMWV,336.49,R,21.79,N,A*15
20220704 040137+00:00 $IIMDA,29.8,I,1.01,B,12.4,C,,C,94.5,,,C,,T,,M,,N,,M*16
20220704 040137+00:00 $HCHDT,261.9,T*25
20220704 040137+00:00 $GPRMC,040132,A,4938.7696,N,12616.9500,W,9.1,264,040722,12.3,E,A,V*54
20220704 040137+00:00 $WIMWV,335.89,R,23,N,A*38
20220704 040139+00:00 $IIMDA,29.8,I,1.01,B,12.4,C,,C,94.5,,,C,,T,,M,,N,,M*16
20220704 040139+00:00 $HCHDT,261.8,T*24
20220704 040139+00:00 $GPRMC,040134,A,4938.7600,N,12616.9596,W,9,264,040722,12.3,E,A,V*4D
20220704 040139+00:00 $WIMWV,335.19,R,23.79,N,A*11
20220704 040141+00:00 $IIMDA,29.8,I,1.01,B,12.4,C,,C,94.5,,,C,,T,,M,,N,,M*16
20220704 040141+00:00 $HCHDT,261.8,T*24
20220704 040141+00:00 $GPRMC,040136,A,4938.7600,N,12616.9596,W,9,264,040722,12.3,E,A,V*4F
20220704 040141+00:00 $WIMWV,336.69,R,23.19,N,A*13
20220704 040143+00:00 $IIMDA,29.8,I,1.01,B,12.4,C,,C,94.5,,,C,,T,,M,,N,,M*16
20220704 040143+00:00 $HCHDT,261.8,T*24
20220704 040143+00:00 $GPRMC,040138,A,4938.7600,N,12616.9698,W,9,264,040722,12.3,E,A,V*4C
20220704 040143+00:00 $WIMWV,335.69,R,23.38,N,A*13
20220704 040145+00:00 $IIMDA,29.8,I,1.01,B,12.4,C,,C,94.5,,,C,,T,,M,,N,,M*16
20220704 040145+00:00 $HCHDT,261.8,T*24
20220704 040145+00:00 $GPRMC,040140,A,4938.7600,N,12616.9800,W,9,264,040722,12.3,E,A,V*4C
20220704 040145+00:00 $WIMWV,337.39,R,21.38,N,A*16
20220704 040147+00:00 $IIMDA,29.8,I,1.01,B,12.4,C,,C,94.5,,,C,,T,,M,,N,,M*16
20220704 040147+00:00 $HCHDT,261.8,T*24
20220704 040147+00:00 $GPRMC,040142,A,4938.7600,N,12616.9896,W,9,264,040722,12.3,E,A,V*41
20220704 040147+00:00 $WIMWV,337.39,R,20.78,N,A*13
20220704 040149+00:00 $IIMDA,29.8,I,1.01,B,12.4,C,,C,94.5,,,C,,T,,M,,N,,M*16
20220704 040149+00:00 $HCHDT,261.9,T*25
20220704 040149+00:00 $GPRMC,040144,A,4938.7600,N,12616.9896,W,9,264,040722,12.3,E,A,V*47
20220704 040149+00:00 $WIMWV,336.49,R,23.38,N,A*12
20220704 040151+00:00 $IIMDA,29.8,I,1.01,B,12.4,C,,C,94.5,,,C,,T,,M,,N,,M*16
20220704 040151+00:00 $HCHDT,262,T*31
20220704 040151+00:00 $GPRMC,040146,A,4938.7600,N,12616.9998,W,9,264,040722,12.3,E,A,V*4A
20220704 040151+00:00 $WIMWV,337.99,R,22.49,N,A*19
20220704 040153+00:00 $IIMDA,29.8,I,1.01,B,12.4,C,,C,94.5,,,C,,T,,M,,N,,M*16
20220704 040153+00:00 $HCHDT,262.2,T*2D
20220704 040153+00:00 $GPRMC,040148,A,4938.7600,N,12617.0100,W,9,264,040722,12.3,E,A,V*45
20220704 040153+00:00 $WIMWV,339.69,R,19.89,N,A*1C
20220704 040155+00:00 $IIMDA,29.8,I,1.01,B,12.4,C,,C,94.5,,,C,,T,,M,,N,,M*16
20220704 040155+00:00 $HCHDT,262.3,T*2C
20220704 040155+00:00 $GPRMC,040150,A,4938.7600,N,12617.0196,W,9,264,040722,12.3,E,A,V*43
20220704 040155+00:00 $WIMWV,341.99,R,17.09,N,A*1A
20220704 040157+00:00 $IIMDA,29.8,I,1.01,B,12.4,C,,C,94.4,,,C,,T,,M,,N,,M*17
20220704 040157+00:00 $HCHDT,262.7,T*28
20220704 040157+00:00 $GPRMC,040152,A,4938.7600,N,12617.0196,W,9,264,040722,12.3,E,A,V*41
20220704 040157+00:00 $WIMWV,335.29,R,22.18,N,A*14
20220704 040159+00:00 $IIMDA,29.8,I,1.01,B,12.4,C,,C,94.4,,,C,,T,,M,,N,,M*17
20220704 040159+00:00 $HCHDT,263.2,T*2C
20220704 040159+00:00 $GPRMC,040154,A,4938.7600,N,12617.0298,W,9,264,040722,12.3,E,A,V*4A
20220704 040159+00:00 $WIMWV,338.79,R,22.78,N,A*1A
20220704 040201+00:00 $IIMDA,29.8,I,1.01,B,12.4,C,,C,94.5,,,C,,T,,M,,N,,M*16
20220704 040201+00:00 $HCHDT,263.7,T*29
20220704 040201+00:00 $GPRMC,040156,A,4938.7600,N,12617.0400,W,9,264,040722,12.3,E,A,V*4F
20220704 040201+00:00 $WIMWV,339.49,R,19.89,N,A*1E
20220704 040203+00:00 $IIMDA,29.8,I,1.01,B,12.4,C,,C,94.4,,,C,,T,,M,,N,,M*17
20220704 040203+00:00 $HCHDT,264.3,T*2A
20220704 040203+00:00 $GPRMC,040158,A,4938.7600,N,12617.0496,W,9,264,040722,12.3,E,A,V*4E
20220704 040203+00:00 $WIMWV,335.09,R,23,N,A*30
20220704 040205+00:00 $IIMDA,29.8,I,1.01,B,12.4,C,,C,94.4,,,C,,T,,M,,N,,M*17
20220704 040205+00:00 $HCHDT,264.4,T*2D
20220704 040205+00:00 $GPRMC,040200,A,4938.7600,N,12617.0598,W,9,265,040722,12.3,E,A,V*4E
20220704 040205+00:00 $WIMWV,340.29,R,21.09,N,A*15
20220704 040207+00:00 $IIMDA,29.8,I,1.01,B,12.4,C,,C,94.4,,,C,,T,,M,,N,,M*17
20220704 040207+00:00 $HCHDT,264.8,T*21
20220704 040207+00:00 $GPRMC,040202,A,4938.7600,N,12617.0598,W,9,265,040722,12.3,E,A,V*4C
20220704 040207+00:00 $WIMWV,346.59,R,19.89,N,A*17
20220704 040209+00:00 $IIMDA,29.8,I,1.01,B,12.4,C,,C,94.4,,,C,,T,,M,,N,,M*17
20220704 040209+00:00 $HCHDT,265,T*36
20220704 040209+00:00 $GPRMC,040204,A,4938.7600,N,12617.0700,W,9,265,040722,12.3,E,A,V*49
20220704 040209+00:00 $WIMWV,345.39,R,20.2,N,A*2B
20220704 040211+00:00 $IIMDA,29.8,I,1.01,B,12.4,C,,C,94.3,,,C,,T,,M,,N,,M*10
20220704 040211+00:00 $HCHDT,265.1,T*29
20220704 040211+00:00 $GPRMC,040206,A,4938.7600,N,12617.0796,W,9,266,040722,12.3,E,A,V*47
20220704 040211+00:00 $WIMWV,347.49,R,20.29,N,A*17
20220704 040213+00:00 $IIMDA,29.8,I,1.01,B,12.4,C,,C,94.4,,,C,,T,,M,,N,,M*17
20220704 040213+00:00 $HCHDT,265.3,T*2B
20220704 040213+00:00 $GPRMC,040208,A,4938.7600,N,12617.0898,W,9,266,040722,12.3,E,A,V*48
20220704 040213+00:00 $WIMWV,346.29,R,19.59,N,A*1D
20220704 040215+00:00 $IIMDA,29.8,I,1.01,B,12.4,C,,C,94.4,,,C,,T,,M,,N,,M*17
20220704 040215+00:00 $HCHDT,265.4,T*2C
20220704 040215+00:00 $GPRMC,040210,A,4938.7600,N,12617.0898,W,9,266,040722,12.3,E,A,V*41
20220704 040215+00:00 $WIMWV,344.79,R,19.98,N,A*17
20220704 040217+00:00 $IIMDA,29.8,I,1.01,B,12.4,C,,C,94.3,,,C,,T,,M,,N,,M*10
20220704 040217+00:00 $HCHDT,265.4,T*2C
20220704 040217+00:00 $GPRMC,040212,A,4938.7600,N,12617.1000,W,9,267,040722,12.3,E,A,V*4A
20220704 040217+00:00 $WIMWV,346.19,R,19.5,N,A*27
20220704 040219+00:00 $IIMDA,29.8,I,1.01,B,12.3,C,,C,94.3,,,C,,T,,M,,N,,M*17
20220704 040219+00:00 $HCHDT,265.4,T*2C
20220704 040219+00:00 $GPRMC,040214,A,4938.7600,N,12617.1096,W,9,267,040722,12.3,E,A,V*43
20220704 040219+00:00 $WIMWV,342.59,R,18.89,N,A*12
20220704 040221+00:00 $IIMDA,29.8,I,1.01,B,12.3,C,,C,94.3,,,C,,T,,M,,N,,M*17
20220704 040221+00:00 $HCHDT,265.4,T*2C
20220704 040221+00:00 $GPRMC,040216,A,4938.7600,N,12617.1198,W,9,267,040722,12.3,E,A,V*4E
20220704 040221+00:00 $WIMWV,342.79,R,19.59,N,A*1C
20220704 040223+00:00 $IIMDA,29.8,I,1.01,B,12.3,C,,C,94.3,,,C,,T,,M,,N,,M*17
20220704 040223+00:00 $HCHDT,265.2,T*2A
20220704 040223+00:00 $GPRMC,040218,A,4938.7600,N,12617.1198,W,9,267,040722,12.3,E,A,V*40
20220704 040223+00:00 $WIMWV,344.09,R,19.09,N,A*18
20220704 040225+00:00 $IIMDA,29.8,I,1.01,B,12.3,C,,C,94.3,,,C,,T,,M,,N,,M*17
20220704 040225+00:00 $HCHDT,264.8,T*21
20220704 040225+00:00 $GPRMC,040220,A,4938.7600,N,12617.1300,W,9,267,040722,12.3,E,A,V*48
20220704 040225+00:00 $WIMWV,344.49,R,19.5,N,A*20
20220704 040227+00:00 $IIMDA,29.8,I,1.01,B,12.3,C,,C,94.3,,,C,,T,,M,,N,,M*17
20220704 040227+00:00 $HCHDT,264.2,T*2B
20220704 040227+00:00 $GPRMC,040222,A,4938.7600,N,12617.1396,W,9,267,040722,12.3,E,A,V*45
20220704 040227+00:00 $WIMWV,342.79,R,19.89,N,A*11
20220704 040229+00:00 $IIMDA,29.8,I,1.01,B,12.3,C,,C,94.3,,,C,,T,,M,,N,,M*17
20220704 040229+00:00 $HCHDT,263.7,T*29
20220704 040229+00:00 $GPRMC,040224,A,4938.7498,N,12617.1498,W,9,267,040722,12.3,E,A,V*49
20220704 040229+00:00 $WIMWV,344.19,R,19.28,N,A*1A
20220704 040231+00:00 $IIMDA,29.8,I,1.01,B,12.3,C,,C,94.3,,,C,,T,,M,,N,,M*17
20220704 040231+00:00 $HCHDT,263.3,T*2D
20220704 040231+00:00 $GPRMC,040226,A,4938.7498,N,12617.1600,W,9,266,040722,12.3,E,A,V*49
20220704 040231+00:00 $WIMWV,343.79,R,19.38,N,A*1A
20220704 040233+00:00 $IIMDA,29.8,I,1.01,B,12.3,C,,C,94.3,,,C,,T,,M,,N,,M*17
20220704 040233+00:00 $HCHDT,263.4,T*2A
20220704 040233+00:00 $GPRMC,040228,A,4938.7498,N,12617.1600,W,9.1,266,040722,12.3,E,A,V*58
20220704 040233+00:00 $WIMWV,343.39,R,19.69,N,A*1A
20220704 040235+00:00 $IIMDA,29.8,I,1.01,B,12.3,C,,C,94.3,,,C,,T,,M,,N,,M*17
20220704 040235+00:00 $HCHDT,263.7,T*29
20220704 040235+00:00 $GPRMC,040230,A,4938.7498,N,12617.1696,W,9.1,266,040722,12.3,E,A,V*5E
20220704 040235+00:00 $WIMWV,341.99,R,20.39,N,A*1D
20220704 040237+00:00 $IIMDA,29.8,I,1.01,B,12.3,C,,C,94.3,,,C,,T,,M,,N,,M*17
20220704 040237+00:00 $HCHDT,263.8,T*26
20220704 040237+00:00 $GPRMC,040232,A,4938.7498,N,12617.1798,W,9.1,265,040722,12.3,E,A,V*50
20220704 040237+00:00 $WIMWV,342.59,R,19.79,N,A*1C
20220704 040239+00:00 $IIMDA,29.8,I,1.01,B,12.3,C,,C,94.3,,,C,,T,,M,,N,,M*17
20220704 040239+00:00 $HCHDT,263.9,T*27
20220704 040239+00:00 $GPRMC,040234,A,4938.7498,N,12617.1900,W,9.1,265,040722,12.3,E,A,V*59
20220704 040239+00:00 $WIMWV,341.89,R,20.29,N,A*1D
20220704 040241+00:00 $IIMDA,29.8,I,1.01,B,12.3,C,,C,94.3,,,C,,T,,M,,N,,M*17
20220704 040241+00:00 $HCHDT,264.1,T*28
20220704 040241+00:00 $GPRMC,040236,A,4938.7498,N,12617.1900,W,9.1,265,040722,12.3,E,A,V*5B
20220704 040241+00:00 $WIMWV,342.09,R,19.5,N,A*22
20220704 040243+00:00 $IIMDA,29.8,I,1.01,B,12.3,C,,C,94.3,,,C,,T,,M,,N,,M*17
20220704 040243+00:00 $HCHDT,264.1,T*28
20220704 040243+00:00 $GPRMC,040238,A,4938.7498,N,12617.1996,W,9.19,265,040722,12.3,E,A,V*63
20220704 040243+00:00 $WIMWV,343.39,R,19.79,N,A*1B
20220704 040245+00:00 $IIMDA,29.8,I,1.01,B,12.3,C,,C,94.3,,,C,,T,,M,,N,,M*17
20220704 040245+00:00 $HCHDT,264.2,T*2B
20220704 040245+00:00 $GPRMC,040240,A,4938.7498,N,12617.2098,W,9.19,265,040722,12.3,E,A,V*68
20220704 040245+00:00 $WIMWV,344.99,R,19.59,N,A*14
20220704 040247+00:00 $IIMDA,29.8,I,1.01,B,12.3,C,,C,94.3,,,C,,T,,M,,N,,M*17
20220704 040247+00:00 $HCHDT,264.2,T*2B
20220704 040247+00:00 $GPRMC,040242,A,4938.7498,N,12617.2200,W,9.19,265,040722,12.3,E,A,V*69
20220704 040247+00:00 $WIMWV,344.19,R,21.29,N,A*10
20220704 040249+00:00 $IIMDA,29.8,I,1.01,B,12.3,C,,C,94.3,,,C,,T,,M,,N,,M*17
20220704 040249+00:00 $HCHDT,264.2,T*2B
20220704 040249+00:00 $GPRMC,040244,A,4938.7498,N,12617.2296,W,9.19,265,040722,12.3,E,A,V*60
20220704 040249+00:00 $WIMWV,344.39,R,19.98,N,A*13
20220704 040251+00:00 $IIMDA,29.8,I,1.01,B,12.3,C,,C,94.3,,,C,,T,,M,,N,,M*17
20220704 040251+00:00 $HCHDT,264.2,T*2B
20220704 040251+00:00 $GPRMC,040246,A,4938.7498,N,12617.2296,W,9.19,265,040722,12.3,E,A,V*62
20220704 040251+00:00 $WIMWV,348.99,R,17.88,N,A*1A
20220704 040253+00:00 $IIMDA,29.8,I,1.01,B,12.3,C,,C,94.3,,,C,,T,,M,,N,,M*17
20220704 040253+00:00 $HCHDT,264.2,T*2B
20220704 040253+00:00 $GPRMC,040248,A,4938.7498,N,12617.2398,W,9.19,265,040722,12.3,E,A,V*63
20220704 040253+00:00 $WIMWV,345.29,R,18.1,N,A*22
20220704 040255+00:00 $IIMDA,29.8,I,1.01,B,12.3,C,,C,94.3,,,C,,T,,M,,N,,M*17
20220704 040255+00:00 $HCHDT,264.1,T*28
20220704 040255+00:00 $GPRMC,040250,A,4938.7498,N,12617.2500,W,9.29,265,040722,12.3,E,A,V*6E
20220704 040255+00:00 $WIMWV,342.99,R,20.59,N,A*18
20220704 040257+00:00 $IIMDA,29.8,I,1.01,B,12.3,C,,C,94.3,,,C,,T,,M,,N,,M*17
20220704 040257+00:00 $HCHDT,264,T*37
20220704 040257+00:00 $GPRMC,040252,A,4938.7498,N,12617.2596,W,9.29,265,040722,12.3,E,A,V*63
20220704 040257+00:00 $WIMWV,344.39,R,19.98,N,A*13
20220704 040259+00:00 $IIMDA,29.8,I,1.01,B,12.3,C,,C,94.4,,,C,,T,,M,,N,,M*10
20220704 040259+00:00 $HCHDT,263.9,T*27
20220704 040259+00:00 $GPRMC,040254,A,4938.7498,N,12617.2698,W,9.29,265,040722,12.3,E,A,V*68
20220704 040259+00:00 $WIMWV,342.49,R,19.69,N,A*1C
20220704 040301+00:00 $IIMDA,29.8,I,1.01,B,12.3,C,,C,94.3,,,C,,T,,M,,N,,M*17
20220704 040301+00:00 $HCHDT,263.9,T*27
20220704 040301+00:00 $GPRMC,040256,A,4938.7498,N,12617.2698,W,9.29,265,040722,12.3,E,A,V*6A
20220704 040301+00:00 $WIMWV,344.09,R,19.59,N,A*1D
20220704 040303+00:00 $IIMDA,29.8,I,1.01,B,12.3,C,,C,94.3,,,C,,T,,M,,N,,M*17
20220704 040303+00:00 $HCHDT,263.8,T*26
20220704 040303+00:00 $GPRMC,040258,A,4938.7498,N,12617.2800,W,9.29,265,040722,12.3,E,A,V*6B
20220704 040303+00:00 $WIMWV,343.69,R,18.89,N,A*10
20220704 040305+00:00 $IIMDA,29.8,I,1.01,B,12.3,C,,C,94.3,,,C,,T,,M,,N,,M*17
20220704 040305+00:00 $HCHDT,263.7,T*29
20220704 040305+00:00 $GPRMC,040300,A,4938.7498,N,12617.2896,W,9.29,265,040722,12.3,E,A,V*68
20220704 040305+00:00 $WIMWV,344.09,R,19.79,N,A*1F
20220704 040307+00:00 $IIMDA,29.8,I,1.01,B,12.3,C,,C,94.3,,,C,,T,,M,,N,,M*17
20220704 040307+00:00 $HCHDT,263.7,T*29
20220704 040307+00:00 $GPRMC,040302,A,4938.7498,N,12617.2998,W,9.29,265,040722,12.3,E,A,V*65
20220704 040307+00:00 $WIMWV,344.99,R,18.19,N,A*11
20220704 040309+00:00 $IIMDA,29.8,I,1.01,B,12.3,C,,C,94.3,,,C,,T,,M,,N,,M*17
20220704 040309+00:00 $HCHDT,263.7,T*29
20220704 040309+00:00 $GPRMC,040304,A,4938.7498,N,12617.3100,W,9.29,265,040722,12.3,E,A,V*6B
20220704 040309+00:00 $WIMWV,340.99,R,18.49,N,A*10
20220704 040311+00:00 $IIMDA,29.8,I,1.01,B,12.3,C,,C,94.3,,,C,,T,,M,,N,,M*17
20220704 040311+00:00 $HCHDT,263.7,T*29
20220704 040311+00:00 $GPRMC,040306,A,4938.7498,N,12617.3100,W,9.29,265,040722,12.3,E,A,V*69
20220704 040311+00:00 $WIMWV,340.29,R,18.1,N,A*27
20220704 040313+00:00 $IIMDA,29.8,I,1.01,B,12.3,C,,C,94.3,,,C,,T,,M,,N,,M*17
20220704 040313+00:00 $HCHDT,263.7,T*29
20220704 040313+00:00 $GPRMC,040308,A,4938.7396,N,12617.3196,W,9.29,265,040722,12.3,E,A,V*61
20220704 040313+00:00 $WIMWV,340.29,R,18.8,N,A*2E
20220704 040315+00:00 $IIMDA,29.8,I,1.01,B,12.3,C,,C,94.3,,,C,,T,,M,,N,,M*17
20220704 040315+00:00 $HCHDT,263.7,T*29
20220704 040315+00:00 $GPRMC,040310,A,4938.7396,N,12617.3298,W,9.29,265,040722,12.3,E,A,V*65
20220704 040315+00:00 $WIMWV,340.39,R,19.69,N,A*19
20220704 040317+00:00 $IIMDA,29.8,I,1.01,B,12.3,C,,C,94.4,,,C,,T,,M,,N,,M*10
20220704 040317+00:00 $HCHDT,263.8,T*26
20220704 040317+00:00 $GPRMC,040312,A,4938.7396,N,12617.3400,W,9.29,265,040722,12.3,E,A,V*60
20220704 040317+00:00 $WIMWV,339.89,R,19.19,N,A*1B
20220704 040319+00:00 $IIMDA,29.8,I,1.01,B,12.3,C,,C,94.4,,,C,,T,,M,,N,,M*10
20220704 040319+00:00 $HCHDT,263.8,T*26
20220704 040319+00:00 $GPRMC,040314,A,4938.7396,N,12617.3400,W,9.29,265,040722,12.3,E,A,V*66
20220704 040319+00:00 $WIMWV,339.19,R,19.5,N,A*2F
20220704 040321+00:00 $IIMDA,29.8,I,1.01,B,12.3,C,,C,94.4,,,C,,T,,M,,N,,M*10
20220704 040321+00:00 $HCHDT,263.9,T*27
20220704 040321+00:00 $GPRMC,040316,A,4938.7396,N,12617.3496,W,9.29,265,040722,12.3,E,A,V*6B
20220704 040321+00:00 $WIMWV,343.49,R,18.8,N,A*2B
20220704 040323+00:00 $IIMDA,29.8,I,1.01,B,12.3,C,,C,94.4,,,C,,T,,M,,N,,M*10
20220704 040323+00:00 $HCHDT,264,T*37
20220704 040323+00:00 $GPRMC,040318,A,4938.7396,N,12617.3598,W,9.29,265,040722,12.3,E,A,V*6A
20220704 040323+00:00 $WIMWV,343.69,R,19.28,N,A*1A
20220704 040325+00:00 $IIMDA,29.8,I,1.01,B,12.3,C,,C,94.4,,,C,,T,,M,,N,,M*10
20220704 040325+00:00 $HCHDT,264,T*37
20220704 040325+00:00 $GPRMC,040320,A,4938.7396,N,12617.3700,W,9.29,265,040722,12.3,E,A,V*62
20220704 040325+00:00 $WIMWV,343.59,R,18.68,N,A*1C
20220704 040327+00:00 $IIMDA,29.8,I,1.01,B,12.3,C,,C,94.4,,,C,,T,,M,,N,,M*10
20220704 040327+00:00 $HCHDT,264,T*37
20220704 040327+00:00 $GPRMC,040322,A,4938.7396,N,12617.3796,W,9.29,265,040722,12.3,E,A,V*6F
20220704 040327+00:00 $WIMWV,342.29,R,17.88,N,A*1B
20220704 040329+00:00 $IIMDA,29.8,I,1.01,B,12.3,C,,C,94.4,,,C,,T,,M,,N,,M*10
20220704 040329+00:00 $HCHDT,264,T*37
20220704 040329+00:00 $GPRMC,040324,A,4938.7396,N,12617.3796,W,9.29,265,040722,12.3,E,A,V*69
20220704 040329+00:00 $WIMWV,342.09,R,18.8,N,A*2E
20220704 040331+00:00 $IIMDA,29.8,I,1.01,B,12.3,C,,C,94.4,,,C,,T,,M,,N,,M*10
20220704 040331+00:00 $HCHDT,264,T*37
20220704 040331+00:00 $GPRMC,040326,A,4938.7396,N,12617.3898,W,9.29,265,040722,12.3,E,A,V*6A
20220704 040331+00:00 $WIMWV,342.09,R,18.99,N,A*16
20220704 040333+00:00 $IIMDA,29.8,I,1.01,B,12.3,C,,C,94.4,,,C,,T,,M,,N,,M*10
20220704 040333+00:00 $HCHDT,264,T*37
20220704 040333+00:00 $GPRMC,040328,A,4938.7396,N,12617.4000,W,9.29,265,040722,12.3,E,A,V*6A
20220704 040333+00:00 $WIMWV,341.49,R,18.19,N,A*19
20220704 040335+00:00 $IIMDA,29.8,I,1.01,B,12.3,C,,C,94.4,,,C,,T,,M,,N,,M*10
20220704 040335+00:00 $HCHDT,264,T*37
20220704 040335+00:00 $GPRMC,040330,A,4938.7396,N,12617.4096,W,9.29,265,040722,12.3,E,A,V*6C
20220704 040335+00:00 $WIMWV,339.49,R,19.19,N,A*17
20220704 040337+00:00 $IIMDA,29.8,I,1.01,B,12.3,C,,C,94.4,,,C,,T,,M,,N,,M*10
20220704 040337+00:00 $HCHDT,263.9,T*27
20220704 040337+00:00 $GPRMC,040332,A,4938.7396,N,12617.4198,W,9.29,265,040722,12.3,E,A,V*61
20220704 040337+00:00 $WIMWV,341.19,R,18.8,N,A*2C
20220704 040339+00:00 $IIMDA,29.8,I,1.01,B,12.3,C,,C,94.4,,,C,,T,,M,,N,,M*10
20220704 040339+00:00 $HCHDT,263.8,T*26
20220704 040339+00:00 $GPRMC,040334,A,4938.7396,N,12617.4198,W,9.29,265,040722,12.3,E,A,V*67
20220704 040339+00:00 $WIMWV,340.59,R,18.58,N,A*1C
20220704 040341+00:00 $IIMDA,29.8,I,1.01,B,12.3,C,,C,94.4,,,C,,T,,M,,N,,M*10
20220704 040341+00:00 $HCHDT,263.7,T*29
20220704 040341+00:00 $GPRMC,040336,A,4938.7396,N,12617.4300,W,9.29,264,040722,12.3,E,A,V*67
20220704 040341+00:00 $WIMWV,343.79,R,18.19,N,A*18
20220704 040343+00:00 $IIMDA,29.8,I,1.01,B,12.3,C,,C,94.4,,,C,,T,,M,,N,,M*10
20220704 040343+00:00 $HCHDT,263.6,T*28
20220704 040343+00:00 $GPRMC,040338,A,4938.7396,N,12617.4396,W,9.29,264,040722,12.3,E,A,V*66
20220704 040343+00:00 $WIMWV,346.59,R,18.58,N,A*1A
20220704 040345+00:00 $IIMDA,29.8,I,1.01,B,12.3,C,,C,94.4,,,C,,T,,M,,N,,M*10
20220704 040345+00:00 $HCHDT,263.3,T*2D
20220704 040345+00:00 $GPRMC,040340,A,4938.7396,N,12617.4498,W,9.29,264,040722,12.3,E,A,V*60
20220704 040345+00:00 $WIMWV,346.19,R,18.8,N,A*2B
20220704 040347+00:00 $IIMDA,29.8,I,1.01,B,12.3,C,,C,94.4,,,C,,T,,M,,N,,M*10
20220704 040347+00:00 $HCHDT,263.1,T*2F
20220704 040347+00:00 $GPRMC,040342,A,4938.7396,N,12617.4600,W,9.19,264,040722,12.3,E,A,V*62
20220704 040347+00:00 $WIMWV,346.39,R,17.69,N,A*11
20220704 040349+00:00 $IIMDA,29.8,I,1.01,B,12.3,C,,C,94.4,,,C,,T,,M,,N,,M*10
20220704 040349+00:00 $HCHDT,262.9,T*26
20220704 040349+00:00 $GPRMC,040344,A,4938.7396,N,12617.4600,W,9.19,264,040722,12.3,E,A,V*64
20220704 040349+00:00 $WIMWV,348.89,R,18.58,N,A*19
20220704 040351+00:00 $IIMDA,29.8,I,1.01,B,12.3,C,,C,94.4,,,C,,T,,M,,N,,M*10
20220704 040351+00:00 $HCHDT,262.8,T*27
20220704 040351+00:00 $GPRMC,040346,A,4938.7396,N,12617.4696,W,9.19,264,040722,12.3,E,A,V*69
20220704 040351+00:00 $WIMWV,342.99,R,17.59,N,A*1C
20220704 040353+00:00 $IIMDA,29.8,I,1.01,B,12.3,C,,C,94.4,,,C,,T,,M,,N,,M*10
20220704 040353+00:00 $HCHDT,262.8,T*27
20220704 040353+00:00 $GPRMC,040348,A,4938.7300,N,12617.4798,W,9.19,264,040722,12.3,E,A,V*67
20220704 040353+00:00 $WIMWV,357.09,R,13.49,N,A*14
20220704 040355+00:00 $IIMDA,29.8,I,1.01,B,12.3,C,,C,94.4,,,C,,T,,M,,N,,M*10
20220704 040355+00:00 $HCHDT,262.8,T*27
20220704 040355+00:00 $GPRMC,040350,A,4938.7300,N,12617.4900,W,9.19,264,040722,12.3,E,A,V*61
20220704 040355+00:00 $WIMWV,346.79,R,16.99,N,A*1B
20220704 040357+00:00 $IIMDA,29.8,I,1.01,B,12.3,C,,C,94.5,,,C,,T,,M,,N,,M*11
20220704 040357+00:00 $HCHDT,262.8,T*27
20220704 040357+00:00 $GPRMC,040352,A,4938.7300,N,12617.4900,W,9.19,264,040722,12.3,E,A,V*63
20220704 040357+00:00 $WIMWV,358.19,R,13.49,N,A*1A
20220704 040359+00:00 $IIMDA,29.8,I,1.01,B,12.3,C,,C,94.5,,,C,,T,,M,,N,,M*11
20220704 040359+00:00 $HCHDT,262.8,T*27
20220704 040359+00:00 $GPRMC,040354,A,4938.7300,N,12617.4996,W,9.19,264,040722,12.3,E,A,V*6A
20220704 040359+00:00 $WIMWV,347.09,R,16.29,N,A*16
20220704 040401+00:00 $IIMDA,29.8,I,1.01,B,12.4,C,,C,94.5,,,C,,T,,M,,N,,M*16
20220704 040401+00:00 $HCHDT,263,T*30
20220704 040401+00:00 $GPRMC,040356,A,4938.7300,N,12617.5098,W,9.1,264,040722,12.3,E,A,V*57
20220704 040401+00:00 $WIMWV,340.09,R,18.19,N,A*1C
20220704 040403+00:00 $IIMDA,29.9,I,1.011,B,12.4,C,,C,94.5,,,C,,T,,M,,N,,M*26
20220704 040403+00:00 $HCHDT,263,T*30
20220704 040403+00:00 $GPRMC,040358,A,4938.7300,N,12617.5200,W,9.1,264,040722,12.3,E,A,V*5A
20220704 040403+00:00 $WIMWV,339.89,R,17.09,N,A*14
20220704 040405+00:00 $IIMDA,29.9,I,1.011,B,12.4,C,,C,94.6,,,C,,T,,M,,N,,M*25
20220704 040405+00:00 $HCHDT,262.9,T*26
20220704 040405+00:00 $GPRMC,040400,A,4938.7300,N,12617.5296,W,9.1,264,040722,12.3,E,A,V*5F
20220704 040405+00:00 $WIMWV,344.09,R,16.99,N,A*1E
20220704 040407+00:00 $IIMDA,29.9,I,1.011,B,12.4,C,,C,94.6,,,C,,T,,M,,N,,M*25
20220704 040407+00:00 $HCHDT,262.9,T*26
20220704 040407+00:00 $GPRMC,040402,A,4938.7300,N,12617.5296,W,9.1,264,040722,12.3,E,A,V*5D
20220704 040407+00:00 $WIMWV,347.49,R,16,N,A*37
20220704 040409+00:00 $IIMDA,29.8,I,1.01,B,12.4,C,,C,94.7,,,C,,T,,M,,N,,M*14
20220704 040409+00:00 $HCHDT,262.8,T*27
20220704 040409+00:00 $GPRMC,040404,A,4938.7300,N,12617.5398,W,9.1,264,040722,12.3,E,A,V*54
20220704 040409+00:00 $WIMWV,345.69,R,18.19,N,A*1F
20220704 040411+00:00 $IIMDA,29.8,I,1.01,B,12.4,C,,C,94.7,,,C,,T,,M,,N,,M*14
20220704 040411+00:00 $HCHDT,262.6,T*29
20220704 040411+00:00 $GPRMC,040406,A,4938.7300,N,12617.5500,W,9,264,040722,12.3,E,A,V*4E
20220704 040411+00:00 $WIMWV,344.39,R,18.39,N,A*19
20220704 040413+00:00 $IIMDA,29.8,I,1.01,B,12.4,C,,C,94.7,,,C,,T,,M,,N,,M*14
20220704 040413+00:00 $HCHDT,262.3,T*2C
20220704 040413+00:00 $GPRMC,040408,A,4938.7300,N,12617.5596,W,9,264,040722,12.3,E,A,V*4F
20220704 040413+00:00 $WIMWV,346.39,R,17.98,N,A*1F
20220704 040415+00:00 $IIMDA,29.8,I,1.01,B,12.4,C,,C,94.8,,,C,,T,,M,,N,,M*1B
20220704 040415+00:00 $HCHDT,261.8,T*24
20220704 040415+00:00 $GPRMC,040410,A,4938.7300,N,12617.5596,W,9,264,040722,12.3,E,A,V*46
20220704 040415+00:00 $WIMWV,350.59,R,16,N,A*30
20220704 040417+00:00 $IIMDA,29.8,I,1.01,B,12.4,C,,C,94.8,,,C,,T,,M,,N,,M*1B
20220704 040417+00:00 $HCHDT,261.6,T*2A
20220704 040417+00:00 $GPRMC,040412,A,4938.7300,N,12617.5698,W,8.9,264,040722,12.3,E,A,V*5F
20220704 040417+00:00 $WIMWV,349.49,R,17.79,N,A*18
20220704 040419+00:00 $IIMDA,29.8,I,1.01,B,12.4,C,,C,94.8,,,C,,T,,M,,N,,M*1B
20220704 040419+00:00 $HCHDT,261.4,T*28
20220704 040419+00:00 $GPRMC,040414,A,4938.7300,N,12617.5800,W,8.9,264,040722,12.3,E,A,V*56
20220704 040419+00:00 $WIMWV,345.99,R,17.88,N,A*17
20220704 040421+00:00 $IIMDA,29.8,I,1.01,B,12.4,C,,C,94.8,,,C,,T,,M,,N,,M*1B
20220704 040421+00:00 $HCHDT,261.1,T*2D
20220704 040421+00:00 $GPRMC,040416,A,4938.7300,N,12617.5896,W,8.9,263,040722,12.3,E,A,V*5C
20220704 040421+00:00 $WIMWV,351.79,R,16.99,N,A*1D
20220704 040423+00:00 $IIMDA,29.8,I,1.01,B,12.4,C,,C,94.8,,,C,,T,,M,,N,,M*1B
20220704 040423+00:00 $HCHDT,260.8,T*25
20220704 040423+00:00 $GPRMC,040418,A,4938.7300,N,12617.5896,W,8.9,263,040722,12.3,E,A,V*52
20220704 040423+00:00 $WIMWV,343.29,R,18.1,N,A*24
20220704 040425+00:00 $IIMDA,29.8,I,1.01,B,12.4,C,,C,94.7,,,C,,T,,M,,N,,M*14
20220704 040425+00:00 $HCHDT,260.6,T*2B
20220704 040425+00:00 $GPRMC,040420,A,4938.7300,N,12617.5998,W,8.81,263,040722,12.3,E,A,V*66
20220704 040425+00:00 $WIMWV,350.59,R,14.48,N,A*10
20220704 040427+00:00 $IIMDA,29.8,I,1.01,B,12.4,C,,C,94.7,,,C,,T,,M,,N,,M*14
20220704 040427+00:00 $HCHDT,260.6,T*2B
20220704 040427+00:00 $GPRMC,040422,A,4938.7300,N,12617.6100,W,8.81,263,040722,12.3,E,A,V*6E
20220704 040427+00:00 $WIMWV,351.89,R,16.79,N,A*1C
20220704 040429+00:00 $IIMDA,29.8,I,1.01,B,12.4,C,,C,94.7,,,C,,T,,M,,N,,M*14
20220704 040429+00:00 $HCHDT,260.5,T*28
20220704 040429+00:00 $GPRMC,040424,A,4938.7198,N,12617.6196,W,8.81,263,040722,12.3,E,A,V*64
20220704 040429+00:00 $WIMWV,359.19,R,13.78,N,A*19
20220704 040431+00:00 $IIMDA,29.9,I,1.011,B,12.4,C,,C,94.7,,,C,,T,,M,,N,,M*24
20220704 040431+00:00 $HCHDT,260.5,T*28
20220704 040431+00:00 $GPRMC,040426,A,4938.7198,N,12617.6196,W,8.81,263,040722,12.3,E,A,V*66
20220704 040431+00:00 $WIMWV,80.6,R,7,N,A*04
20220704 040433+00:00 $IIMDA,29.9,I,1.011,B,12.4,C,,C,94.8,,,C,,T,,M,,N,,M*2B
20220704 040433+00:00 $HCHDT,260.5,T*28
20220704 040433+00:00 $GPRMC,040428,A,4938.7198,N,12617.6298,W,8.71,263,040722,12.3,E,A,V*6A
20220704 040433+00:00 $WIMWV,0.3,R,15.49,N,A*29
20220704 040435+00:00 $IIMDA,29.9,I,1.011,B,12.4,C,,C,94.8,,,C,,T,,M,,N,,M*2B
20220704 040435+00:00 $HCHDT,260.5,T*28
20220704 040435+00:00 $GPRMC,040430,A,4938.7198,N,12617.6400,W,8.71,263,040722,12.3,E,A,V*64
20220704 040435+00:00 $WIMWV,0.4,R,13.49,N,A*28
20220704 040437+00:00 $IIMDA,29.9,I,1.011,B,12.4,C,,C,94.8,,,C,,T,,M,,N,,M*2B
20220704 040437+00:00 $HCHDT,260.6,T*2B
20220704 040437+00:00 $GPRMC,040432,A,4938.7198,N,12617.6496,W,8.71,263,040722,12.3,E,A,V*69
20220704 040437+00:00 $WIMWV,2.4,R,12.69,N,A*29
20220704 040439+00:00 $IIMDA,29.9,I,1.011,B,12.4,C,,C,94.8,,,C,,T,,M,,N,,M*2B
20220704 040439+00:00 $HCHDT,260.5,T*28
20220704 040439+00:00 $GPRMC,040434,A,4938.7198,N,12617.6496,W,8.71,263,040722,12.3,E,A,V*6F
20220704 040439+00:00 $WIMWV,355.39,R,16.29,N,A*16
20220704 040441+00:00 $IIMDA,29.9,I,1.011,B,12.4,C,,C,94.9,,,C,,T,,M,,N,,M*2A
20220704 040441+00:00 $HCHDT,260.4,T*29
20220704 040441+00:00 $GPRMC,040436,A,4938.7198,N,12617.6598,W,8.71,263,040722,12.3,E,A,V*62
20220704 040441+00:00 $WIMWV,347.19,R,17.18,N,A*14
20220704 040443+00:00 $IIMDA,29.8,I,1.01,B,12.4,C,,C,94.8,,,C,,T,,M,,N,,M*1B
20220704 040443+00:00 $HCHDT,260.3,T*2E
20220704 040443+00:00 $GPRMC,040438,A,4938.7198,N,12617.6700,W,8.71,263,040722,12.3,E,A,V*6F
20220704 040443+00:00 $WIMWV,346.29,R,17.49,N,A*12
20220704 040445+00:00 $IIMDA,29.8,I,1.01,B,12.4,C,,C,94.9,,,C,,T,,M,,N,,M*1A
20220704 040445+00:00 $HCHDT,260.1,T*2C
20220704 040445+00:00 $GPRMC,040440,A,4938.7198,N,12617.6700,W,8.71,263,040722,12.3,E,A,V*60
20220704 040445+00:00 $WIMWV,354.99,R,17.18,N,A*1E
20220704 040447+00:00 $IIMDA,29.8,I,1.01,B,12.4,C,,C,94.9,,,C,,T,,M,,N,,M*1A
20220704 040447+00:00 $HCHDT,260,T*33
20220704 040447+00:00 $GPRMC,040442,A,4938.7198,N,12617.6796,W,8.71,263,040722,12.3,E,A,V*6D
20220704 040447+00:00 $WIMWV,345.99,R,18.8,N,A*20
20220704 040449+00:00 $IIMDA,29.8,I,1.01,B,12.4,C,,C,94.9,,,C,,T,,M,,N,,M*1A
20220704 040449+00:00 $HCHDT,259.9,T*2E
20220704 040449+00:00 $GPRMC,040444,A,4938.7198,N,12617.6898,W,8.71,262,040722,12.3,E,A,V*6B
20220704 040449+00:00 $WIMWV,345.39,R,18.1,N,A*23
20220704 040451+00:00 $IIMDA,29.8,I,1.01,B,12.4,C,,C,94.9,,,C,,T,,M,,N,,M*1A
20220704 040451+00:00 $HCHDT,259.9,T*2E
20220704 040451+00:00 $GPRMC,040446,A,4938.7198,N,12617.7000,W,8.59,262,040722,12.3,E,A,V*6B
20220704 040451+00:00 $WIMWV,345.49,R,19.38,N,A*1F
20220704 040453+00:00 $IIMDA,29.8,I,1.01,B,12.4,C,,C,94.9,,,C,,T,,M,,N,,M*1A
20220704 040453+00:00 $HCHDT,259.9,T*2E
20220704 040453+00:00 $GPRMC,040448,A,4938.7198,N,12617.7000,W,8.59,262,040722,12.3,E,A,V*65
20220704 040453+00:00 $WIMWV,345.49,R,18.19,N,A*1D
20220704 040455+00:00 $IIMDA,29.8,I,1.01,B,12.4,C,,C,94.9,,,C,,T,,M,,N,,M*1A
20220704 040455+00:00 $HCHDT,260,T*33
20220704 040455+00:00 $GPRMC,040450,A,4938.7198,N,12617.7096,W,8.59,262,040722,12.3,E,A,V*63
20220704 040455+00:00 $WIMWV,341.89,R,17.4,N,A*26
20220704 040457+00:00 $IIMDA,29.8,I,1.01,B,12.4,C,,C,94.9,,,C,,T,,M,,N,,M*1A
20220704 040457+00:00 $HCHDT,260,T*33
20220704 040457+00:00 $GPRMC,040452,A,4938.7198,N,12617.7198,W,8.59,262,040722,12.3,E,A,V*6E
20220704 040457+00:00 $WIMWV,7.3,R,10.89,N,A*27
20220704 040459+00:00 $IIMDA,29.8,I,1.01,B,12.4,C,,C,94.9,,,C,,T,,M,,N,,M*1A
20220704 040459+00:00 $HCHDT,260.1,T*2C
20220704 040459+00:00 $GPRMC,040454,A,4938.7198,N,12617.7300,W,8.59,262,040722,12.3,E,A,V*6B
20220704 040459+00:00 $WIMWV,5.9,R,14,N,A*04
20220704 040501+00:00 $IIMDA,29.8,I,1.01,B,12.4,C,,C,94.9,,,C,,T,,M,,N,,M*1A
20220704 040501+00:00 $HCHDT,260.1,T*2C
20220704 040501+00:00 $GPRMC,040456,A,4938.7096,N,12617.7300,W,8.59,262,040722,12.3,E,A,V*66
20220704 040501+00:00 $WIMWV,22.6,R,11.78,N,A*1A
20220704 040503+00:00 $IIMDA,29.8,I,1.01,B,12.4,C,,C,94.9,,,C,,T,,M,,N,,M*1A
20220704 040503+00:00 $HCHDT,260.1,T*2C
20220704 040503+00:00 $GPRMC,040458,A,4938.7096,N,12617.7396,W,8.59,262,040722,12.3,E,A,V*67
20220704 040503+00:00 $WIMWV,358.09,R,14.09,N,A*18
20220704 040505+00:00 $IIMDA,29.8,I,1.01,B,12.4,C,,C,94.9,,,C,,T,,M,,N,,M*1A
20220704 040505+00:00 $HCHDT,260,T*33
20220704 040505+00:00 $GPRMC,040500,A,4938.7096,N,12617.7498,W,8.59,262,040722,12.3,E,A,V*62
20220704 040505+00:00 $WIMWV,9.3,R,13.9,N,A*12
20220704 040507+00:00 $IIMDA,29.8,I,1.01,B,12.4,C,,C,94.8,,,C,,T,,M,,N,,M*1B
20220704 040507+00:00 $HCHDT,259.9,T*2E
20220704 040507+00:00 $GPRMC,040502,A,4938.7096,N,12617.7600,W,8.59,262,040722,12.3,E,A,V*63
20220704 040507+00:00 $WIMWV,0.3,R,15.78,N,A*2B
20220704 040509+00:00 $IIMDA,29.8,I,1.01,B,12.4,C,,C,94.9,,,C,,T,,M,,N,,M*1A
20220704 040509+00:00 $HCHDT,259.8,T*2F
20220704 040509+00:00 $GPRMC,040504,A,4938.7096,N,12617.7600,W,8.59,262,040722,12.3,E,A,V*65
20220704 040509+00:00 $WIMWV,8.1,R,14.38,N,A*24
20220704 040511+00:00 $IIMDA,29.8,I,1.01,B,12.4,C,,C,94.8,,,C,,T,,M,,N,,M*1B
20220704 040511+00:00 $HCHDT,259.6,T*21
20220704 040511+00:00 $GPRMC,040506,A,4938.7096,N,12617.7696,W,8.71,262,040722,12.3,E,A,V*62
20220704 040511+00:00 $WIMWV,23.9,R,9.58,N,A*2F
20220704 040513+00:00 $IIMDA,29.9,I,1.011,B,12.4,C,,C,94.8,,,C,,T,,M,,N,,M*2B
20220704 040513+00:00 $HCHDT,259.5,T*22
20220704 040513+00:00 $GPRMC,040508,A,4938.7096,N,12617.7798,W,8.71,262,040722,12.3,E,A,V*63
20220704 040513+00:00 $WIMWV,32.1,R,9.68,N,A*24
20220704 040515+00:00 $IIMDA,29.9,I,1.011,B,12.4,C,,C,94.8,,,C,,T,,M,,N,,M*2B
20220704 040515+00:00 $HCHDT,259.3,T*24
20220704 040515+00:00 $GPRMC,040510,A,4938.7096,N,12617.7798,W,8.71,262,040722,12.3,E,A,V*6A
20220704 040515+00:00 $WIMWV,11.1,R,14.6,N,A*21
20220704 040517+00:00 $IIMDA,29.8,I,1.01,B,12.4,C,,C,94.8,,,C,,T,,M,,N,,M*1B
20220704 040517+00:00 $HCHDT,259.3,T*24
20220704 040517+00:00 $GPRMC,040512,A,4938.7096,N,12617.7900,W,8.71,262,040722,12.3,E,A,V*67
20220704 040517+00:00 $WIMWV,0.19,R,15.3,N,A*2C
20220704 040519+00:00 $IIMDA,29.8,I,1.01,B,12.4,C,,C,94.8,,,C,,T,,M,,N,,M*1B
20220704 040519+00:00 $HCHDT,259.3,T*24
20220704 040519+00:00 $GPRMC,040514,A,4938.7096,N,12617.7996,W,8.71,262,040722,12.3,E,A,V*6E
20220704 040519+00:00 $WIMWV,359.29,R,15.49,N,A*1E
20220704 040521+00:00 $IIMDA,29.8,I,1.01,B,12.4,C,,C,94.8,,,C,,T,,M,,N,,M*1B
20220704 040521+00:00 $HCHDT,259.3,T*24
20220704 040521+00:00 $GPRMC,040516,A,4938.7096,N,12617.8098,W,8.71,262,040722,12.3,E,A,V*64
20220704 040521+00:00 $WIMWV,9.2,R,15.18,N,A*25
20220704 040523+00:00 $IIMDA,29.9,I,1.011,B,12.4,C,,C,94.8,,,C,,T,,M,,N,,M*2B
20220704 040523+00:00 $HCHDT,259.3,T*24
20220704 040523+00:00 $GPRMC,040518,A,4938.7096,N,12617.8098,W,8.71,262,040722,12.3,E,A,V*6A
20220704 040523+00:00 $WIMWV,9.4,R,11.68,N,A*20
20220704 040525+00:00 $IIMDA,29.9,I,1.011,B,12.4,C,,C,94.7,,,C,,T,,M,,N,,M*24
20220704 040525+00:00 $HCHDT,259.3,T*24
20220704 040525+00:00 $GPRMC,040520,A,4938.7096,N,12617.8200,W,8.71,262,040722,12.3,E,A,V*62
20220704 040525+00:00 $WIMWV,352.29,R,10.09,N,A*14
20220704 040527+00:00 $IIMDA,29.9,I,1.011,B,12.4,C,,C,94.8,,,C,,T,,M,,N,,M*2B
20220704 040527+00:00 $HCHDT,259.3,T*24
20220704 040527+00:00 $GPRMC,040522,A,4938.7096,N,12617.8296,W,8.71,262,040722,12.3,E,A,V*6F
20220704 040527+00:00 $WIMWV,30.8,R,11.49,N,A*15
20220704 040529+00:00 $IIMDA,29.9,I,1.011,B,12.4,C,,C,94.8,,,C,,T,,M,,N,,M*2B
20220704 040529+00:00 $HCHDT,259.3,T*24
20220704 040529+00:00 $GPRMC,040524,A,4938.7096,N,12617.8398,W,8.81,262,040722,12.3,E,A,V*69
20220704 040529+00:00 $WIMWV,19.5,R,12.29,N,A*16
20220704 040531+00:00 $IIMDA,29.9,I,1.011,B,12.4,C,,C,94.8,,,C,,T,,M,,N,,M*2B
20220704 040531+00:00 $HCHDT,259.5,T*22
20220704 040531+00:00 $GPRMC,040526,A,4938.7000,N,12617.8398,W,8.81,262,040722,12.3,E,A,V*64
20220704 040531+00:00 $WIMWV,51,R,9.1,N,A*01
20220704 040533+00:00 $IIMDA,29.9,I,1.011,B,12.4,C,,C,94.8,,,C,,T,,M,,N,,M*2B
20220704 040533+00:00 $HCHDT,259.7,T*20
20220704 040533+00:00 $GPRMC,040528,A,4938.7000,N,12617.8500,W,8.81,262,040722,12.3,E,A,V*6D
20220704 040533+00:00 $WIMWV,14.5,R,11.59,N,A*1F
20220704 040535+00:00 $IIMDA,29.8,I,1.01,B,12.4,C,,C,94.7,,,C,,T,,M,,N,,M*14
20220704 040535+00:00 $HCHDT,259.8,T*2F
20220704 040535+00:00 $GPRMC,040530,A,4938.7000,N,12617.8596,W,8.81,262,040722,12.3,E,A,V*6B
20220704 040535+00:00 $WIMWV,2,R,13.59,N,A*31
20220704 040537+00:00 $IIMDA,29.8,I,1.01,B,12.4,C,,C,94.7,,,C,,T,,M,,N,,M*14
20220704 040537+00:00 $HCHDT,260.1,T*2C
20220704 040537+00:00 $GPRMC,040532,A,4938.7000,N,12617.8698,W,8.81,262,040722,12.3,E,A,V*64
20220704 040537+00:00 $WIMWV,4.5,R,13.39,N,A*2A
20220704 040539+00:00 $IIMDA,29.8,I,1.01,B,12.4,C,,C,94.7,,,C,,T,,M,,N,,M*14
20220704 040539+00:00 $HCHDT,260.4,T*29
20220704 040539+00:00 $GPRMC,040534,A,4938.7000,N,12617.8698,W,8.9,262,040722,12.3,E,A,V*52
20220704 040539+00:00 $WIMWV,5.8,R,15.3,N,A*19
20220704 040541+00:00 $IIMDA,29.9,I,1.011,B,12.4,C,,C,94.7,,,C,,T,,M,,N,,M*24
20220704 040541+00:00 $HCHDT,260.7,T*2A
20220704 040541+00:00 $GPRMC,040536,A,4938.7000,N,12617.8800,W,8.9,262,040722,12.3,E,A,V*5F
20220704 040541+00:00 $WIMWV,24.49,R,8.49,N,A*1D
20220704 040543+00:00 $IIMDA,29.9,I,1.011,B,12.4,C,,C,94.7,,,C,,T,,M,,N,,M*24
20220704 040543+00:00 $HCHDT,261.3,T*2F
20220704 040543+00:00 $GPRMC,040538,A,4938.7000,N,12617.8896,W,8.9,263,040722,12.3,E,A,V*5F
20220704 040543+00:00 $WIMWV,41.89,R,3.09,N,A*1D
20220704 040545+00:00 $IIMDA,29.9,I,1.011,B,12.4,C,,C,94.6,,,C,,T,,M,,N,,M*25
20220704 040545+00:00 $HCHDT,261.4,T*28
20220704 040545+00:00 $GPRMC,040540,A,4938.7000,N,12617.8998,W,8.9,263,040722,12.3,E,A,V*5F
20220704 040545+00:00 $WIMWV,358.99,R,14.19,N,A*10
20220704 040547+00:00 $IIMDA,29.8,I,1.01,B,12.4,C,,C,94.6,,,C,,T,,M,,N,,M*15
20220704 040547+00:00 $HCHDT,261.6,T*2A
20220704 040547+00:00 $GPRMC,040542,A,4938.7000,N,12617.8998,W,9,263,040722,12.3,E,A,V*4B
20220704 040547+00:00 $WIMWV,14.8,R,13.78,N,A*13
20220704 040549+00:00 $IIMDA,29.8,I,1.01,B,12.4,C,,C,94.6,,,C,,T,,M,,N,,M*15
20220704 040549+00:00 $HCHDT,261.7,T*2B
20220704 040549+00:00 $GPRMC,040544,A,4938.7000,N,12617.9100,W,9,263,040722,12.3,E,A,V*45
20220704 040549+00:00 $WIMWV,26.1,R,13.68,N,A*1A
20220704 040551+00:00 $IIMDA,29.8,I,1.01,B,12.4,C,,C,94.6,,,C,,T,,M,,N,,M*15
20220704 040551+00:00 $HCHDT,261.7,T*2B
20220704 040551+00:00 $GPRMC,040546,A,4938.7000,N,12617.9196,W,9,263,040722,12.3,E,A,V*48
20220704 040551+00:00 $WIMWV,11.4,R,14.79,N,A*1C
20220704 040553+00:00 $IIMDA,29.8,I,1.01,B,12.4,C,,C,94.7,,,C,,T,,M,,N,,M*14
20220704 040553+00:00 $HCHDT,261.7,T*2B
20220704 040553+00:00 $GPRMC,040548,A,4938.7000,N,12617.9298,W,9.1,263,040722,12.3,E,A,V*54
20220704 040553+00:00 $WIMWV,61.79,R,9.39,N,A*19
20220704 040555+00:00 $IIMDA,29.8,I,1.01,B,12.4,C,,C,94.6,,,C,,T,,M,,N,,M*15
20220704 040555+00:00 $HCHDT,261.7,T*2B
20220704 040555+00:00 $GPRMC,040550,A,4938.7000,N,12617.9400,W,9.1,263,040722,12.3,E,A,V*5A
20220704 040555+00:00 $WIMWV,2.8,R,11.59,N,A*25
20220704 040557+00:00 $IIMDA,29.8,I,1.01,B,12.4,C,,C,94.6,,,C,,T,,M,,N,,M*15
20220704 040557+00:00 $HCHDT,261.8,T*24
20220704 040557+00:00 $GPRMC,040552,A,4938.7000,N,12617.9400,W,9.1,263,040722,12.3,E,A,V*58
20220704 040557+00:00 $WIMWV,39.1,R,15.69,N,A*13
20220704 040559+00:00 $IIMDA,29.8,I,1.01,B,12.4,C,,C,94.6,,,C,,T,,M,,N,,M*15
20220704 040559+00:00 $HCHDT,261.8,T*24
20220704 040559+00:00 $GPRMC,040554,A,4938.7000,N,12617.9496,W,9.19,264,040722,12.3,E,A,V*6F
20220704 040559+00:00 $WIMWV,23.9,R,10.19,N,A*12
20220704 040601+00:00 $IIMDA,29.8,I,1.01,B,12.4,C,,C,94.6,,,C,,T,,M,,N,,M*15
20220704 040601+00:00 $HCHDT,261.7,T*2B
20220704 040601+00:00 $GPRMC,040556,A,4938.7000,N,12617.9598,W,9.19,263,040722,12.3,E,A,V*65
20220704 040601+00:00 $WIMWV,4.5,R,14.38,N,A*2C
20220704 040603+00:00 $IIMDA,29.8,I,1.01,B,12.4,C,,C,94.6,,,C,,T,,M,,N,,M*15
20220704 040603+00:00 $HCHDT,261.8,T*24
20220704 040603+00:00 $GPRMC,040558,A,4938.7000,N,12617.9700,W,9.19,263,040722,12.3,E,A,V*68
20220704 040603+00:00 $WIMWV,0.7,R,8.79,N,A*12
20220704 040605+00:00 $IIMDA,29.8,I,1.01,B,12.4,C,,C,94.7,,,C,,T,,M,,N,,M*14
20220704 040605+00:00 $HCHDT,261.8,T*24
20220704 040605+00:00 $GPRMC,040600,A,4938.6898,N,12617.9700,W,9.19,263,040722,12.3,E,A,V*6E
20220704 040605+00:00 $WIMWV,13.1,R,14.29,N,A*1E
20220704 040607+00:00 $IIMDA,29.8,I,1.01,B,12.4,C,,C,94.6,,,C,,T,,M,,N,,M*15
20220704 040607+00:00 $HCHDT,261.8,T*24
20220704 040607+00:00 $GPRMC,040602,A,4938.6898,N,12617.9796,W,9.19,264,040722,12.3,E,A,V*64
20220704 040607+00:00 $WIMWV,2.19,R,13.9,N,A*22
20220704 040609+00:00 $IIMDA,29.9,I,1.011,B,12.4,C,,C,94.6,,,C,,T,,M,,N,,M*25
20220704 040609+00:00 $HCHDT,261.8,T*24
20220704 040609+00:00 $GPRMC,040604,A,4938.6898,N,12617.9898,W,9.29,264,040722,12.3,E,A,V*60
20220704 040609+00:00 $WIMWV,53,R,8.98,N,A*32
20220704 040611+00:00 $IIMDA,29.9,I,1.011,B,12.4,C,,C,94.6,,,C,,T,,M,,N,,M*25
20220704 040611+00:00 $HCHDT,261.9,T*25
20220704 040611+00:00 $GPRMC,040606,A,4938.6898,N,12618.0000,W,9.29,264,040722,12.3,E,A,V*6D
20220704 040611+00:00 $WIMWV,25.59,R,14.09,N,A*24
20220704 040613+00:00 $IIMDA,29.8,I,1.01,B,12.4,C,,C,94.7,,,C,,T,,M,,N,,M*14
20220704 040613+00:00 $HCHDT,261.9,T*25
20220704 040613+00:00 $GPRMC,040608,A,4938.6898,N,12618.0096,W,9.29,264,040722,12.3,E,A,V*6C
20220704 040613+00:00 $WIMWV,355.69,R,16.58,N,A*15
20220704 040615+00:00 $IIMDA,29.8,I,1.01,B,12.4,C,,C,94.6,,,C,,T,,M,,N,,M*15
20220704 040615+00:00 $HCHDT,262,T*31
20220704 040615+00:00 $GPRMC,040610,A,4938.6898,N,12618.0096,W,9.29,264,040722,12.3,E,A,V*65
20220704 040615+00:00 $WIMWV,45.19,R,11.78,N,A*25
20220704 040617+00:00 $IIMDA,29.8,I,1.01,B,12.4,C,,C,94.6,,,C,,T,,M,,N,,M*15
20220704 040617+00:00 $HCHDT,262.2,T*2D
20220704 040617+00:00 $GPRMC,040612,A,4938.6898,N,12618.0198,W,9.29,264,040722,12.3,E,A,V*68
20220704 040617+00:00 $WIMWV,11.5,R,7,N,A*0F
20220704 040619+00:00 $IIMDA,29.8,I,1.01,B,12.4,C,,C,94.6,,,C,,T,,M,,N,,M*15
20220704 040619+00:00 $HCHDT,262.3,T*2C
20220704 040619+00:00 $GPRMC,040614,A,4938.6898,N,12618.0300,W,9.29,264,040722,12.3,E,A,V*6D
20220704 040619+00:00 $WIMWV,13.4,R,10.79,N,A*1A
20220704 040621+00:00 $IIMDA,29.8,I,1.01,B,12.4,C,,C,94.6,,,C,,T,,M,,N,,M*15
20220704 040621+00:00 $HCHDT,262.4,T*2B
20220704 040621+00:00 $GPRMC,040616,A,4938.6898,N,12618.0396,W,9.41,264,040722,12.3,E,A,V*6E
20220704 040621+00:00 $WIMWV,28.1,R,11.68,N,A*16
20220704 040623+00:00 $IIMDA,29.8,I,1.01,B,12.4,C,,C,94.6,,,C,,T,,M,,N,,M*15
20220704 040623+00:00 $HCHDT,262.4,T*2B
20220704 040623+00:00 $GPRMC,040618,A,4938.6898,N,12618.0498,W,9.41,264,040722,12.3,E,A,V*69
20220704 040623+00:00 $WIMWV,5.49,R,14.79,N,A*10
20220704 040625+00:00 $IIMDA,29.8,I,1.01,B,12.4,C,,C,94.6,,,C,,T,,M,,N,,M*15
20220704 040625+00:00 $HCHDT,262.5,T*2A
20220704 040625+00:00 $GPRMC,040620,A,4938.6898,N,12618.0498,W,9.41,264,040722,12.3,E,A,V*62
20220704 040625+00:00 $WIMWV,9.5,R,9.58,N,A*1B
20220704 040627+00:00 $IIMDA,29.8,I,1.01,B,12.4,C,,C,94.6,,,C,,T,,M,,N,,M*15
20220704 040627+00:00 $HCHDT,262.5,T*2A
20220704 040627+00:00 $GPRMC,040622,A,4938.6898,N,12618.0600,W,9.41,264,040722,12.3,E,A,V*63
20220704 040627+00:00 $WIMWV,13.1,R,11.59,N,A*1C
20220704 040629+00:00 $IIMDA,29.8,I,1.01,B,12.4,C,,C,94.6,,,C,,T,,M,,N,,M*15
20220704 040629+00:00 $HCHDT,262.6,T*29
20220704 040629+00:00 $GPRMC,040624,A,4938.6898,N,12618.0696,W,9.41,264,040722,12.3,E,A,V*6A
20220704 040629+00:00 $WIMWV,2.19,R,15.49,N,A*10
20220704 040631+00:00 $IIMDA,29.8,I,1.01,B,12.4,C,,C,94.6,,,C,,T,,M,,N,,M*15
20220704 040631+00:00 $HCHDT,262.7,T*28
20220704 040631+00:00 $GPRMC,040626,A,4938.6898,N,12618.0798,W,9.41,264,040722,12.3,E,A,V*67
20220704 040631+00:00 $WIMWV,351.49,R,16.7,N,A*29
20220704 040633+00:00 $IIMDA,29.8,I,1.01,B,12.4,C,,C,94.5,,,C,,T,,M,,N,,M*16
20220704 040633+00:00 $HCHDT,262.9,T*26
20220704 040633+00:00 $GPRMC,040628,A,4938.6898,N,12618.0900,W,9.41,264,040722,12.3,E,A,V*66
20220704 040633+00:00 $WIMWV,9.8,R,12.5,N,A*14
20220704 040635+00:00 $IIMDA,29.8,I,1.01,B,12.4,C,,C,94.5,,,C,,T,,M,,N,,M*16
20220704 040635+00:00 $HCHDT,262.8,T*27
20220704 040635+00:00 $GPRMC,040630,A,4938.6898,N,12618.0900,W,9.41,264,040722,12.3,E,A,V*6F
20220704 040635+00:00 $WIMWV,0.19,R,15.78,N,A*10
20220704 040637+00:00 $IIMDA,29.8,I,1.01,B,12.4,C,,C,94.5,,,C,,T,,M,,N,,M*16
20220704 040637+00:00 $HCHDT,262.6,T*29
20220704 040637+00:00 $GPRMC,040632,A,4938.6898,N,12618.0996,W,9.41,264,040722,12.3,E,A,V*62
20220704 040637+00:00 $WIMWV,17.4,R,11.78,N,A*1E
20220704 040639+00:00 $IIMDA,29.8,I,1.01,B,12.4,C,,C,94.5,,,C,,T,,M,,N,,M*16
20220704 040639+00:00 $HCHDT,262.5,T*2A
20220704 040639+00:00 $GPRMC,040634,A,4938.6898,N,12618.1098,W,9.41,264,040722,12.3,E,A,V*62
20220704 040639+00:00 $WIMWV,9.9,R,12.29,N,A*2B
20220704 040641+00:00 $IIMDA,29.8,I,1.01,B,12.4,C,,C,94.6,,,C,,T,,M,,N,,M*15
20220704 040641+00:00 $HCHDT,262.3,T*2C
20220704 040641+00:00 $GPRMC,040636,A,4938.6796,N,12618.1200,W,9.41,264,040722,12.3,E,A,V*62
20220704 040641+00:00 $WIMWV,357.79,R,14.38,N,A*12
20220704 040643+00:00 $IIMDA,29.8,I,1.01,B,12.4,C,,C,94.6,,,C,,T,,M,,N,,M*15
20220704 040643+00:00 $HCHDT,262.2,T*2D
20220704 040643+00:00 $GPRMC,040638,A,4938.6796,N,12618.1296,W,9.41,264,040722,12.3,E,A,V*63
20220704 040643+00:00 $WIMWV,0.7,R,15.3,N,A*13
20220704 040645+00:00 $IIMDA,29.8,I,1.01,B,12.4,C,,C,94.5,,,C,,T,,M,,N,,M*16
20220704 040645+00:00 $HCHDT,261.9,T*25
20220704 040645+00:00 $GPRMC,040640,A,4938.6796,N,12618.1296,W,9.41,264,040722,12.3,E,A,V*6C
20220704 040645+00:00 $WIMWV,356.49,R,16.19,N,A*11
20220704 040647+00:00 $IIMDA,29.8,I,1.01,B,12.4,C,,C,94.5,,,C,,T,,M,,N,,M*16
20220704 040647+00:00 $HCHDT,261.9,T*25
20220704 040647+00:00 $GPRMC,040642,A,4938.6796,N,12618.1398,W,9.41,264,040722,12.3,E,A,V*61
20220704 040647+00:00 $WIMWV,351.09,R,13.9,N,A*26
20220704 040649+00:00 $IIMDA,29.8,I,1.01,B,12.4,C,,C,94.6,,,C,,T,,M,,N,,M*15
20220704 040649+00:00 $HCHDT,261.9,T*25
20220704 040649+00:00 $GPRMC,040644,A,4938.6796,N,12618.1500,W,9.29,264,040722,12.3,E,A,V*6E
20220704 040649+00:00 $WIMWV,23.9,R,9.89,N,A*23
20220704 040651+00:00 $IIMDA,29.8,I,1.01,B,12.4,C,,C,94.5,,,C,,T,,M,,N,,M*16
20220704 040651+00:00 $HCHDT,261.8,T*24
20220704 040651+00:00 $GPRMC,040646,A,4938.6796,N,12618.1596,W,9.29,264,040722,12.3,E,A,V*63
20220704 040651+00:00 $WIMWV,4.8,R,15.59,N,A*27
20220704 040653+00:00 $IIMDA,29.8,I,1.01,B,12.4,C,,C,94.5,,,C,,T,,M,,N,,M*16
20220704 040653+00:00 $HCHDT,261.9,T*25
20220704 040653+00:00 $GPRMC,040648,A,4938.6796,N,12618.1698,W,9.29,264,040722,12.3,E,A,V*60
20220704 040653+00:00 $WIMWV,359.19,R,15.59,N,A*1C
20220704 040655+00:00 $IIMDA,29.8,I,1.01,B,12.4,C,,C,94.5,,,C,,T,,M,,N,,M*16
20220704 040655+00:00 $HCHDT,262,T*31
20220704 040655+00:00 $GPRMC,040650,A,4938.6796,N,12618.1698,W,9.29,263,040722,12.3,E,A,V*6E
20220704 040655+00:00 $WIMWV,11.1,R,11.39,N,A*18
20220704 040657+00:00 $IIMDA,29.8,I,1.01,B,12.4,C,,C,94.5,,,C,,T,,M,,N,,M*16
20220704 040657+00:00 $HCHDT,262.2,T*2D
20220704 040657+00:00 $GPRMC,040652,A,4938.6796,N,12618.1800,W,9.29,263,040722,12.3,E,A,V*63
20220704 040657+00:00 $WIMWV,24.6,R,11.08,N,A*1B
20220704 040659+00:00 $IIMDA,29.8,I,1.01,B,12.4,C,,C,94.5,,,C,,T,,M,,N,,M*16
20220704 040659+00:00 $HCHDT,262.3,T*2C
20220704 040659+00:00 $GPRMC,040654,A,4938.6796,N,12618.1896,W,9.29,263,040722,12.3,E,A,V*6A
20220704 040659+00:00 $WIMWV,22.49,R,11.2,N,A*1C
20220704 040701+00:00 $IIMDA,29.8,I,1.01,B,12.4,C,,C,94.5,,,C,,T,,M,,N,,M*16
20220704 040701+00:00 $HCHDT,262.5,T*2A
20220704 040701+00:00 $GPRMC,040656,A,4938.6796,N,12618.1998,W,9.19,263,040722,12.3,E,A,V*64
20220704 040701+00:00 $WIMWV,29.9,R,12.29,N,A*19
20220704 040703+00:00 $IIMDA,29.9,I,1.011,B,12.4,C,,C,94.5,,,C,,T,,M,,N,,M*26
20220704 040703+00:00 $HCHDT,262.8,T*27
20220704 040703+00:00 $GPRMC,040658,A,4938.6796,N,12618.1998,W,9.19,264,040722,12.3,E,A,V*6D
20220704 040703+00:00 $WIMWV,27.99,R,6.49,N,A*1D
20220704 040705+00:00 $IIMDA,29.9,I,1.011,B,12.4,C,,C,94.4,,,C,,T,,M,,N,,M*27
20220704 040705+00:00 $HCHDT,263,T*30
20220704 040705+00:00 $GPRMC,040700,A,4938.6796,N,12618.2100,W,9.19,264,040722,12.3,E,A,V*6B
20220704 040705+00:00 $WIMWV,15.8,R,10.89,N,A*1F
20220704 040707+00:00 $IIMDA,29.8,I,1.01,B,12.4,C,,C,94.4,,,C,,T,,M,,N,,M*17
20220704 040707+00:00 $HCHDT,263.1,T*2F
20220704 040707+00:00 $GPRMC,040702,A,4938.6796,N,12618.2196,W,9.19,264,040722,12.3,E,A,V*66
20220704 040707+00:00 $WIMWV,22.1,R,12.19,N,A*19
20220704 040709+00:00 $IIMDA,29.8,I,1.01,B,12.4,C,,C,94.5,,,C,,T,,M,,N,,M*16
20220704 040709+00:00 $HCHDT,263.2,T*2C
20220704 040709+00:00 $GPRMC,040704,A,4938.6796,N,12618.2298,W,9.19,264,040722,12.3,E,A,V*6D
20220704 040709+00:00 $WIMWV,355.59,R,16.19,N,A*13
20220704 040711+00:00 $IIMDA,29.8,I,1.01,B,12.4,C,,C,94.5,,,C,,T,,M,,N,,M*16
20220704 040711+00:00 $HCHDT,263.2,T*2C
20220704 040711+00:00 $GPRMC,040706,A,4938.6796,N,12618.2400,W,9.19,264,040722,12.3,E,A,V*68
20220704 040711+00:00 $WIMWV,22.3,R,12.98,N,A*12
20220704 040713+00:00 $IIMDA,29.8,I,1.01,B,12.4,C,,C,94.5,,,C,,T,,M,,N,,M*16
20220704 040713+00:00 $HCHDT,263.1,T*2F
20220704 040713+00:00 $GPRMC,040708,A,4938.6796,N,12618.2400,W,9.19,264,040722,12.3,E,A,V*66
20220704 040713+00:00 $WIMWV,341.89,R,17.69,N,A*1D
20220704 040715+00:00 $IIMDA,29.8,I,1.01,B,12.4,C,,C,94.5,,,C,,T,,M,,N,,M*16
20220704 040715+00:00 $HCHDT,263.1,T*2F
20220704 040715+00:00 $GPRMC,040710,A,4938.6796,N,12618.2496,W,9.19,264,040722,12.3,E,A,V*60
20220704 040715+00:00 $WIMWV,357.09,R,18.1,N,A*23
20220704 040717+00:00 $IIMDA,29.8,I,1.01,B,12.4,C,,C,94.5,,,C,,T,,M,,N,,M*16
20220704 040717+00:00 $HCHDT,263,T*30
20220704 040717+00:00 $GPRMC,040712,A,4938.6700,N,12618.2598,W,9.19,264,040722,12.3,E,A,V*62
20220704 040717+00:00 $WIMWV,1.5,R,13.49,N,A*28
20220704 040719+00:00 $IIMDA,29.8,I,1.01,B,12.4,C,,C,94.5,,,C,,T,,M,,N,,M*16
20220704 040719+00:00 $HCHDT,262.9,T*26
20220704 040719+00:00 $GPRMC,040714,A,4938.6700,N,12618.2700,W,9.1,264,040722,12.3,E,A,V*5E
20220704 040719+00:00 $WIMWV,350.09,R,16.7,N,A*2C
20220704 040721+00:00 $IIMDA,29.8,I,1.01,B,12.4,C,,C,94.5,,,C,,T,,M,,N,,M*16
20220704 040721+00:00 $HCHDT,263,T*30
20220704 040721+00:00 $GPRMC,040716,A,4938.6700,N,12618.2700,W,9.1,265,040722,12.3,E,A,V*5D
20220704 040721+00:00 $WIMWV,358.39,R,16.19,N,A*18
20220704 040723+00:00 $IIMDA,29.8,I,1.01,B,12.4,C,,C,94.5,,,C,,T,,M,,N,,M*16
20220704 040723+00:00 $HCHDT,263,T*30
20220704 040723+00:00 $GPRMC,040718,A,4938.6700,N,12618.2796,W,9.1,265,040722,12.3,E,A,V*5C
20220704 040723+00:00 $WIMWV,50.8,R,10.69,N,A*10
20220704 040725+00:00 $IIMDA,29.8,I,1.01,B,12.4,C,,C,94.5,,,C,,T,,M,,N,,M*16
20220704 040725+00:00 $HCHDT,263.2,T*2C
20220704 040725+00:00 $GPRMC,040720,A,4938.6700,N,12618.2898,W,9.1,265,040722,12.3,E,A,V*56
20220704 040725+00:00 $WIMWV,23.1,R,11.68,N,A*1D
20220704 040727+00:00 $IIMDA,29.8,I,1.01,B,12.4,C,,C,94.5,,,C,,T,,M,,N,,M*16
20220704 040727+00:00 $HCHDT,263.3,T*2D
20220704 040727+00:00 $GPRMC,040722,A,4938.6700,N,12618.3000,W,9.1,265,040722,12.3,E,A,V*5C
20220704 040727+00:00 $WIMWV,20.1,R,13.78,N,A*1D
20220704 040729+00:00 $IIMDA,29.8,I,1.01,B,12.4,C,,C,94.5,,,C,,T,,M,,N,,M*16
20220704 040729+00:00 $HCHDT,263.4,T*2A
20220704 040729+00:00 $GPRMC,040724,A,4938.6700,N,12618.3096,W,9.1,265,040722,12.3,E,A,V*55
20220704 040729+00:00 $WIMWV,8.5,R,16.29,N,A*22
20220704 040731+00:00 $IIMDA,29.8,I,1.01,B,12.4,C,,C,94.5,,,C,,T,,M,,N,,M*16
20220704 040731+00:00 $HCHDT,263.4,T*2A
20220704 040731+00:00 $GPRMC,040726,A,4938.6700,N,12618.3096,W,9.1,265,040722,12.3,E,A,V*57
20220704 040731+00:00 $WIMWV,355.89,R,16.58,N,A*1B
20220704 040733+00:00 $IIMDA,29.8,I,1.01,B,12.4,C,,C,94.5,,,C,,T,,M,,N,,M*16
20220704 040733+00:00 $HCHDT,263.4,T*2A
20220704 040733+00:00 $GPRMC,040728,A,4938.6700,N,12618.3198,W,9.1,265,040722,12.3,E,A,V*56
20220704 040733+00:00 $WIMWV,353.69,R,17.4,N,A*2B
20220704 040735+00:00 $IIMDA,29.8,I,1.01,B,12.4,C,,C,94.5,,,C,,T,,M,,N,,M*16
20220704 040735+00:00 $HCHDT,263.4,T*2A
20220704 040735+00:00 $GPRMC,040730,A,4938.6700,N,12618.3300,W,9,265,040722,12.3,E,A,V*43
20220704 040735+00:00 $WIMWV,11.3,R,15.08,N,A*1C
20220704 040737+00:00 $IIMDA,29.8,I,1.01,B,12.4,C,,C,94.5,,,C,,T,,M,,N,,M*16
20220704 040737+00:00 $HCHDT,263.3,T*2D
20220704 040737+00:00 $GPRMC,040732,A,4938.6700,N,12618.3396,W,9,265,040722,12.3,E,A,V*4E
20220704 040737+00:00 $WIMWV,11.5,R,13.2,N,A*26
20220704 040739+00:00 $IIMDA,29.8,I,1.01,B,12.4,C,,C,94.5,,,C,,T,,M,,N,,M*16
20220704 040739+00:00 $HCHDT,263.2,T*2C
20220704 040739+00:00 $GPRMC,040734,A,4938.6700,N,12618.3396,W,9,265,040722,12.3,E,A,V*48
20220704 040739+00:00 $WIMWV,27.9,R,10.5,N,A*2B
20220704 040741+00:00 $IIMDA,29.8,I,1.01,B,12.4,C,,C,94.6,,,C,,T,,M,,N,,M*15
20220704 040741+00:00 $HCHDT,263.1,T*2F
20220704 040741+00:00 $GPRMC,040736,A,4938.6700,N,12618.3498,W,9,265,040722,12.3,E,A,V*43
20220704 040741+00:00 $WIMWV,25.5,R,11.68,N,A*1F
20220704 040743+00:00 $IIMDA,29.8,I,1.01,B,12.4,C,,C,94.6,,,C,,T,,M,,N,,M*15
20220704 040743+00:00 $HCHDT,263.1,T*2F
