20220630 180001+00:00 $HCHDT,2.3,T*28
20220630 180001+00:00 $IIMDA,30.1,I,1.019,B,19.3,C,,C,61.6,,,C,,T,,M,,N,,M*2B
20220630 180001+00:00 $GPRMC,175956,A,4918.7398,N,12306.4098,W,0,75,300622,11.8,E,A,V*77
20220630 180001+00:00 $WIMWV,306.79,R,7,N,A*01
20220630 180003+00:00 $HCHDT,2.3,T*28
20220630 180003+00:00 $IIMDA,30.1,I,1.019,B,19.3,C,,C,61.5,,,C,,T,,M,,N,,M*28
20220630 180003+00:00 $GPRMC,175958,A,4918.7398,N,12306.4098,W,0,82,300622,11.8,E,A,V*71
20220630 180003+00:00 $WIMWV,287.79,R,6.08,N,A*2E
20220630 180005+00:00 $HCHDT,2.2,T*29
20220630 180005+00:00 $IIMDA,30.1,I,1.019,B,19.2,C,,C,61.5,,,C,,T,,M,,N,,M*29
20220630 180005+00:00 $GPRMC,180000,A,4918.7398,N,12306.4098,W,0,86,300622,11.8,E,A,V*7B
20220630 180005+00:00 $WIMWV,313.79,R,10.59,N,A*11
20220630 180007+00:00 $HCHDT,2.1,T*2A
20220630 180007+00:00 $IIMDA,30.1,I,1.019,B,19.2,C,,C,61.5,,,C,,T,,M,,N,,M*29
20220630 180007+00:00 $GPRMC,180002,A,4918.7398,N,12306.4098,W,0,85,300622,11.8,E,A,V*7A
20220630 180007+00:00 $WIMWV,307.39,R,9.39,N,A*2E
20220630 180009+00:00 $HCHDT,2,T*35
20220630 180009+00:00 $IIMDA,30.1,I,1.019,B,19.2,C,,C,61.4,,,C,,T,,M,,N,,M*28
20220630 180009+00:00 $GPRMC,180004,A,4918.7398,N,12306.4098,W,0,83,300622,11.8,E,A,V*7A
20220630 180009+00:00 $WIMWV,306.19,R,8.18,N,A*2F
20220630 180011+00:00 $HCHDT,1.9,T*21
20220630 180011+00:00 $IIMDA,30.1,I,1.019,B,19.1,C,,C,61.3,,,C,,T,,M,,N,,M*2C
20220630 180011+00:00 $GPRMC,180006,A,4918.7398,N,12306.4098,W,0,78,300622,11.8,E,A,V*7C
20220630 180011+00:00 $WIMWV,310.69,R,7.19,N,A*21
20220630 180013+00:00 $HCHDT,1.8,T*20
20220630 180013+00:00 $IIMDA,30.1,I,1.019,B,19.1,C,,C,61.2,,,C,,T,,M,,N,,M*2D
20220630 180013+00:00 $GPRMC,180008,A,4918.7398,N,12306.4098,W,0,71,300622,11.8,E,A,V*7B
20220630 180013+00:00 $WIMWV,315.99,R,5.19,N,A*29
20220630 180015+00:00 $HCHDT,1.7,T*2F
20220630 180015+00:00 $IIMDA,30.1,I,1.019,B,19.1,C,,C,61.1,,,C,,T,,M,,N,,M*2E
20220630 180015+00:00 $GPRMC,180010,A,4918.7398,N,12306.4098,W,0,63,300622,11.8,E,A,V*71
20220630 180015+00:00 $WIMWV,301.59,R,3.6,N,A*18
20220630 180017+00:00 $HCHDT,1.7,T*2F
20220630 180017+00:00 $IIMDA,30.1,I,1.019,B,19.1,C,,C,61.1,,,C,,T,,M,,N,,M*2E
20220630 180017+00:00 $GPRMC,180012,A,4918.7398,N,12306.4098,W,0,55,300622,11.8,E,A,V*76
20220630 180017+00:00 $WIMWV,332.59,R,2.29,N,A*24
20220630 180019+00:00 $HCHDT,1.6,T*2E
20220630 180019+00:00 $IIMDA,30.1,I,1.019,B,19.1,C,,C,61.1,,,C,,T,,M,,N,,M*2E
20220630 180019+00:00 $GPRMC,180014,A,4918.7398,N,12306.4098,W,0,48,300622,11.8,E,A,V*7C
20220630 180019+00:00 $WIMWV,297.09,R,4.08,N,A*2A
20220630 180021+00:00 $HCHDT,1.6,T*2E
20220630 180021+00:00 $IIMDA,30.1,I,1.019,B,19.1,C,,C,61.2,,,C,,T,,M,,N,,M*2D
20220630 180021+00:00 $GPRMC,180016,A,4918.7398,N,12306.4098,W,0,46,300622,11.8,E,A,V*70
20220630 180021+00:00 $WIMWV,303.89,R,5.99,N,A*27
20220630 180023+00:00 $HCHDT,1.6,T*2E
20220630 180023+00:00 $IIMDA,30.1,I,1.019,B,19.1,C,,C,61.3,,,C,,T,,M,,N,,M*2C
20220630 180023+00:00 $GPRMC,180018,A,4918.7398,N,12306.4098,W,0,43,300622,11.8,E,A,V*7B
20220630 180023+00:00 $WIMWV,313.29,R,6.69,N,A*20
20220630 180025+00:00 $HCHDT,1.7,T*2F
20220630 180025+00:00 $IIMDA,30.1,I,1.019,B,19.1,C,,C,61.3,,,C,,T,,M,,N,,M*2C
20220630 180025+00:00 $GPRMC,180020,A,4918.7398,N,12306.4098,W,0,43,300622,11.8,E,A,V*70
20220630 180025+00:00 $WIMWV,309.49,R,6.08,N,A*2A
20220630 180027+00:00 $HCHDT,1.7,T*2F
20220630 180027+00:00 $IIMDA,30.1,I,1.019,B,19.1,C,,C,61.3,,,C,,T,,M,,N,,M*2C
20220630 180027+00:00 $GPRMC,180022,A,4918.7398,N,12306.4098,W,0,42,300622,11.8,E,A,V*73
20220630 180027+00:00 $WIMWV,298.49,R,4.68,N,A*27
20220630 180029+00:00 $HCHDT,1.8,T*20
20220630 180029+00:00 $IIMDA,30.1,I,1.019,B,19.1,C,,C,61.3,,,C,,T,,M,,N,,M*2C
20220630 180029+00:00 $GPRMC,180024,A,4918.7398,N,12306.4098,W,0,43,300622,11.8,E,A,V*74
20220630 180029+00:00 $WIMWV,298.29,R,5.38,N,A*25
20220630 180031+00:00 $HCHDT,1.8,T*20
20220630 180031+00:00 $IIMDA,30.1,I,1.019,B,19.1,C,,C,61.2,,,C,,T,,M,,N,,M*2D
20220630 180031+00:00 $GPRMC,180026,A,4918.7398,N,12306.4098,W,0,47,300622,11.8,E,A,V*72
20220630 180031+00:00 $WIMWV,300.89,R,4.68,N,A*2B
20220630 180033+00:00 $HCHDT,1.7,T*2F
20220630 180033+00:00 $IIMDA,30.1,I,1.019,B,19.1,C,,C,61.2,,,C,,T,,M,,N,,M*2D
20220630 180033+00:00 $GPRMC,180028,A,4918.7398,N,12306.4098,W,0,50,300622,11.8,E,A,V*7A
20220630 180033+00:00 $WIMWV,307.89,R,5.19,N,A*2B
20220630 180035+00:00 $HCHDT,1.7,T*2F
20220630 180035+00:00 $IIMDA,30.1,I,1.019,B,19.1,C,,C,61.2,,,C,,T,,M,,N,,M*2D
20220630 180035+00:00 $GPRMC,180030,A,4918.7398,N,12306.4098,W,0,55,300622,11.8,E,A,V*76
20220630 180035+00:00 $WIMWV,292.69,R,5.6,N,A*16
20220630 180037+00:00 $HCHDT,1.6,T*2E
20220630 180037+00:00 $IIMDA,30.1,I,1.019,B,19.1,C,,C,61.3,,,C,,T,,M,,N,,M*2C
20220630 180037+00:00 $GPRMC,180032,A,4918.7398,N,12306.4098,W,0,65,300622,11.8,E,A,V*77
20220630 180037+00:00 $WIMWV,358.79,R,4.68,N,A*29
20220630 180039+00:00 $HCHDT,1.6,T*2E
20220630 180039+00:00 $IIMDA,30.1,I,1.019,B,19.1,C,,C,61.3,,,C,,T,,M,,N,,M*2C
20220630 180039+00:00 $GPRMC,180034,A,4918.7398,N,12306.4098,W,0,73,300622,11.8,E,A,V*76
20220630 180039+00:00 $WIMWV,327.59,R,5.89,N,A*2D
20220630 180041+00:00 $HCHDT,1.5,T*2D
20220630 180041+00:00 $IIMDA,30.1,I,1.019,B,19.1,C,,C,61.2,,,C,,T,,M,,N,,M*2D
20220630 180041+00:00 $GPRMC,180036,A,4918.7398,N,12306.4098,W,0,86,300622,11.8,E,A,V*7E
20220630 180041+00:00 $WIMWV,316.89,R,5.89,N,A*22
20220630 180043+00:00 $HCHDT,1.4,T*2C
20220630 180043+00:00 $IIMDA,30.1,I,1.019,B,19.1,C,,C,61.1,,,C,,T,,M,,N,,M*2E
20220630 180043+00:00 $GPRMC,180038,A,4918.7398,N,12306.4098,W,0,91,300622,11.8,E,A,V*76
20220630 180043+00:00 $WIMWV,286.39,R,4.2,N,A*13
20220630 180045+00:00 $HCHDT,1.5,T*2D
20220630 180045+00:00 $IIMDA,30.1,I,1.019,B,19,C,,C,61.1,,,C,,T,,M,,N,,M*31
20220630 180045+00:00 $GPRMC,180040,A,4918.7398,N,12306.4098,W,0,105,300622,11.8,E,A,V*45
20220630 180045+00:00 $WIMWV,284.29,R,2.8,N,A*1C
20220630 180047+00:00 $HCHDT,1.6,T*2E
20220630 180047+00:00 $IIMDA,30.1,I,1.019,B,19,C,,C,61.1,,,C,,T,,M,,N,,M*31
20220630 180047+00:00 $GPRMC,180042,A,4918.7398,N,12306.4098,W,0,144,300622,11.8,E,A,V*42
20220630 180047+00:00 $WIMWV,278.09,R,2.2,N,A*17
20220630 180049+00:00 $HCHDT,1.7,T*2F
20220630 180049+00:00 $IIMDA,30.1,I,1.019,B,19,C,,C,61.2,,,C,,T,,M,,N,,M*32
20220630 180049+00:00 $GPRMC,180044,A,4918.7398,N,12306.4098,W,0,159,300622,11.8,E,A,V*48
20220630 180049+00:00 $WIMWV,329.19,R,3.89,N,A*21
20220630 180051+00:00 $HCHDT,1.7,T*2F
20220630 180051+00:00 $IIMDA,30.1,I,1.019,B,19,C,,C,61.2,,,C,,T,,M,,N,,M*32
20220630 180051+00:00 $GPRMC,180046,A,4918.7398,N,12306.4098,W,0,189,300622,11.8,E,A,V*47
20220630 180051+00:00 $WIMWV,311.29,R,5.29,N,A*25
20220630 180053+00:00 $HCHDT,1.8,T*20
20220630 180053+00:00 $IIMDA,30.1,I,1.019,B,19.1,C,,C,61.2,,,C,,T,,M,,N,,M*2D
20220630 180053+00:00 $GPRMC,180048,A,4918.7398,N,12306.4098,W,0,199,300622,11.8,E,A,V*48
20220630 180053+00:00 $WIMWV,306.69,R,6.49,N,A*22
20220630 180055+00:00 $HCHDT,1.9,T*21
20220630 180055+00:00 $IIMDA,30.1,I,1.019,B,19.1,C,,C,61.2,,,C,,T,,M,,N,,M*2D
20220630 180055+00:00 $GPRMC,180050,A,4918.7398,N,12306.4098,W,0,205,300622,11.8,E,A,V*47
20220630 180055+00:00 $WIMWV,296.09,R,4.3,N,A*10
20220630 180057+00:00 $HCHDT,1.9,T*21
20220630 180057+00:00 $IIMDA,30.1,I,1.019,B,19.1,C,,C,61.2,,,C,,T,,M,,N,,M*2D
20220630 180057+00:00 $GPRMC,180052,A,4918.7398,N,12306.4098,W,0,208,300622,11.8,E,A,V*48
20220630 180057+00:00 $WIMWV,306.79,R,5.19,N,A*25
20220630 180059+00:00 $HCHDT,1.9,T*21
20220630 180059+00:00 $IIMDA,30.1,I,1.019,B,19.1,C,,C,61.1,,,C,,T,,M,,N,,M*2E
20220630 180059+00:00 $GPRMC,180054,A,4918.7398,N,12306.4098,W,0,209,300622,11.8,E,A,V*4F
20220630 180059+00:00 $WIMWV,304.19,R,4.39,N,A*22
20220630 180101+00:00 $HCHDT,1.9,T*21
20220630 180101+00:00 $IIMDA,30.1,I,1.019,B,19.1,C,,C,61.1,,,C,,T,,M,,N,,M*2E
20220630 180101+00:00 $GPRMC,180056,A,4918.7398,N,12306.4098,W,0,210,300622,11.8,E,A,V*45
20220630 180101+00:00 $WIMWV,308.09,R,5.79,N,A*2A
20220630 180103+00:00 $HCHDT,1.9,T*21
20220630 180103+00:00 $IIMDA,30.1,I,1.019,B,19.1,C,,C,61.1,,,C,,T,,M,,N,,M*2E
20220630 180103+00:00 $GPRMC,180058,A,4918.7398,N,12306.4098,W,0,214,300622,11.8,E,A,V*4F
20220630 180103+00:00 $WIMWV,304.79,R,6.49,N,A*21
20220630 180105+00:00 $HCHDT,1.9,T*21
20220630 180105+00:00 $IIMDA,30.1,I,1.019,B,19.1,C,,C,61.1,,,C,,T,,M,,N,,M*2E
20220630 180105+00:00 $GPRMC,180100,A,4918.7398,N,12306.4098,W,0,218,300622,11.8,E,A,V*4F
20220630 180105+00:00 $WIMWV,277.79,R,5.7,N,A*1D
20220630 180107+00:00 $HCHDT,1.9,T*21
20220630 180107+00:00 $IIMDA,30.1,I,1.019,B,19.1,C,,C,61,,,C,,T,,M,,N,,M*31
20220630 180107+00:00 $GPRMC,180102,A,4918.7398,N,12306.4098,W,0,219,300622,11.8,E,A,V*4C
20220630 180107+00:00 $WIMWV,273.79,R,7.19,N,A*24
20220630 180109+00:00 $HCHDT,1.9,T*21
20220630 180109+00:00 $IIMDA,30.1,I,1.019,B,19.1,C,,C,60.9,,,C,,T,,M,,N,,M*27
20220630 180109+00:00 $GPRMC,180104,A,4918.7398,N,12306.4098,W,0,223,300622,11.8,E,A,V*43
20220630 180109+00:00 $WIMWV,268.09,R,6.08,N,A*28
20220630 180111+00:00 $HCHDT,1.9,T*21
20220630 180111+00:00 $IIMDA,30.1,I,1.019,B,19.1,C,,C,60.8,,,C,,T,,M,,N,,M*26
20220630 180111+00:00 $GPRMC,180106,A,4918.7398,N,12306.4098,W,0,224,300622,11.8,E,A,V*46
20220630 180111+00:00 $WIMWV,277.19,R,4.9,N,A*14
20220630 180113+00:00 $HCHDT,1.9,T*21
20220630 180113+00:00 $IIMDA,30.1,I,1.019,B,19.1,C,,C,60.7,,,C,,T,,M,,N,,M*29
20220630 180113+00:00 $GPRMC,180108,A,4918.7398,N,12306.4098,W,0,224,300622,11.8,E,A,V*48
20220630 180113+00:00 $WIMWV,273.99,R,3.5,N,A*13
20220630 180115+00:00 $HCHDT,1.7,T*2F
20220630 180115+00:00 $IIMDA,30.1,I,1.019,B,19.1,C,,C,60.7,,,C,,T,,M,,N,,M*29
20220630 180115+00:00 $GPRMC,180110,A,4918.7398,N,12306.4098,W,0,223,300622,11.8,E,A,V*46
20220630 180115+00:00 $WIMWV,259.09,R,3.38,N,A*2C
20220630 180117+00:00 $HCHDT,1.7,T*2F
20220630 180117+00:00 $IIMDA,30.1,I,1.019,B,19.1,C,,C,60.7,,,C,,T,,M,,N,,M*29
20220630 180117+00:00 $GPRMC,180112,A,4918.7398,N,12306.4098,W,0,222,300622,11.8,E,A,V*45
20220630 180117+00:00 $WIMWV,317.19,R,2.1,N,A*1D
20220630 180119+00:00 $HCHDT,1.7,T*2F
20220630 180119+00:00 $IIMDA,30.1,I,1.019,B,19.1,C,,C,60.7,,,C,,T,,M,,N,,M*29
20220630 180119+00:00 $GPRMC,180114,A,4918.7398,N,12306.4098,W,0,221,300622,11.8,E,A,V*40
20220630 180119+00:00 $WIMWV,307.89,R,2.39,N,A*2E
20220630 180121+00:00 $HCHDT,1.6,T*2E
20220630 180121+00:00 $IIMDA,30.1,I,1.019,B,19.1,C,,C,60.8,,,C,,T,,M,,N,,M*26
20220630 180121+00:00 $GPRMC,180116,A,4918.7398,N,12306.4098,W,0,220,300622,11.8,E,A,V*43
20220630 180121+00:00 $WIMWV,315.59,R,1.28,N,A*23
20220630 180123+00:00 $HCHDT,1.5,T*2D
20220630 180123+00:00 $IIMDA,30.1,I,1.019,B,19.1,C,,C,60.9,,,C,,T,,M,,N,,M*27
20220630 180123+00:00 $GPRMC,180118,A,4918.7398,N,12306.4098,W,0,222,300622,11.8,E,A,V*4F
20220630 180123+00:00 $WIMWV,19.9,R,0.99,N,A*22
20220630 180125+00:00 $HCHDT,1.4,T*2C
20220630 180125+00:00 $IIMDA,30.1,I,1.019,B,19.2,C,,C,61,,,C,,T,,M,,N,,M*32
20220630 180125+00:00 $GPRMC,180120,A,4918.7398,N,12306.4098,W,0,226,300622,11.8,E,A,V*40
20220630 180125+00:00 $WIMWV,300.19,R,2.2,N,A*18
20220630 180127+00:00 $HCHDT,1.3,T*2B
20220630 180127+00:00 $IIMDA,30.1,I,1.019,B,19.2,C,,C,61.1,,,C,,T,,M,,N,,M*2D
20220630 180127+00:00 $GPRMC,180122,A,4918.7398,N,12306.4098,W,0,290,300622,11.8,E,A,V*4F
20220630 180127+00:00 $WIMWV,297.19,R,2.29,N,A*2E
20220630 180129+00:00 $HCHDT,1.2,T*2A
20220630 180129+00:00 $IIMDA,30.1,I,1.019,B,19.2,C,,C,61.2,,,C,,T,,M,,N,,M*2E
20220630 180129+00:00 $GPRMC,180124,A,4918.7398,N,12306.4098,W,0,305,300622,11.8,E,A,V*44
20220630 180129+00:00 $WIMWV,329.49,R,2.8,N,A*1C
20220630 180131+00:00 $HCHDT,1.2,T*2A
20220630 180131+00:00 $IIMDA,30.1,I,1.019,B,19.2,C,,C,61.3,,,C,,T,,M,,N,,M*2F
20220630 180131+00:00 $GPRMC,180126,A,4918.7398,N,12306.4098,W,0,307,300622,11.8,E,A,V*44
20220630 180131+00:00 $WIMWV,349.89,R,2.8,N,A*16
20220630 180133+00:00 $HCHDT,1.1,T*29
20220630 180133+00:00 $IIMDA,30.1,I,1.019,B,19.2,C,,C,61.4,,,C,,T,,M,,N,,M*28
20220630 180133+00:00 $GPRMC,180128,A,4918.7398,N,12306.4098,W,0,305,300622,11.8,E,A,V*48
20220630 180133+00:00 $WIMWV,346.19,R,4.59,N,A*22
20220630 180135+00:00 $HCHDT,1.1,T*29
20220630 180135+00:00 $IIMDA,30.1,I,1.019,B,19.2,C,,C,61.4,,,C,,T,,M,,N,,M*28
20220630 180135+00:00 $GPRMC,180130,A,4918.7398,N,12306.4098,W,0,297,300622,11.8,E,A,V*4B
20220630 180135+00:00 $WIMWV,328.79,R,4.3,N,A*13
20220630 180137+00:00 $HCHDT,1.2,T*2A
20220630 180137+00:00 $IIMDA,30.1,I,1.019,B,19.2,C,,C,61.4,,,C,,T,,M,,N,,M*28
20220630 180137+00:00 $GPRMC,180132,A,4918.7398,N,12306.4098,W,0,283,300622,11.8,E,A,V*4C
20220630 180137+00:00 $WIMWV,296.59,R,3.6,N,A*17
20220630 180139+00:00 $HCHDT,1.2,T*2A
20220630 180139+00:00 $IIMDA,30.1,I,1.019,B,19.2,C,,C,61.3,,,C,,T,,M,,N,,M*2F
20220630 180139+00:00 $GPRMC,180134,A,4918.7398,N,12306.4098,W,0,274,300622,11.8,E,A,V*42
20220630 180139+00:00 $WIMWV,314.09,R,3.19,N,A*27
20220630 180141+00:00 $HCHDT,1.3,T*2B
20220630 180141+00:00 $IIMDA,30.1,I,1.019,B,19.2,C,,C,61.3,,,C,,T,,M,,N,,M*2F
20220630 180141+00:00 $GPRMC,180136,A,4918.7398,N,12306.4098,W,0,271,300622,11.8,E,A,V*45
20220630 180141+00:00 $WIMWV,287.29,R,5,N,A*0E
20220630 180143+00:00 $HCHDT,1.4,T*2C
20220630 180143+00:00 $IIMDA,30.1,I,1.019,B,19.2,C,,C,61.3,,,C,,T,,M,,N,,M*2F
20220630 180143+00:00 $GPRMC,180138,A,4918.7398,N,12306.4098,W,0,269,300622,11.8,E,A,V*42
20220630 180143+00:00 $WIMWV,312.09,R,5.38,N,A*24
20220630 180145+00:00 $HCHDT,1.6,T*2E
20220630 180145+00:00 $IIMDA,30.1,I,1.019,B,19.2,C,,C,61.2,,,C,,T,,M,,N,,M*2E
20220630 180145+00:00 $GPRMC,180140,A,4918.7398,N,12306.4098,W,0,270,300622,11.8,E,A,V*45
20220630 180145+00:00 $WIMWV,310.79,R,8.79,N,A*29
20220630 180147+00:00 $HCHDT,1.6,T*2E
20220630 180147+00:00 $IIMDA,30.1,I,1.019,B,19.2,C,,C,61.1,,,C,,T,,M,,N,,M*2D
20220630 180147+00:00 $GPRMC,180142,A,4918.7398,N,12306.4098,W,0,273,300622,11.8,E,A,V*44
20220630 180147+00:00 $WIMWV,312.09,R,8.59,N,A*2E
20220630 180149+00:00 $HCHDT,1.6,T*2E
20220630 180149+00:00 $IIMDA,30.1,I,1.019,B,19.2,C,,C,61,,,C,,T,,M,,N,,M*32
20220630 180149+00:00 $GPRMC,180144,A,4918.7398,N,12306.4098,W,0,271,300622,11.8,E,A,V*40
20220630 180149+00:00 $WIMWV,311.89,R,7.48,N,A*2A
20220630 180151+00:00 $HCHDT,1.6,T*2E
20220630 180151+00:00 $IIMDA,30.1,I,1.019,B,19.1,C,,C,60.9,,,C,,T,,M,,N,,M*27
20220630 180151+00:00 $GPRMC,180146,A,4918.7398,N,12306.4098,W,0,268,300622,11.8,E,A,V*4A
20220630 180151+00:00 $WIMWV,312.69,R,7.19,N,A*23
20220630 180153+00:00 $HCHDT,1.5,T*2D
20220630 180153+00:00 $IIMDA,30.1,I,1.019,B,19.1,C,,C,60.9,,,C,,T,,M,,N,,M*27
20220630 180153+00:00 $GPRMC,180148,A,4918.7398,N,12306.4098,W,0,254,300622,11.8,E,A,V*4B
20220630 180153+00:00 $WIMWV,314.99,R,5.7,N,A*17
20220630 180155+00:00 $HCHDT,1.4,T*2C
20220630 180155+00:00 $IIMDA,30.1,I,1.019,B,19.1,C,,C,60.9,,,C,,T,,M,,N,,M*27
20220630 180155+00:00 $GPRMC,180150,A,4918.7398,N,12306.4098,W,0,239,300622,11.8,E,A,V*49
20220630 180155+00:00 $WIMWV,306.49,R,6.4,N,A*19
20220630 180157+00:00 $HCHDT,1.4,T*2C
20220630 180157+00:00 $IIMDA,30.1,I,1.019,B,19.1,C,,C,60.9,,,C,,T,,M,,N,,M*27
20220630 180157+00:00 $GPRMC,180152,A,4918.7398,N,12306.4098,W,0,231,300622,11.8,E,A,V*43
20220630 180157+00:00 $WIMWV,308.19,R,7.58,N,A*2A
20220630 180159+00:00 $HCHDT,1.2,T*2A
20220630 180159+00:00 $IIMDA,30.1,I,1.019,B,19,C,,C,61,,,C,,T,,M,,N,,M*2E
20220630 180159+00:00 $GPRMC,180154,A,4918.7398,N,12306.4098,W,0,220,300622,11.8,E,A,V*45
20220630 180159+00:00 $WIMWV,304.19,R,7.29,N,A*20
20220630 180201+00:00 $HCHDT,1.2,T*2A
20220630 180201+00:00 $IIMDA,30.1,I,1.019,B,19,C,,C,61,,,C,,T,,M,,N,,M*2E
20220630 180201+00:00 $GPRMC,180156,A,4918.7398,N,12306.4098,W,0,212,300622,11.8,E,A,V*46
20220630 180201+00:00 $WIMWV,295.69,R,6.18,N,A*2D
20220630 180203+00:00 $HCHDT,1.2,T*2A
20220630 180203+00:00 $IIMDA,30.1,I,1.019,B,19,C,,C,61,,,C,,T,,M,,N,,M*2E
20220630 180203+00:00 $GPRMC,180158,A,4918.7398,N,12306.4098,W,0,206,300622,11.8,E,A,V*4D
20220630 180203+00:00 $WIMWV,334.19,R,6.4,N,A*1D
20220630 180205+00:00 $HCHDT,1.2,T*2A
20220630 180205+00:00 $IIMDA,30.1,I,1.019,B,19,C,,C,61,,,C,,T,,M,,N,,M*2E
20220630 180205+00:00 $GPRMC,180200,A,4918.7398,N,12306.4098,W,0,203,300622,11.8,E,A,V*46
20220630 180205+00:00 $WIMWV,357.59,R,4.9,N,A*13
20220630 180207+00:00 $HCHDT,1.2,T*2A
20220630 180207+00:00 $IIMDA,30.1,I,1.019,B,19,C,,C,61,,,C,,T,,M,,N,,M*2E
20220630 180207+00:00 $GPRMC,180202,A,4918.7398,N,12306.4098,W,0,202,300622,11.8,E,A,V*45
20220630 180207+00:00 $WIMWV,303.99,R,4.39,N,A*2D
20220630 180209+00:00 $HCHDT,1.2,T*2A
20220630 180209+00:00 $IIMDA,30.1,I,1.019,B,19,C,,C,61,,,C,,T,,M,,N,,M*2E
20220630 180209+00:00 $GPRMC,180204,A,4918.7398,N,12306.4098,W,0,206,300622,11.8,E,A,V*47
20220630 180209+00:00 $WIMWV,295.89,R,5.38,N,A*22
20220630 180211+00:00 $HCHDT,1.2,T*2A
20220630 180211+00:00 $IIMDA,30.1,I,1.019,B,19,C,,C,61,,,C,,T,,M,,N,,M*2E
20220630 180211+00:00 $GPRMC,180206,A,4918.7398,N,12306.4098,W,0,215,300622,11.8,E,A,V*47
20220630 180211+00:00 $WIMWV,298.09,R,5.19,N,A*24
20220630 180213+00:00 $HCHDT,1.2,T*2A
20220630 180213+00:00 $IIMDA,30.1,I,1.019,B,19,C,,C,60.9,,,C,,T,,M,,N,,M*38
20220630 180213+00:00 $GPRMC,180208,A,4918.7398,N,12306.4098,W,0,224,300622,11.8,E,A,V*4B
20220630 180213+00:00 $WIMWV,299.69,R,5.99,N,A*2B
20220630 180215+00:00 $HCHDT,1.2,T*2A
20220630 180215+00:00 $IIMDA,30.1,I,1.019,B,19,C,,C,60.8,,,C,,T,,M,,N,,M*39
20220630 180215+00:00 $GPRMC,180210,A,4918.7398,N,12306.4098,W,0,234,300622,11.8,E,A,V*43
20220630 180215+00:00 $WIMWV,308.69,R,6.69,N,A*2E
20220630 180217+00:00 $HCHDT,1.2,T*2A
20220630 180217+00:00 $IIMDA,30.1,I,1.019,B,19,C,,C,60.8,,,C,,T,,M,,N,,M*39
20220630 180217+00:00 $GPRMC,180212,A,4918.7398,N,12306.4098,W,0,254,300622,11.8,E,A,V*47
20220630 180217+00:00 $WIMWV,342.89,R,5.6,N,A*14
20220630 180219+00:00 $HCHDT,1.3,T*2B
20220630 180219+00:00 $IIMDA,30.1,I,1.019,B,19,C,,C,60.8,,,C,,T,,M,,N,,M*39
20220630 180219+00:00 $GPRMC,180214,A,4918.7398,N,12306.4098,W,0,273,300622,11.8,E,A,V*44
20220630 180219+00:00 $WIMWV,320.09,R,6.59,N,A*21
20220630 180221+00:00 $HCHDT,1.4,T*2C
20220630 180221+00:00 $IIMDA,30.1,I,1.019,B,19,C,,C,60.9,,,C,,T,,M,,N,,M*38
20220630 180221+00:00 $GPRMC,180216,A,4918.7398,N,12306.4098,W,0,278,300622,11.8,E,A,V*4D
20220630 180221+00:00 $WIMWV,314.09,R,5.48,N,A*25
20220630 180223+00:00 $HCHDT,1.4,T*2C
20220630 180223+00:00 $IIMDA,30.1,I,1.019,B,19,C,,C,60.8,,,C,,T,,M,,N,,M*39
20220630 180223+00:00 $GPRMC,180218,A,4918.7398,N,12306.4098,W,0,278,300622,11.8,E,A,V*43
20220630 180223+00:00 $WIMWV,310.99,R,4.9,N,A*1C
20220630 180225+00:00 $HCHDT,1.4,T*2C
20220630 180225+00:00 $IIMDA,30.1,I,1.019,B,19,C,,C,60.8,,,C,,T,,M,,N,,M*39
20220630 180225+00:00 $GPRMC,180220,A,4918.7398,N,12306.4098,W,0,268,300622,11.8,E,A,V*49
20220630 180225+00:00 $WIMWV,339.39,R,3.79,N,A*2D
20220630 180227+00:00 $HCHDT,1.4,T*2C
20220630 180227+00:00 $IIMDA,30.1,I,1.019,B,19,C,,C,60.8,,,C,,T,,M,,N,,M*39
20220630 180227+00:00 $GPRMC,180222,A,4918.7398,N,12306.4098,W,0,255,300622,11.8,E,A,V*45
20220630 180227+00:00 $WIMWV,339.49,R,3.38,N,A*2F
20220630 180229+00:00 $HCHDT,1.3,T*2B
20220630 180229+00:00 $IIMDA,30.1,I,1.019,B,19,C,,C,60.9,,,C,,T,,M,,N,,M*38
20220630 180229+00:00 $GPRMC,180224,A,4918.7398,N,12306.4098,W,0,244,300622,11.8,E,A,V*43
20220630 180229+00:00 $WIMWV,332.19,R,4.68,N,A*23
20220630 180231+00:00 $HCHDT,1.3,T*2B
20220630 180231+00:00 $IIMDA,30.1,I,1.019,B,19,C,,C,61,,,C,,T,,M,,N,,M*2E
20220630 180231+00:00 $GPRMC,180226,A,4918.7398,N,12306.4098,W,0,234,300622,11.8,E,A,V*46
20220630 180231+00:00 $WIMWV,306.09,R,8.09,N,A*2E
20220630 180233+00:00 $HCHDT,1.2,T*2A
20220630 180233+00:00 $IIMDA,30.1,I,1.019,B,19,C,,C,61,,,C,,T,,M,,N,,M*2E
20220630 180233+00:00 $GPRMC,180228,A,4918.7398,N,12306.4098,W,0,232,300622,11.8,E,A,V*4E
20220630 180233+00:00 $WIMWV,308.99,R,7.99,N,A*2F
20220630 180235+00:00 $HCHDT,1.2,T*2A
20220630 180235+00:00 $IIMDA,30.1,I,1.019,B,19,C,,C,60.9,,,C,,T,,M,,N,,M*38
20220630 180235+00:00 $GPRMC,180230,A,4918.7398,N,12306.4098,W,0,229,300622,11.8,E,A,V*4D
20220630 180235+00:00 $WIMWV,304.09,R,7,N,A*04
20220630 180237+00:00 $HCHDT,1.1,T*29
20220630 180237+00:00 $IIMDA,30.1,I,1.019,B,19,C,,C,60.8,,,C,,T,,M,,N,,M*39
20220630 180237+00:00 $GPRMC,180232,A,4918.7398,N,12306.4098,W,0,227,300622,11.8,E,A,V*41
20220630 180237+00:00 $WIMWV,316.99,R,5.7,N,A*15
20220630 180239+00:00 $HCHDT,1,T*36
20220630 180239+00:00 $IIMDA,30.1,I,1.019,B,19,C,,C,60.8,,,C,,T,,M,,N,,M*39
20220630 180239+00:00 $GPRMC,180234,A,4918.7398,N,12306.4098,W,0,225,300622,11.8,E,A,V*45
20220630 180239+00:00 $WIMWV,300.69,R,5.38,N,A*21
20220630 180241+00:00 $HCHDT,1.1,T*29
20220630 180241+00:00 $IIMDA,30.1,I,1.019,B,19,C,,C,60.7,,,C,,T,,M,,N,,M*36
20220630 180241+00:00 $GPRMC,180236,A,4918.7398,N,12306.4098,W,0,226,300622,11.8,E,A,V*44
20220630 180241+00:00 $WIMWV,317.59,R,6.59,N,A*20
20220630 180243+00:00 $HCHDT,1.1,T*29
20220630 180243+00:00 $IIMDA,30.1,I,1.019,B,19,C,,C,60.7,,,C,,T,,M,,N,,M*36
20220630 180243+00:00 $GPRMC,180238,A,4918.7398,N,12306.4098,W,0,233,300622,11.8,E,A,V*4E
20220630 180243+00:00 $WIMWV,309.49,R,6.59,N,A*2E
20220630 180245+00:00 $HCHDT,1.2,T*2A
20220630 180245+00:00 $IIMDA,30.1,I,1.019,B,19,C,,C,60.8,,,C,,T,,M,,N,,M*39
20220630 180245+00:00 $GPRMC,180240,A,4918.7398,N,12306.4098,W,0,244,300622,11.8,E,A,V*41
20220630 180245+00:00 $WIMWV,302.99,R,7,N,A*0B
20220630 180247+00:00 $HCHDT,1.2,T*2A
20220630 180247+00:00 $IIMDA,30.1,I,1.019,B,19,C,,C,60.9,,,C,,T,,M,,N,,M*38
20220630 180247+00:00 $GPRMC,180242,A,4918.7398,N,12306.4098,W,0,250,300622,11.8,E,A,V*46
20220630 180247+00:00 $WIMWV,295.59,R,5.79,N,A*2A
20220630 180249+00:00 $HCHDT,1.2,T*2A
20220630 180249+00:00 $IIMDA,30.1,I,1.019,B,19,C,,C,60.9,,,C,,T,,M,,N,,M*38
20220630 180249+00:00 $GPRMC,180244,A,4918.7398,N,12306.4098,W,0,257,300622,11.8,E,A,V*47
20220630 180249+00:00 $WIMWV,307.59,R,6.4,N,A*19
20220630 180251+00:00 $HCHDT,1.2,T*2A
20220630 180251+00:00 $IIMDA,30.1,I,1.019,B,19,C,,C,60.8,,,C,,T,,M,,N,,M*39
20220630 180251+00:00 $GPRMC,180246,A,4918.7398,N,12306.4098,W,0,255,300622,11.8,E,A,V*47
20220630 180251+00:00 $WIMWV,310.99,R,6.08,N,A*2F
20220630 180253+00:00 $HCHDT,1.3,T*2B
20220630 180253+00:00 $IIMDA,30.1,I,1.019,B,19,C,,C,60.8,,,C,,T,,M,,N,,M*39
20220630 180253+00:00 $GPRMC,180248,A,4918.7398,N,12306.4098,W,0,252,300622,11.8,E,A,V*4E
20220630 180253+00:00 $WIMWV,310.79,R,4.68,N,A*25
20220630 180255+00:00 $HCHDT,1.3,T*2B
20220630 180255+00:00 $IIMDA,30.1,I,1.019,B,19,C,,C,60.8,,,C,,T,,M,,N,,M*39
20220630 180255+00:00 $GPRMC,180250,A,4918.7398,N,12306.4098,W,0,240,300622,11.8,E,A,V*44
20220630 180255+00:00 $WIMWV,310.39,R,4.2,N,A*1D
20220630 180257+00:00 $HCHDT,1.4,T*2C
20220630 180257+00:00 $IIMDA,30.1,I,1.019,B,19,C,,C,60.8,,,C,,T,,M,,N,,M*39
20220630 180257+00:00 $GPRMC,180252,A,4918.7398,N,12306.4098,W,0,237,300622,11.8,E,A,V*46
20220630 180257+00:00 $WIMWV,333.09,R,2.39,N,A*21
20220630 180259+00:00 $HCHDT,1.4,T*2C
20220630 180259+00:00 $IIMDA,30.1,I,1.019,B,19,C,,C,60.9,,,C,,T,,M,,N,,M*38
20220630 180259+00:00 $GPRMC,180254,A,4918.7398,N,12306.4098,W,0,235,300622,11.8,E,A,V*42
20220630 180259+00:00 $WIMWV,355.49,R,2.8,N,A*17
20220630 180301+00:00 $HCHDT,1.4,T*2C
20220630 180301+00:00 $IIMDA,30.1,I,1.019,B,19,C,,C,61,,,C,,T,,M,,N,,M*2E
20220630 180301+00:00 $GPRMC,180256,A,4918.7398,N,12306.4098,W,0,235,300622,11.8,E,A,V*40
20220630 180301+00:00 $WIMWV,311.69,R,7.58,N,A*25
20220630 180303+00:00 $HCHDT,1.4,T*2C
20220630 180303+00:00 $IIMDA,30.1,I,1.019,B,19,C,,C,61.1,,,C,,T,,M,,N,,M*31
20220630 180303+00:00 $GPRMC,180258,A,4918.7398,N,12306.4098,W,0,238,300622,11.8,E,A,V*43
20220630 180303+00:00 $WIMWV,302.69,R,7.89,N,A*2B
20220630 180305+00:00 $HCHDT,1.4,T*2C
20220630 180305+00:00 $IIMDA,30.1,I,1.019,B,19,C,,C,61.1,,,C,,T,,M,,N,,M*31
20220630 180305+00:00 $GPRMC,180300,A,4918.7398,N,12306.4098,W,0,241,300622,11.8,E,A,V*41
20220630 180305+00:00 $WIMWV,299.99,R,7.89,N,A*27
20220630 180307+00:00 $HCHDT,1.4,T*2C
20220630 180307+00:00 $IIMDA,30.1,I,1.019,B,19,C,,C,61,,,C,,T,,M,,N,,M*2E
20220630 180307+00:00 $GPRMC,180302,A,4918.7398,N,12306.4098,W,0,237,300622,11.8,E,A,V*42
20220630 180307+00:00 $WIMWV,305.89,R,7.89,N,A*22
20220630 180309+00:00 $HCHDT,1.4,T*2C
20220630 180309+00:00 $IIMDA,30.1,I,1.019,B,19,C,,C,61,,,C,,T,,M,,N,,M*2E
20220630 180309+00:00 $GPRMC,180304,A,4918.7398,N,12306.4098,W,0,232,300622,11.8,E,A,V*41
20220630 180309+00:00 $WIMWV,312.49,R,6.59,N,A*24
20220630 180311+00:00 $HCHDT,1.4,T*2C
20220630 180311+00:00 $IIMDA,30.1,I,1.019,B,19,C,,C,61.1,,,C,,T,,M,,N,,M*31
20220630 180311+00:00 $GPRMC,180306,A,4918.7398,N,12306.4098,W,0,228,300622,11.8,E,A,V*48
20220630 180311+00:00 $WIMWV,305.99,R,7.1,N,A*13
20220630 180313+00:00 $HCHDT,1.4,T*2C
20220630 180313+00:00 $IIMDA,30.1,I,1.019,B,18.9,C,,C,61.1,,,C,,T,,M,,N,,M*27
20220630 180313+00:00 $GPRMC,180308,A,4918.7398,N,12306.4098,W,0,225,300622,11.8,E,A,V*4B
20220630 180313+00:00 $WIMWV,303.19,R,6.59,N,A*21
20220630 180315+00:00 $HCHDT,1.3,T*2B
20220630 180315+00:00 $IIMDA,30.1,I,1.019,B,18.9,C,,C,61.2,,,C,,T,,M,,N,,M*24
20220630 180315+00:00 $GPRMC,180310,A,4918.7398,N,12306.4098,W,0,222,300622,11.8,E,A,V*45
20220630 180315+00:00 $WIMWV,303.39,R,5.79,N,A*22
20220630 180317+00:00 $HCHDT,1.3,T*2B
20220630 180317+00:00 $IIMDA,30.1,I,1.019,B,18.9,C,,C,61.2,,,C,,T,,M,,N,,M*24
20220630 180317+00:00 $GPRMC,180312,A,4918.7398,N,12306.4098,W,0,220,300622,11.8,E,A,V*45
20220630 180317+00:00 $WIMWV,308.19,R,8.09,N,A*21
20220630 180319+00:00 $HCHDT,1.2,T*2A
20220630 180319+00:00 $IIMDA,30.1,I,1.019,B,18.9,C,,C,61.2,,,C,,T,,M,,N,,M*24
20220630 180319+00:00 $GPRMC,180314,A,4918.7398,N,12306.4098,W,0,228,300622,11.8,E,A,V*4B
20220630 180319+00:00 $WIMWV,318.09,R,6.3,N,A*15
20220630 180321+00:00 $HCHDT,1.2,T*2A
20220630 180321+00:00 $IIMDA,30.1,I,1.019,B,18.9,C,,C,61.2,,,C,,T,,M,,N,,M*24
20220630 180321+00:00 $GPRMC,180316,A,4918.7398,N,12306.4098,W,0,232,300622,11.8,E,A,V*42
20220630 180321+00:00 $WIMWV,311.29,R,7.48,N,A*20
20220630 180323+00:00 $HCHDT,1.2,T*2A
20220630 180323+00:00 $IIMDA,30.1,I,1.019,B,18.9,C,,C,61.2,,,C,,T,,M,,N,,M*24
20220630 180323+00:00 $GPRMC,180318,A,4918.7398,N,12306.4098,W,0,241,300622,11.8,E,A,V*48
20220630 180323+00:00 $WIMWV,290.09,R,5.09,N,A*2D
20220630 180325+00:00 $HCHDT,1.2,T*2A
20220630 180325+00:00 $IIMDA,30.1,I,1.019,B,18.9,C,,C,61.3,,,C,,T,,M,,N,,M*25
20220630 180325+00:00 $GPRMC,180320,A,4918.7398,N,12306.4098,W,0,260,300622,11.8,E,A,V*40
20220630 180325+00:00 $WIMWV,284.49,R,5.89,N,A*24
20220630 180327+00:00 $HCHDT,1.2,T*2A
20220630 180327+00:00 $IIMDA,30.1,I,1.019,B,18.9,C,,C,61.2,,,C,,T,,M,,N,,M*24
20220630 180327+00:00 $GPRMC,180322,A,4918.7398,N,12306.4098,W,0,274,300622,11.8,E,A,V*47
20220630 180327+00:00 $WIMWV,299.69,R,5,N,A*05
20220630 180329+00:00 $HCHDT,1.1,T*29
20220630 180329+00:00 $IIMDA,30.1,I,1.019,B,18.9,C,,C,61.2,,,C,,T,,M,,N,,M*24
20220630 180329+00:00 $GPRMC,180324,A,4918.7398,N,12306.4098,W,0,277,300622,11.8,E,A,V*42
20220630 180329+00:00 $WIMWV,295.49,R,5.7,N,A*12
20220630 180331+00:00 $HCHDT,1,T*36
20220630 180331+00:00 $IIMDA,30.1,I,1.019,B,18.9,C,,C,61.1,,,C,,T,,M,,N,,M*27
20220630 180331+00:00 $GPRMC,180326,A,4918.7398,N,12306.4098,W,0,284,300622,11.8,E,A,V*4C
20220630 180331+00:00 $WIMWV,308.89,R,6.69,N,A*20
20220630 180333+00:00 $HCHDT,1,T*36
20220630 180333+00:00 $IIMDA,30.1,I,1.019,B,18.9,C,,C,61.1,,,C,,T,,M,,N,,M*27
20220630 180333+00:00 $GPRMC,180328,A,4918.7398,N,12306.4098,W,0,278,300622,11.8,E,A,V*41
20220630 180333+00:00 $WIMWV,312.99,R,7.48,N,A*28
20220630 180335+00:00 $HCHDT,1.1,T*29
20220630 180335+00:00 $IIMDA,30.1,I,1.019,B,18.9,C,,C,61.2,,,C,,T,,M,,N,,M*24
20220630 180335+00:00 $GPRMC,180330,A,4918.7398,N,12306.4098,W,0,267,300622,11.8,E,A,V*46
20220630 180335+00:00 $WIMWV,333.59,R,5.99,N,A*29
20220630 180337+00:00 $HCHDT,1.1,T*29
20220630 180337+00:00 $IIMDA,30.1,I,1.019,B,18.9,C,,C,61.2,,,C,,T,,M,,N,,M*24
20220630 180337+00:00 $GPRMC,180332,A,4918.7398,N,12306.4098,W,0,258,300622,11.8,E,A,V*48
20220630 180337+00:00 $WIMWV,313.59,R,7.7,N,A*1E
20220630 180339+00:00 $HCHDT,1.1,T*29
20220630 180339+00:00 $IIMDA,30.1,I,1.019,B,18.9,C,,C,61.3,,,C,,T,,M,,N,,M*25
20220630 180339+00:00 $GPRMC,180334,A,4918.7398,N,12306.4098,W,0,254,300622,11.8,E,A,V*42
20220630 180339+00:00 $WIMWV,285.49,R,5.6,N,A*12
20220630 180341+00:00 $HCHDT,1.1,T*29
20220630 180341+00:00 $IIMDA,30.1,I,1.019,B,18.9,C,,C,61.3,,,C,,T,,M,,N,,M*25
20220630 180341+00:00 $GPRMC,180336,A,4918.7398,N,12306.4098,W,0,254,300622,11.8,E,A,V*40
20220630 180341+00:00 $WIMWV,308.09,R,7.48,N,A*2A
20220630 180343+00:00 $HCHDT,1.1,T*29
20220630 180343+00:00 $IIMDA,30.1,I,1.019,B,18.9,C,,C,61.2,,,C,,T,,M,,N,,M*24
20220630 180343+00:00 $GPRMC,180338,A,4918.7398,N,12306.4098,W,0,258,300622,11.8,E,A,V*42
20220630 180343+00:00 $WIMWV,313.79,R,7.7,N,A*1C
20220630 180345+00:00 $HCHDT,1,T*36
20220630 180345+00:00 $IIMDA,30.1,I,1.019,B,18.8,C,,C,61.2,,,C,,T,,M,,N,,M*25
20220630 180345+00:00 $GPRMC,180340,A,4918.7398,N,12306.4098,W,0,263,300622,11.8,E,A,V*45
20220630 180345+00:00 $WIMWV,316.69,R,8.18,N,A*29
20220630 180347+00:00 $HCHDT,1,T*36
20220630 180347+00:00 $IIMDA,30.1,I,1.019,B,18.8,C,,C,61.2,,,C,,T,,M,,N,,M*25
20220630 180347+00:00 $GPRMC,180342,A,4918.7398,N,12306.4098,W,0,267,300622,11.8,E,A,V*43
20220630 180347+00:00 $WIMWV,305.99,R,9.89,N,A*2D
20220630 180349+00:00 $HCHDT,1,T*36
20220630 180349+00:00 $IIMDA,30.1,I,1.019,B,18.8,C,,C,61.1,,,C,,T,,M,,N,,M*26
20220630 180349+00:00 $GPRMC,180344,A,4918.7398,N,12306.4098,W,0,267,300622,11.8,E,A,V*45
20220630 180349+00:00 $WIMWV,302.89,R,7.1,N,A*15
20220630 180351+00:00 $HCHDT,1,T*36
20220630 180351+00:00 $IIMDA,30.1,I,1.019,B,18.8,C,,C,61.1,,,C,,T,,M,,N,,M*26
20220630 180351+00:00 $GPRMC,180346,A,4918.7398,N,12306.4098,W,0,259,300622,11.8,E,A,V*4A
20220630 180351+00:00 $WIMWV,299.89,R,5.7,N,A*12
20220630 180353+00:00 $HCHDT,0.9,T*20
20220630 180353+00:00 $IIMDA,30.1,I,1.019,B,18.8,C,,C,61.2,,,C,,T,,M,,N,,M*25
20220630 180353+00:00 $GPRMC,180348,A,4918.7398,N,12306.4098,W,0,252,300622,11.8,E,A,V*4F
20220630 180353+00:00 $WIMWV,304.89,R,5.89,N,A*21
20220630 180355+00:00 $HCHDT,0.9,T*20
20220630 180355+00:00 $IIMDA,30.1,I,1.019,B,18.8,C,,C,61.1,,,C,,T,,M,,N,,M*26
20220630 180355+00:00 $GPRMC,180350,A,4918.7398,N,12306.4098,W,0,244,300622,11.8,E,A,V*41
20220630 180355+00:00 $WIMWV,295.59,R,5.09,N,A*2D
20220630 180357+00:00 $HCHDT,0.9,T*20
20220630 180357+00:00 $IIMDA,30.1,I,1.019,B,18.8,C,,C,61.2,,,C,,T,,M,,N,,M*25
20220630 180357+00:00 $GPRMC,180352,A,4918.7398,N,12306.4098,W,0,238,300622,11.8,E,A,V*48
20220630 180357+00:00 $WIMWV,306.59,R,5.79,N,A*21
20220630 180359+00:00 $HCHDT,0.9,T*20
20220630 180359+00:00 $IIMDA,30.1,I,1.019,B,18.8,C,,C,61.1,,,C,,T,,M,,N,,M*26
20220630 180359+00:00 $GPRMC,180354,A,4918.7398,N,12306.4098,W,0,234,300622,11.8,E,A,V*42
20220630 180359+00:00 $WIMWV,308.09,R,5.48,N,A*28
20220630 180401+00:00 $HCHDT,1,T*36
20220630 180401+00:00 $IIMDA,30.1,I,1.019,B,18.8,C,,C,61.2,,,C,,T,,M,,N,,M*25
20220630 180401+00:00 $GPRMC,180356,A,4918.7398,N,12306.4098,W,0,237,300622,11.8,E,A,V*43
20220630 180401+00:00 $WIMWV,297.49,R,5.09,N,A*2E
20220630 180403+00:00 $HCHDT,1,T*36
20220630 180403+00:00 $IIMDA,30.1,I,1.019,B,18.8,C,,C,61.2,,,C,,T,,M,,N,,M*25
20220630 180403+00:00 $GPRMC,180358,A,4918.7398,N,12306.4098,W,0,234,300622,11.8,E,A,V*4E
20220630 180403+00:00 $WIMWV,291.29,R,5,N,A*09
20220630 180405+00:00 $HCHDT,1,T*36
20220630 180405+00:00 $IIMDA,30.1,I,1.019,B,18.8,C,,C,61.2,,,C,,T,,M,,N,,M*25
20220630 180405+00:00 $GPRMC,180400,A,4918.7398,N,12306.4098,W,0,229,300622,11.8,E,A,V*48
20220630 180405+00:00 $WIMWV,289.09,R,4.68,N,A*23
20220630 180407+00:00 $HCHDT,1,T*36
20220630 180407+00:00 $IIMDA,30.1,I,1.019,B,18.8,C,,C,61.1,,,C,,T,,M,,N,,M*26
20220630 180407+00:00 $GPRMC,180402,A,4918.7398,N,12306.4098,W,0,221,300622,11.8,E,A,V*42
20220630 180407+00:00 $WIMWV,280.69,R,5.09,N,A*2A
20220630 180409+00:00 $HCHDT,0.9,T*20
20220630 180409+00:00 $IIMDA,30.1,I,1.019,B,18.8,C,,C,61.1,,,C,,T,,M,,N,,M*26
20220630 180409+00:00 $GPRMC,180404,A,4918.7398,N,12306.4098,W,0,218,300622,11.8,E,A,V*4E
20220630 180409+00:00 $WIMWV,293.89,R,5.48,N,A*23
20220630 180411+00:00 $HCHDT,0.9,T*20
20220630 180411+00:00 $IIMDA,30.1,I,1.019,B,18.8,C,,C,61.1,,,C,,T,,M,,N,,M*26
20220630 180411+00:00 $GPRMC,180406,A,4918.7398,N,12306.4098,W,0,207,300622,11.8,E,A,V*42
20220630 180411+00:00 $WIMWV,293.19,R,4.2,N,A*15
20220630 180413+00:00 $HCHDT,0.9,T*20
20220630 180413+00:00 $IIMDA,30.1,I,1.019,B,18.8,C,,C,61.1,,,C,,T,,M,,N,,M*26
20220630 180413+00:00 $GPRMC,180408,A,4918.7398,N,12306.4098,W,0,204,300622,11.8,E,A,V*4F
20220630 180413+00:00 $WIMWV,285.49,R,4.68,N,A*2B
20220630 180415+00:00 $HCHDT,0.9,T*20
20220630 180415+00:00 $IIMDA,30.1,I,1.019,B,18.8,C,,C,61.1,,,C,,T,,M,,N,,M*26
20220630 180415+00:00 $GPRMC,180410,A,4918.7398,N,12306.4098,W,0,178,300622,11.8,E,A,V*4E
20220630 180415+00:00 $WIMWV,295.89,R,5,N,A*07
20220630 180417+00:00 $HCHDT,0.8,T*21
20220630 180417+00:00 $IIMDA,30.1,I,1.019,B,18.9,C,,C,61,,,C,,T,,M,,N,,M*38
20220630 180417+00:00 $GPRMC,180412,A,4918.7398,N,12306.4098,W,0,150,300622,11.8,E,A,V*46
20220630 180417+00:00 $WIMWV,289.59,R,3.69,N,A*20
20220630 180419+00:00 $HCHDT,0.7,T*2E
20220630 180419+00:00 $IIMDA,30.1,I,1.019,B,18.9,C,,C,61.1,,,C,,T,,M,,N,,M*27
20220630 180419+00:00 $GPRMC,180414,A,4918.7398,N,12306.4098,W,0,133,300622,11.8,E,A,V*45
20220630 180419+00:00 $WIMWV,294.19,R,3.19,N,A*2F
20220630 180421+00:00 $HCHDT,0.8,T*21
20220630 180421+00:00 $IIMDA,30.1,I,1.019,B,18.9,C,,C,61.1,,,C,,T,,M,,N,,M*27
20220630 180421+00:00 $GPRMC,180416,A,4918.7398,N,12306.4098,W,0,116,300622,11.8,E,A,V*40
20220630 180421+00:00 $WIMWV,303.09,R,3.38,N,A*22
20220630 180423+00:00 $HCHDT,0.8,T*21
20220630 180423+00:00 $IIMDA,30.1,I,1.019,B,18.9,C,,C,61.1,,,C,,T,,M,,N,,M*27
20220630 180423+00:00 $GPRMC,180418,A,4918.7398,N,12306.4098,W,0,83,300622,11.8,E,A,V*73
20220630 180423+00:00 $WIMWV,343.99,R,1.98,N,A*27
20220630 180425+00:00 $HCHDT,0.9,T*20
20220630 180425+00:00 $IIMDA,30.1,I,1.019,B,18.9,C,,C,61.1,,,C,,T,,M,,N,,M*27
20220630 180425+00:00 $GPRMC,180420,A,4918.7398,N,12306.4098,W,0,38,300622,11.8,E,A,V*78
20220630 180425+00:00 $WIMWV,338.89,R,1.59,N,A*27
20220630 180427+00:00 $HCHDT,0.9,T*20
20220630 180427+00:00 $IIMDA,30.1,I,1.019,B,19,C,,C,61.2,,,C,,T,,M,,N,,M*32
20220630 180427+00:00 $GPRMC,180422,A,4918.7398,N,12306.4098,W,0,16,300622,11.8,E,A,V*76
20220630 180427+00:00 $WIMWV,312.49,R,2.1,N,A*1D
20220630 180429+00:00 $HCHDT,1,T*36
20220630 180429+00:00 $IIMDA,30.1,I,1.019,B,19,C,,C,61.3,,,C,,T,,M,,N,,M*33
20220630 180429+00:00 $GPRMC,180424,A,4918.7398,N,12306.4098,W,0,331,300622,11.8,E,A,V*46
20220630 180429+00:00 $WIMWV,286.59,R,1.69,N,A*2D
20220630 180431+00:00 $HCHDT,1,T*36
20220630 180431+00:00 $IIMDA,30.1,I,1.019,B,19,C,,C,61.2,,,C,,T,,M,,N,,M*32
20220630 180431+00:00 $GPRMC,180426,A,4918.7398,N,12306.4098,W,0,284,300622,11.8,E,A,V*4B
20220630 180431+00:00 $WIMWV,298.29,R,1.79,N,A*24
20220630 180433+00:00 $HCHDT,1,T*36
20220630 180433+00:00 $IIMDA,30.1,I,1.019,B,19,C,,C,61.3,,,C,,T,,M,,N,,M*33
20220630 180433+00:00 $GPRMC,180428,A,4918.7398,N,12306.4098,W,0,267,300622,11.8,E,A,V*48
20220630 180433+00:00 $WIMWV,316.69,R,2.29,N,A*21
20220630 180435+00:00 $HCHDT,1,T*36
20220630 180435+00:00 $IIMDA,30.1,I,1.019,B,19,C,,C,61.4,,,C,,T,,M,,N,,M*34
20220630 180435+00:00 $GPRMC,180430,A,4918.7398,N,12306.4098,W,0,261,300622,11.8,E,A,V*47
20220630 180435+00:00 $WIMWV,300.39,R,4.08,N,A*26
20220630 180437+00:00 $HCHDT,1.1,T*29
20220630 180437+00:00 $IIMDA,30.1,I,1.019,B,19,C,,C,61.4,,,C,,T,,M,,N,,M*34
20220630 180437+00:00 $GPRMC,180432,A,4918.7398,N,12306.4098,W,0,259,300622,11.8,E,A,V*4E
20220630 180437+00:00 $WIMWV,304.39,R,3.89,N,A*2C
20220630 180439+00:00 $HCHDT,1.2,T*2A
20220630 180439+00:00 $IIMDA,30.1,I,1.019,B,19,C,,C,61.4,,,C,,T,,M,,N,,M*34
20220630 180439+00:00 $GPRMC,180434,A,4918.7398,N,12306.4098,W,0,255,300622,11.8,E,A,V*44
20220630 180439+00:00 $WIMWV,294.49,R,2.8,N,A*1B
20220630 180441+00:00 $HCHDT,1.2,T*2A
20220630 180441+00:00 $IIMDA,30.1,I,1.019,B,19,C,,C,61.5,,,C,,T,,M,,N,,M*35
20220630 180441+00:00 $GPRMC,180436,A,4918.7398,N,12306.4098,W,0,253,300622,11.8,E,A,V*40
20220630 180441+00:00 $WIMWV,280.49,R,3.6,N,A*11
20220630 180443+00:00 $HCHDT,1.2,T*2A
20220630 180443+00:00 $IIMDA,30.1,I,1.019,B,19,C,,C,61.5,,,C,,T,,M,,N,,M*35
20220630 180443+00:00 $GPRMC,180438,A,4918.7398,N,12306.4098,W,0,252,300622,11.8,E,A,V*4F
20220630 180443+00:00 $WIMWV,311.79,R,3.5,N,A*18
20220630 180445+00:00 $HCHDT,1.2,T*2A
20220630 180445+00:00 $IIMDA,30.1,I,1.019,B,19,C,,C,61.5,,,C,,T,,M,,N,,M*35
20220630 180445+00:00 $GPRMC,180440,A,4918.7398,N,12306.4098,W,0,262,300622,11.8,E,A,V*43
20220630 180445+00:00 $WIMWV,334.79,R,4.08,N,A*25
20220630 180447+00:00 $HCHDT,1.2,T*2A
20220630 180447+00:00 $IIMDA,30.1,I,1.019,B,19,C,,C,61.5,,,C,,T,,M,,N,,M*35
20220630 180447+00:00 $GPRMC,180442,A,4918.7398,N,12306.4098,W,0,282,300622,11.8,E,A,V*4F
20220630 180447+00:00 $WIMWV,303.09,R,6.3,N,A*1F
20220630 180449+00:00 $HCHDT,1.2,T*2A
20220630 180449+00:00 $IIMDA,30.1,I,1.019,B,19,C,,C,61.4,,,C,,T,,M,,N,,M*34
20220630 180449+00:00 $GPRMC,180444,A,4918.7398,N,12306.4098,W,0,304,300622,11.8,E,A,V*46
20220630 180449+00:00 $WIMWV,309.89,R,7,N,A*01
20220630 180451+00:00 $HCHDT,1.1,T*29
20220630 180451+00:00 $IIMDA,30.1,I,1.019,B,19,C,,C,61.4,,,C,,T,,M,,N,,M*34
20220630 180451+00:00 $GPRMC,180446,A,4918.7398,N,12306.4098,W,0,311,300622,11.8,E,A,V*40
20220630 180451+00:00 $WIMWV,300.79,R,7.1,N,A*18
20220630 180453+00:00 $HCHDT,1,T*36
20220630 180453+00:00 $IIMDA,30.1,I,1.019,B,19,C,,C,61.3,,,C,,T,,M,,N,,M*33
20220630 180453+00:00 $GPRMC,180448,A,4918.7398,N,12306.4098,W,0,322,300622,11.8,E,A,V*4E
20220630 180453+00:00 $WIMWV,307.39,R,6.08,N,A*23
20220630 180455+00:00 $HCHDT,1,T*36
20220630 180455+00:00 $IIMDA,30.1,I,1.019,B,19,C,,C,61.2,,,C,,T,,M,,N,,M*32
20220630 180455+00:00 $GPRMC,180450,A,4918.7398,N,12306.4098,W,0,324,300622,11.8,E,A,V*41
20220630 180455+00:00 $WIMWV,328.59,R,4.2,N,A*10
20220630 180457+00:00 $HCHDT,1,T*36
20220630 180457+00:00 $IIMDA,30.1,I,1.019,B,19,C,,C,61.2,,,C,,T,,M,,N,,M*32
20220630 180457+00:00 $GPRMC,180452,A,4918.7398,N,12306.4098,W,0,327,300622,11.8,E,A,V*40
20220630 180457+00:00 $WIMWV,309.99,R,0.89,N,A*28
20220630 180459+00:00 $HCHDT,1.1,T*29
20220630 180459+00:00 $IIMDA,30.1,I,1.019,B,19,C,,C,61.3,,,C,,T,,M,,N,,M*33
20220630 180459+00:00 $GPRMC,180454,A,4918.7398,N,12306.4098,W,0,334,300622,11.8,E,A,V*44
20220630 180459+00:00 $WIMWV,278.99,R,4.3,N,A*19
20220630 180501+00:00 $HCHDT,1.1,T*29
20220630 180501+00:00 $IIMDA,30.1,I,1.019,B,19,C,,C,61.3,,,C,,T,,M,,N,,M*33
20220630 180501+00:00 $GPRMC,180456,A,4918.7398,N,12306.4098,W,0,334,300622,11.8,E,A,V*46
20220630 180501+00:00 $WIMWV,275.39,R,5.7,N,A*1B
20220630 180503+00:00 $HCHDT,1.2,T*2A
20220630 180503+00:00 $IIMDA,30.1,I,1.019,B,19,C,,C,61.2,,,C,,T,,M,,N,,M*32
20220630 180503+00:00 $GPRMC,180458,A,4918.7398,N,12306.4098,W,0,330,300622,11.8,E,A,V*4C
20220630 180503+00:00 $WIMWV,306.09,R,6.78,N,A*26
20220630 180505+00:00 $HCHDT,1.1,T*29
20220630 180505+00:00 $IIMDA,30.1,I,1.019,B,19,C,,C,61.1,,,C,,T,,M,,N,,M*31
20220630 180505+00:00 $GPRMC,180500,A,4918.7398,N,12306.4098,W,0,327,300622,11.8,E,A,V*46
20220630 180505+00:00 $WIMWV,301.39,R,6.59,N,A*21
20220630 180507+00:00 $HCHDT,1,T*36
20220630 180507+00:00 $IIMDA,30.1,I,1.019,B,19,C,,C,61.1,,,C,,T,,M,,N,,M*31
20220630 180507+00:00 $GPRMC,180502,A,4918.7398,N,12306.4098,W,0,320,300622,11.8,E,A,V*43
20220630 180507+00:00 $WIMWV,283.89,R,5.38,N,A*25
20220630 180509+00:00 $HCHDT,0.9,T*20
20220630 180509+00:00 $IIMDA,30.1,I,1.019,B,19,C,,C,61,,,C,,T,,M,,N,,M*2E
20220630 180509+00:00 $GPRMC,180504,A,4918.7398,N,12306.4098,W,0,301,300622,11.8,E,A,V*46
20220630 180509+00:00 $WIMWV,289.19,R,6.18,N,A*27
20220630 180511+00:00 $HCHDT,0.8,T*21
20220630 180511+00:00 $IIMDA,30.1,I,1.019,B,19,C,,C,60.9,,,C,,T,,M,,N,,M*38
20220630 180511+00:00 $GPRMC,180506,A,4918.7398,N,12306.4098,W,0,274,300622,11.8,E,A,V*47
20220630 180511+00:00 $WIMWV,298.29,R,5.7,N,A*19
20220630 180513+00:00 $HCHDT,0.8,T*21
20220630 180513+00:00 $IIMDA,30.1,I,1.019,B,19,C,,C,60.8,,,C,,T,,M,,N,,M*39
20220630 180513+00:00 $GPRMC,180508,A,4918.7398,N,12306.4098,W,0,265,300622,11.8,E,A,V*49
20220630 180513+00:00 $WIMWV,301.59,R,6.18,N,A*22
20220630 180515+00:00 $HCHDT,0.8,T*21
20220630 180515+00:00 $IIMDA,30.1,I,1.019,B,19,C,,C,60.8,,,C,,T,,M,,N,,M*39
20220630 180515+00:00 $GPRMC,180510,A,4918.7398,N,12306.4098,W,0,258,300622,11.8,E,A,V*4E
20220630 180515+00:00 $WIMWV,294.19,R,6.3,N,A*11
20220630 180517+00:00 $HCHDT,0.8,T*21
20220630 180517+00:00 $IIMDA,30.1,I,1.019,B,19,C,,C,60.7,,,C,,T,,M,,N,,M*36
20220630 180517+00:00 $GPRMC,180512,A,4918.7398,N,12306.4098,W,0,245,300622,11.8,E,A,V*40
20220630 180517+00:00 $WIMWV,274.4,R,7.1,N,A*20
20220630 180519+00:00 $HCHDT,0.9,T*20
20220630 180519+00:00 $IIMDA,30.1,I,1.019,B,19,C,,C,60.7,,,C,,T,,M,,N,,M*36
20220630 180519+00:00 $GPRMC,180514,A,4918.7398,N,12306.4098,W,0,238,300622,11.8,E,A,V*4C
20220630 180519+00:00 $WIMWV,290.69,R,3.19,N,A*2C
20220630 180521+00:00 $HCHDT,0.9,T*20
20220630 180521+00:00 $IIMDA,30.1,I,1.019,B,19,C,,C,60.7,,,C,,T,,M,,N,,M*36
20220630 180521+00:00 $GPRMC,180516,A,4918.7398,N,12306.4098,W,0,236,300622,11.8,E,A,V*40
20220630 180521+00:00 $WIMWV,281.9,R,5.79,N,A*1A
20220630 180523+00:00 $HCHDT,0.9,T*20
20220630 180523+00:00 $IIMDA,30.1,I,1.019,B,19,C,,C,60.7,,,C,,T,,M,,N,,M*36
20220630 180523+00:00 $GPRMC,180518,A,4918.7398,N,12306.4098,W,0,237,300622,11.8,E,A,V*4F
20220630 180523+00:00 $WIMWV,296.59,R,5.09,N,A*2E
20220630 180525+00:00 $HCHDT,0.9,T*20
20220630 180525+00:00 $IIMDA,30.1,I,1.019,B,19,C,,C,60.7,,,C,,T,,M,,N,,M*36
20220630 180525+00:00 $GPRMC,180520,A,4918.7398,N,12306.4098,W,0,239,300622,11.8,E,A,V*4A
20220630 180525+00:00 $WIMWV,285.59,R,5.7,N,A*12
20220630 180527+00:00 $HCHDT,0.9,T*20
20220630 180527+00:00 $IIMDA,30.1,I,1.019,B,19,C,,C,60.7,,,C,,T,,M,,N,,M*36
20220630 180527+00:00 $GPRMC,180522,A,4918.7398,N,12306.4098,W,0,238,300622,11.8,E,A,V*49
20220630 180527+00:00 $WIMWV,284.49,R,5.7,N,A*12
20220630 180529+00:00 $HCHDT,0.9,T*20
20220630 180529+00:00 $IIMDA,30.1,I,1.019,B,19,C,,C,60.7,,,C,,T,,M,,N,,M*36
20220630 180529+00:00 $GPRMC,180524,A,4918.7398,N,12306.4098,W,0,237,300622,11.8,E,A,V*40
20220630 180529+00:00 $WIMWV,282.59,R,8.4,N,A*1B
20220630 180531+00:00 $HCHDT,0.9,T*20
20220630 180531+00:00 $IIMDA,30.1,I,1.019,B,19,C,,C,60.6,,,C,,T,,M,,N,,M*37
20220630 180531+00:00 $GPRMC,180526,A,4918.7398,N,12306.4098,W,0,236,300622,11.8,E,A,V*43
20220630 180531+00:00 $WIMWV,288.19,R,6.18,N,A*26
20220630 180533+00:00 $HCHDT,0.8,T*21
20220630 180533+00:00 $IIMDA,30.1,I,1.019,B,19,C,,C,60.5,,,C,,T,,M,,N,,M*34
20220630 180533+00:00 $GPRMC,180528,A,4918.7398,N,12306.4098,W,0,234,300622,11.8,E,A,V*4F
20220630 180533+00:00 $WIMWV,296.19,R,5.09,N,A*2A
20220630 180535+00:00 $HCHDT,0.7,T*2E
20220630 180535+00:00 $IIMDA,30.1,I,1.019,B,19,C,,C,60.5,,,C,,T,,M,,N,,M*34
20220630 180535+00:00 $GPRMC,180530,A,4918.7398,N,12306.4098,W,0,233,300622,11.8,E,A,V*41
20220630 180535+00:00 $WIMWV,296.79,R,4.39,N,A*2E
20220630 180537+00:00 $HCHDT,0.6,T*2F
20220630 180537+00:00 $IIMDA,30.1,I,1.019,B,19,C,,C,60.6,,,C,,T,,M,,N,,M*37
20220630 180537+00:00 $GPRMC,180532,A,4918.7398,N,12306.4098,W,0,242,300622,11.8,E,A,V*45
20220630 180537+00:00 $WIMWV,322.89,R,4.2,N,A*17
20220630 180539+00:00 $HCHDT,0.5,T*2C
20220630 180539+00:00 $IIMDA,30.1,I,1.019,B,19,C,,C,60.6,,,C,,T,,M,,N,,M*37
20220630 180539+00:00 $GPRMC,180534,A,4918.7398,N,12306.4098,W,0,256,300622,11.8,E,A,V*46
20220630 180539+00:00 $WIMWV,302.59,R,6.4,N,A*1C
20220630 180541+00:00 $HCHDT,0.5,T*2C
20220630 180541+00:00 $IIMDA,30.1,I,1.019,B,19,C,,C,60.7,,,C,,T,,M,,N,,M*36
20220630 180541+00:00 $GPRMC,180536,A,4918.7398,N,12306.4098,W,0,268,300622,11.8,E,A,V*49
20220630 180541+00:00 $WIMWV,341.09,R,4.49,N,A*25
20220630 180543+00:00 $HCHDT,0.5,T*2C
20220630 180543+00:00 $IIMDA,30.1,I,1.019,B,19,C,,C,60.7,,,C,,T,,M,,N,,M*36
20220630 180543+00:00 $GPRMC,180538,A,4918.7398,N,12306.4098,W,0,269,300622,11.8,E,A,V*46
20220630 180543+00:00 $WIMWV,321.89,R,4.59,N,A*2A
20220630 180545+00:00 $HCHDT,0.5,T*2C
20220630 180545+00:00 $IIMDA,30.1,I,1.019,B,19,C,,C,60.7,,,C,,T,,M,,N,,M*36
20220630 180545+00:00 $GPRMC,180540,A,4918.7398,N,12306.4098,W,0,259,300622,11.8,E,A,V*4A
20220630 180545+00:00 $WIMWV,345.09,R,4.68,N,A*22
20220630 180547+00:00 $HCHDT,0.5,T*2C
20220630 180547+00:00 $IIMDA,30.1,I,1.019,B,19,C,,C,60.7,,,C,,T,,M,,N,,M*36
20220630 180547+00:00 $GPRMC,180542,A,4918.7398,N,12306.4098,W,0,246,300622,11.8,E,A,V*46
20220630 180547+00:00 $WIMWV,330.29,R,6.18,N,A*27
20220630 180549+00:00 $HCHDT,0.6,T*2F
20220630 180549+00:00 $IIMDA,30.1,I,1.019,B,19,C,,C,60.8,,,C,,T,,M,,N,,M*39
20220630 180549+00:00 $GPRMC,180544,A,4918.7398,N,12306.4098,W,0,236,300622,11.8,E,A,V*47
20220630 180549+00:00 $WIMWV,285.99,R,7.1,N,A*1A
20220630 180551+00:00 $HCHDT,0.7,T*2E
20220630 180551+00:00 $IIMDA,30.1,I,1.019,B,19,C,,C,60.8,,,C,,T,,M,,N,,M*39
20220630 180551+00:00 $GPRMC,180546,A,4918.7398,N,12306.4098,W,0,232,300622,11.8,E,A,V*41
20220630 180551+00:00 $WIMWV,287.2,R,5.79,N,A*17
20220630 180553+00:00 $HCHDT,0.8,T*21
20220630 180553+00:00 $IIMDA,30.1,I,1.019,B,19,C,,C,60.7,,,C,,T,,M,,N,,M*36
20220630 180553+00:00 $GPRMC,180548,A,4918.7398,N,12306.4098,W,0,231,300622,11.8,E,A,V*4C
20220630 180553+00:00 $WIMWV,287.89,R,5.7,N,A*1D
20220630 180555+00:00 $HCHDT,0.8,T*21
20220630 180555+00:00 $IIMDA,30.1,I,1.019,B,19,C,,C,60.6,,,C,,T,,M,,N,,M*37
20220630 180555+00:00 $GPRMC,180550,A,4918.7398,N,12306.4098,W,0,231,300622,11.8,E,A,V*45
20220630 180555+00:00 $WIMWV,287.69,R,5.99,N,A*24
20220630 180557+00:00 $HCHDT,0.9,T*20
20220630 180557+00:00 $IIMDA,30.1,I,1.019,B,19,C,,C,60.5,,,C,,T,,M,,N,,M*34
20220630 180557+00:00 $GPRMC,180552,A,4918.7398,N,12306.4098,W,0,233,300622,11.8,E,A,V*45
20220630 180557+00:00 $WIMWV,287.2,R,6.49,N,A*17
20220630 180559+00:00 $HCHDT,0.9,T*20
20220630 180559+00:00 $IIMDA,30.1,I,1.019,B,19,C,,C,60.4,,,C,,T,,M,,N,,M*35
20220630 180559+00:00 $GPRMC,180554,A,4918.7398,N,12306.4098,W,0,242,300622,11.8,E,A,V*45
20220630 180559+00:00 $WIMWV,280.89,R,6.3,N,A*1D
20220630 180601+00:00 $HCHDT,0.8,T*21
20220630 180601+00:00 $IIMDA,30.1,I,1.019,B,19,C,,C,60.4,,,C,,T,,M,,N,,M*35
20220630 180601+00:00 $GPRMC,180556,A,4918.7398,N,12306.4098,W,0,247,300622,11.8,E,A,V*42
20220630 180601+00:00 $WIMWV,294.19,R,5.19,N,A*29
20220630 180603+00:00 $HCHDT,0.9,T*20
20220630 180603+00:00 $IIMDA,30.1,I,1.019,B,19,C,,C,60.4,,,C,,T,,M,,N,,M*35
20220630 180603+00:00 $GPRMC,180558,A,4918.7398,N,12306.4098,W,0,243,300622,11.8,E,A,V*48
20220630 180603+00:00 $WIMWV,299.39,R,4.78,N,A*20
20220630 180605+00:00 $HCHDT,0.9,T*20
20220630 180605+00:00 $IIMDA,30.1,I,1.019,B,19,C,,C,60.5,,,C,,T,,M,,N,,M*34
20220630 180605+00:00 $GPRMC,180600,A,4918.7398,N,12306.4098,W,0,239,300622,11.8,E,A,V*4B
20220630 180605+00:00 $WIMWV,286.1,R,5.09,N,A*12
20220630 180607+00:00 $HCHDT,0.9,T*20
20220630 180607+00:00 $IIMDA,30.1,I,1.019,B,19,C,,C,60.6,,,C,,T,,M,,N,,M*37
20220630 180607+00:00 $GPRMC,180602,A,4918.7398,N,12306.4098,W,0,243,300622,11.8,E,A,V*44
20220630 180607+00:00 $WIMWV,296.69,R,4.3,N,A*16
20220630 180609+00:00 $HCHDT,0.9,T*20
20220630 180609+00:00 $IIMDA,30.1,I,1.019,B,19,C,,C,60.6,,,C,,T,,M,,N,,M*37
20220630 180609+00:00 $GPRMC,180604,A,4918.7398,N,12306.4098,W,0,245,300622,11.8,E,A,V*44
20220630 180609+00:00 $WIMWV,292.19,R,3.89,N,A*20
20220630 180611+00:00 $HCHDT,0.9,T*20
20220630 180611+00:00 $IIMDA,30.1,I,1.019,B,19,C,,C,60.7,,,C,,T,,M,,N,,M*36
20220630 180611+00:00 $GPRMC,180606,A,4918.7398,N,12306.4098,W,0,248,300622,11.8,E,A,V*4B
20220630 180611+00:00 $WIMWV,256.69,R,2.39,N,A*25
20220630 180613+00:00 $HCHDT,0.9,T*20
20220630 180613+00:00 $IIMDA,30.1,I,1.019,B,19,C,,C,60.7,,,C,,T,,M,,N,,M*36
20220630 180613+00:00 $GPRMC,180608,A,4918.7398,N,12306.4098,W,0,251,300622,11.8,E,A,V*4D
20220630 180613+00:00 $WIMWV,281.9,R,1.4,N,A*24
20220630 180615+00:00 $HCHDT,0.9,T*20
20220630 180615+00:00 $IIMDA,30.1,I,1.019,B,19,C,,C,60.7,,,C,,T,,M,,N,,M*36
20220630 180615+00:00 $GPRMC,180610,A,4918.7398,N,12306.4098,W,0,254,300622,11.8,E,A,V*41
20220630 180615+00:00 $WIMWV,273.49,R,3.89,N,A*2A
20220630 180617+00:00 $HCHDT,1,T*36
20220630 180617+00:00 $IIMDA,30.1,I,1.019,B,19,C,,C,60.8,,,C,,T,,M,,N,,M*39
20220630 180617+00:00 $GPRMC,180612,A,4918.7398,N,12306.4098,W,0,264,300622,11.8,E,A,V*40
20220630 180617+00:00 $WIMWV,274.09,R,6.69,N,A*22
20220630 180619+00:00 $HCHDT,0.9,T*20
20220630 180619+00:00 $IIMDA,30.1,I,1.019,B,19,C,,C,60.8,,,C,,T,,M,,N,,M*39
20220630 180619+00:00 $GPRMC,180614,A,4918.7398,N,12306.4098,W,0,269,300622,11.8,E,A,V*4B
20220630 180619+00:00 $WIMWV,271.69,R,8.88,N,A*20
20220630 180621+00:00 $HCHDT,1,T*36
20220630 180621+00:00 $IIMDA,30.1,I,1.019,B,19,C,,C,60.8,,,C,,T,,M,,N,,M*39
20220630 180621+00:00 $GPRMC,180616,A,4918.7398,N,12306.4098,W,0,268,300622,11.8,E,A,V*48
20220630 180621+00:00 $WIMWV,269.99,R,7.48,N,A*25
20220630 180623+00:00 $HCHDT,1,T*36
20220630 180623+00:00 $IIMDA,30.1,I,1.019,B,19,C,,C,60.7,,,C,,T,,M,,N,,M*36
20220630 180623+00:00 $GPRMC,180618,A,4918.7398,N,12306.4098,W,0,257,300622,11.8,E,A,V*4A
20220630 180623+00:00 $WIMWV,281.39,R,6.08,N,A*2C
20220630 180625+00:00 $HCHDT,0.9,T*20
20220630 180625+00:00 $IIMDA,30.1,I,1.019,B,19,C,,C,60.7,,,C,,T,,M,,N,,M*36
20220630 180625+00:00 $GPRMC,180620,A,4918.7398,N,12306.4098,W,0,249,300622,11.8,E,A,V*4E
20220630 180625+00:00 $WIMWV,286.19,R,4.68,N,A*2D
20220630 180627+00:00 $HCHDT,1,T*36
20220630 180627+00:00 $IIMDA,30.1,I,1.019,B,19,C,,C,60.7,,,C,,T,,M,,N,,M*36
20220630 180627+00:00 $GPRMC,180622,A,4918.7398,N,12306.4098,W,0,243,300622,11.8,E,A,V*46
20220630 180627+00:00 $WIMWV,280.89,R,6.08,N,A*26
20220630 180629+00:00 $HCHDT,1.1,T*29
20220630 180629+00:00 $IIMDA,30.1,I,1.019,B,19,C,,C,60.7,,,C,,T,,M,,N,,M*36
20220630 180629+00:00 $GPRMC,180624,A,4918.7398,N,12306.4098,W,0,244,300622,11.8,E,A,V*47
20220630 180629+00:00 $WIMWV,276.99,R,8.09,N,A*21
20220630 180631+00:00 $HCHDT,1.2,T*2A
20220630 180631+00:00 $IIMDA,30.1,I,1.019,B,19,C,,C,60.7,,,C,,T,,M,,N,,M*36
20220630 180631+00:00 $GPRMC,180626,A,4918.7398,N,12306.4098,W,0,246,300622,11.8,E,A,V*47
20220630 180631+00:00 $WIMWV,287.29,R,6.69,N,A*2C
20220630 180633+00:00 $HCHDT,1.3,T*2B
20220630 180633+00:00 $IIMDA,30.1,I,1.019,B,19,C,,C,60.7,,,C,,T,,M,,N,,M*36
20220630 180633+00:00 $GPRMC,180628,A,4918.7398,N,12306.4098,W,0,247,300622,11.8,E,A,V*48
20220630 180633+00:00 $WIMWV,279.29,R,6.3,N,A*11
20220630 180635+00:00 $HCHDT,1.3,T*2B
20220630 180635+00:00 $IIMDA,30.1,I,1.019,B,19,C,,C,60.7,,,C,,T,,M,,N,,M*36
20220630 180635+00:00 $GPRMC,180630,A,4918.7398,N,12306.4098,W,0,239,300622,11.8,E,A,V*48
20220630 180635+00:00 $WIMWV,286.1,R,5.29,N,A*10
20220630 180637+00:00 $HCHDT,1.3,T*2B
20220630 180637+00:00 $IIMDA,30.1,I,1.019,B,19,C,,C,60.6,,,C,,T,,M,,N,,M*37
20220630 180637+00:00 $GPRMC,180632,A,4918.7398,N,12306.4098,W,0,225,300622,11.8,E,A,V*47
20220630 180637+00:00 $WIMWV,331.59,R,4.2,N,A*18
20220630 180639+00:00 $HCHDT,1.3,T*2B
20220630 180639+00:00 $IIMDA,30.1,I,1.019,B,19,C,,C,60.7,,,C,,T,,M,,N,,M*36
20220630 180639+00:00 $GPRMC,180634,A,4918.7398,N,12306.4098,W,0,216,300622,11.8,E,A,V*41
20220630 180639+00:00 $WIMWV,3.1,R,2.99,N,A*13
20220630 180641+00:00 $HCHDT,1.4,T*2C
20220630 180641+00:00 $IIMDA,30.1,I,1.019,B,19,C,,C,60.8,,,C,,T,,M,,N,,M*39
20220630 180641+00:00 $GPRMC,180636,A,4918.7398,N,12306.4098,W,0,214,300622,11.8,E,A,V*41
20220630 180641+00:00 $WIMWV,4.5,R,2.59,N,A*1C
20220630 180643+00:00 $HCHDT,1.5,T*2D
20220630 180643+00:00 $IIMDA,30.1,I,1.019,B,19,C,,C,60.9,,,C,,T,,M,,N,,M*38
20220630 180643+00:00 $GPRMC,180638,A,4918.7398,N,12306.4098,W,0,219,300622,11.8,E,A,V*42
20220630 180643+00:00 $WIMWV,338.59,R,2.8,N,A*1D
20220630 180645+00:00 $HCHDT,1.6,T*2E
20220630 180645+00:00 $IIMDA,30.1,I,1.019,B,19.1,C,,C,61.1,,,C,,T,,M,,N,,M*2E
20220630 180645+00:00 $GPRMC,180640,A,4918.7398,N,12306.4098,W,0,224,300622,11.8,E,A,V*43
20220630 180645+00:00 $WIMWV,5.7,R,1.59,N,A*1C
20220630 180647+00:00 $HCHDT,1.6,T*2E
20220630 180647+00:00 $IIMDA,30.1,I,1.019,B,19.1,C,,C,61.2,,,C,,T,,M,,N,,M*2D
20220630 180647+00:00 $GPRMC,180642,A,4918.7398,N,12306.4098,W,0,227,300622,11.8,E,A,V*42
20220630 180647+00:00 $WIMWV,24,R,1.89,N,A*3B
20220630 180649+00:00 $HCHDT,1.7,T*2F
20220630 180649+00:00 $IIMDA,30.1,I,1.019,B,19.1,C,,C,61.3,,,C,,T,,M,,N,,M*2C
20220630 180649+00:00 $GPRMC,180644,A,4918.7398,N,12306.4098,W,0,229,300622,11.8,E,A,V*4A
20220630 180649+00:00 $WIMWV,331.09,R,3.6,N,A*1E
20220630 180651+00:00 $HCHDT,1.7,T*2F
20220630 180651+00:00 $IIMDA,30.1,I,1.019,B,19.1,C,,C,61.3,,,C,,T,,M,,N,,M*2C
20220630 180651+00:00 $GPRMC,180646,A,4918.7398,N,12306.4098,W,0,235,300622,11.8,E,A,V*45
20220630 180651+00:00 $WIMWV,343.39,R,2.2,N,A*1D
20220630 180653+00:00 $HCHDT,1.5,T*2D
20220630 180653+00:00 $IIMDA,30.1,I,1.019,B,19.1,C,,C,61.4,,,C,,T,,M,,N,,M*2B
20220630 180653+00:00 $GPRMC,180648,A,4918.7398,N,12306.4098,W,0,237,300622,11.8,E,A,V*49
20220630 180653+00:00 $WIMWV,309.39,R,2.39,N,A*2B
20220630 180655+00:00 $HCHDT,1.4,T*2C
20220630 180655+00:00 $IIMDA,30.1,I,1.019,B,19.1,C,,C,61.3,,,C,,T,,M,,N,,M*2C
20220630 180655+00:00 $GPRMC,180650,A,4918.7398,N,12306.4098,W,0,232,300622,11.8,E,A,V*45
20220630 180655+00:00 $WIMWV,307.39,R,3.19,N,A*26
20220630 180657+00:00 $HCHDT,1.3,T*2B
20220630 180657+00:00 $IIMDA,30.1,I,1.019,B,19.1,C,,C,61.3,,,C,,T,,M,,N,,M*2C
20220630 180657+00:00 $GPRMC,180652,A,4918.7398,N,12306.4098,W,0,227,300622,11.8,E,A,V*43
20220630 180657+00:00 $WIMWV,312.29,R,5.6,N,A*1B
20220630 180659+00:00 $HCHDT,1.2,T*2A
20220630 180659+00:00 $IIMDA,30.1,I,1.019,B,19.1,C,,C,61.3,,,C,,T,,M,,N,,M*2C
20220630 180659+00:00 $GPRMC,180654,A,4918.7398,N,12306.4098,W,0,226,300622,11.8,E,A,V*44
20220630 180659+00:00 $WIMWV,312.99,R,5.6,N,A*10
20220630 180701+00:00 $HCHDT,1.2,T*2A
20220630 180701+00:00 $IIMDA,30.1,I,1.019,B,19.1,C,,C,61.3,,,C,,T,,M,,N,,M*2C
20220630 180701+00:00 $GPRMC,180656,A,4918.7398,N,12306.4098,W,0,226,300622,11.8,E,A,V*46
20220630 180701+00:00 $WIMWV,311.69,R,5.29,N,A*21
20220630 180703+00:00 $HCHDT,1.2,T*2A
20220630 180703+00:00 $IIMDA,30.1,I,1.019,B,19.1,C,,C,61.3,,,C,,T,,M,,N,,M*2C
20220630 180703+00:00 $GPRMC,180658,A,4918.7398,N,12306.4098,W,0,227,300622,11.8,E,A,V*49
20220630 180703+00:00 $WIMWV,311.09,R,5.7,N,A*1B
20220630 180705+00:00 $HCHDT,1.3,T*2B
20220630 180705+00:00 $IIMDA,30.1,I,1.019,B,19.1,C,,C,61.1,,,C,,T,,M,,N,,M*2E
20220630 180705+00:00 $GPRMC,180700,A,4918.7398,N,12306.4098,W,0,229,300622,11.8,E,A,V*4B
20220630 180705+00:00 $WIMWV,307.19,R,5.09,N,A*23
20220630 180707+00:00 $HCHDT,1.3,T*2B
20220630 180707+00:00 $IIMDA,30.1,I,1.019,B,19.1,C,,C,61.1,,,C,,T,,M,,N,,M*2E
20220630 180707+00:00 $GPRMC,180702,A,4918.7398,N,12306.4098,W,0,246,300622,11.8,E,A,V*40
20220630 180707+00:00 $WIMWV,291.79,R,3.09,N,A*2D
20220630 180709+00:00 $HCHDT,1.3,T*2B
20220630 180709+00:00 $IIMDA,30.1,I,1.019,B,19.1,C,,C,61,,,C,,T,,M,,N,,M*31
20220630 180709+00:00 $GPRMC,180704,A,4918.7398,N,12306.4098,W,0,259,300622,11.8,E,A,V*48
20220630 180709+00:00 $WIMWV,298.99,R,3.29,N,A*28
20220630 180711+00:00 $HCHDT,1.4,T*2C
20220630 180711+00:00 $IIMDA,30.1,I,1.019,B,19.1,C,,C,61,,,C,,T,,M,,N,,M*31
20220630 180711+00:00 $GPRMC,180706,A,4918.7398,N,12306.4098,W,0,279,300622,11.8,E,A,V*48
20220630 180711+00:00 $WIMWV,334.99,R,3.29,N,A*2F
20220630 180713+00:00 $HCHDT,1.4,T*2C
20220630 180713+00:00 $IIMDA,30.1,I,1.019,B,19.1,C,,C,61.1,,,C,,T,,M,,N,,M*2E
20220630 180713+00:00 $GPRMC,180708,A,4918.7398,N,12306.4098,W,0,282,300622,11.8,E,A,V*42
20220630 180713+00:00 $WIMWV,343.19,R,1.79,N,A*20
20220630 180715+00:00 $HCHDT,1.5,T*2D
20220630 180715+00:00 $IIMDA,30.1,I,1.019,B,19.1,C,,C,61.1,,,C,,T,,M,,N,,M*2E
20220630 180715+00:00 $GPRMC,180710,A,4918.7398,N,12306.4098,W,0,283,300622,11.8,E,A,V*4A
20220630 180715+00:00 $WIMWV,331.99,R,1.09,N,A*2A
20220630 180717+00:00 $HCHDT,1.4,T*2C
20220630 180717+00:00 $IIMDA,30.1,I,1.019,B,19.1,C,,C,61.2,,,C,,T,,M,,N,,M*2D
20220630 180717+00:00 $GPRMC,180712,A,4918.7398,N,12306.4098,W,0,286,300622,11.8,E,A,V*4D
20220630 180717+00:00 $WIMWV,329.39,R,2.1,N,A*12
20220630 180719+00:00 $HCHDT,1.3,T*2B
20220630 180719+00:00 $IIMDA,30.1,I,1.019,B,19.1,C,,C,61.3,,,C,,T,,M,,N,,M*2C
20220630 180719+00:00 $GPRMC,180714,A,4918.7398,N,12306.4098,W,0,287,300622,11.8,E,A,V*4A
20220630 180719+00:00 $WIMWV,296.89,R,2.29,N,A*26
20220630 180721+00:00 $HCHDT,1.3,T*2B
20220630 180721+00:00 $IIMDA,30.1,I,1.019,B,19.1,C,,C,61.3,,,C,,T,,M,,N,,M*2C
20220630 180721+00:00 $GPRMC,180716,A,4918.7398,N,12306.4098,W,0,285,300622,11.8,E,A,V*4A
20220630 180721+00:00 $WIMWV,311.29,R,2.99,N,A*29
20220630 180723+00:00 $HCHDT,1.4,T*2C
20220630 180723+00:00 $IIMDA,30.1,I,1.019,B,19.1,C,,C,61.4,,,C,,T,,M,,N,,M*2B
20220630 180723+00:00 $GPRMC,180718,A,4918.7398,N,12306.4098,W,0,283,300622,11.8,E,A,V*42
20220630 180723+00:00 $WIMWV,314.39,R,2.59,N,A*21
20220630 180725+00:00 $HCHDT,1.4,T*2C
20220630 180725+00:00 $IIMDA,30.1,I,1.019,B,19.1,C,,C,61.4,,,C,,T,,M,,N,,M*2B
20220630 180725+00:00 $GPRMC,180720,A,4918.7398,N,12306.4098,W,0,280,300622,11.8,E,A,V*4A
20220630 180725+00:00 $WIMWV,297.79,R,3.09,N,A*2B
20220630 180727+00:00 $HCHDT,1.5,T*2D
20220630 180727+00:00 $IIMDA,30.1,I,1.019,B,19.2,C,,C,61.4,,,C,,T,,M,,N,,M*28
20220630 180727+00:00 $GPRMC,180722,A,4918.7398,N,12306.4098,W,0,263,300622,11.8,E,A,V*45
20220630 180727+00:00 $WIMWV,284.49,R,2.1,N,A*13
20220630 180729+00:00 $HCHDT,1.6,T*2E
20220630 180729+00:00 $IIMDA,30.1,I,1.019,B,19.2,C,,C,61.4,,,C,,T,,M,,N,,M*28
20220630 180729+00:00 $GPRMC,180724,A,4918.7398,N,12306.4098,W,0,248,300622,11.8,E,A,V*4A
20220630 180729+00:00 $WIMWV,295.29,R,2.68,N,A*2A
20220630 180731+00:00 $HCHDT,1.6,T*2E
20220630 180731+00:00 $IIMDA,30.1,I,1.019,B,19.2,C,,C,61.3,,,C,,T,,M,,N,,M*2F
20220630 180731+00:00 $GPRMC,180726,A,4918.7398,N,12306.4098,W,0,240,300622,11.8,E,A,V*40
20220630 180731+00:00 $WIMWV,298.79,R,2.8,N,A*14
20220630 180733+00:00 $HCHDT,1.6,T*2E
20220630 180733+00:00 $IIMDA,30.1,I,1.019,B,19.2,C,,C,61.4,,,C,,T,,M,,N,,M*28
20220630 180733+00:00 $GPRMC,180728,A,4918.7398,N,12306.4098,W,0,239,300622,11.8,E,A,V*40
20220630 180733+00:00 $WIMWV,286.79,R,2.29,N,A*28
20220630 180735+00:00 $HCHDT,1.5,T*2D
20220630 180735+00:00 $IIMDA,30.1,I,1.019,B,19.2,C,,C,61.3,,,C,,T,,M,,N,,M*2F
20220630 180735+00:00 $GPRMC,180730,A,4918.7398,N,12306.4098,W,0,239,300622,11.8,E,A,V*49
20220630 180735+00:00 $WIMWV,336.69,R,4.39,N,A*24
20220630 180737+00:00 $HCHDT,1.4,T*2C
20220630 180737+00:00 $IIMDA,30.1,I,1.019,B,19.2,C,,C,61.3,,,C,,T,,M,,N,,M*2F
20220630 180737+00:00 $GPRMC,180732,A,4918.7398,N,12306.4098,W,0,240,300622,11.8,E,A,V*45
20220630 180737+00:00 $WIMWV,313.99,R,3.98,N,A*20
20220630 180739+00:00 $HCHDT,1.2,T*2A
20220630 180739+00:00 $IIMDA,30.1,I,1.019,B,19.2,C,,C,61.2,,,C,,T,,M,,N,,M*2E
20220630 180739+00:00 $GPRMC,180734,A,4918.7398,N,12306.4098,W,0,239,300622,11.8,E,A,V*4D
20220630 180739+00:00 $WIMWV,351.89,R,3.6,N,A*10
20220630 180741+00:00 $HCHDT,1.1,T*29
20220630 180741+00:00 $IIMDA,30.1,I,1.019,B,19.2,C,,C,61.1,,,C,,T,,M,,N,,M*2D
20220630 180741+00:00 $GPRMC,180736,A,4918.7398,N,12306.4098,W,0,237,300622,11.8,E,A,V*41
20220630 180741+00:00 $WIMWV,334.19,R,5.7,N,A*1D
20220630 180743+00:00 $HCHDT,1,T*36
20220630 180743+00:00 $IIMDA,30.1,I,1.019,B,19.2,C,,C,61.1,,,C,,T,,M,,N,,M*2D
20220630 180743+00:00 $GPRMC,180738,A,4918.7398,N,12306.4098,W,0,234,300622,11.8,E,A,V*4C
20220630 180743+00:00 $WIMWV,318.29,R,3.29,N,A*2A
20220630 180745+00:00 $HCHDT,1,T*36
20220630 180745+00:00 $IIMDA,30.1,I,1.019,B,19.2,C,,C,61.1,,,C,,T,,M,,N,,M*2D
20220630 180745+00:00 $GPRMC,180740,A,4918.7398,N,12306.4098,W,0,229,300622,11.8,E,A,V*4F
20220630 180745+00:00 $WIMWV,300.99,R,5.38,N,A*2E
20220630 180747+00:00 $HCHDT,1,T*36
20220630 180747+00:00 $IIMDA,30.1,I,1.019,B,19.2,C,,C,61.1,,,C,,T,,M,,N,,M*2D
20220630 180747+00:00 $GPRMC,180742,A,4918.7398,N,12306.4098,W,0,218,300622,11.8,E,A,V*4F
20220630 180747+00:00 $WIMWV,300.09,R,3.79,N,A*24
20220630 180749+00:00 $HCHDT,1,T*36
20220630 180749+00:00 $IIMDA,30.1,I,1.019,B,19.2,C,,C,61,,,C,,T,,M,,N,,M*32
20220630 180749+00:00 $GPRMC,180744,A,4918.7398,N,12306.4098,W,0,215,300622,11.8,E,A,V*44
20220630 180749+00:00 $WIMWV,308.09,R,5.7,N,A*13
20220630 180751+00:00 $HCHDT,1,T*36
20220630 180751+00:00 $IIMDA,30.1,I,1.019,B,19.2,C,,C,61,,,C,,T,,M,,N,,M*32
20220630 180751+00:00 $GPRMC,180746,A,4918.7398,N,12306.4098,W,0,215,300622,11.8,E,A,V*46
20220630 180751+00:00 $WIMWV,303.99,R,5.6,N,A*10
20220630 180753+00:00 $HCHDT,0.9,T*20
